[{"name": "Abrasa", "state": "SC", "type": "CGH", "phase": "Opera\u00e7\u00e3o", "ceg": "CGHPHSC000016701", "start": "1965-02-01T00:00:00", "capacity": 1460.0, "lat": -26.77166667, "lon": -52.1875}, {"name": "Dona Assunta", "state": "MT", "type": "CGH", "phase": "Opera\u00e7\u00e3o", "ceg": "CGHPHMT000040002", "start": "1994-06-01T00:00:00", "capacity": 1900.0, "lat": -14.86277778, "lon": -53.29166667}, {"name": "Alta Floresta", "state": "RO", "type": "CGH", "phase": "Opera\u00e7\u00e3o", "ceg": "CGHPHRO000058202", "start": "1993-03-22T00:00:00", "capacity": 5000.0, "lat": -11.93855469, "lon": -62.04049991}, {"name": "Alto Benedito Novo", "state": "SC", "type": "CGH", "phase": "Opera\u00e7\u00e3o", "ceg": "CGHPHSC000068002", "start": "1991-01-04T00:00:00", "capacity": 2740.0, "lat": -26.78082975, "lon": -49.39666915}, {"name": "Anil", "state": "MG", "type": "CGH", "phase": "Opera\u00e7\u00e3o", "ceg": "CGHPHMG000103102", "start": "1964-03-01T00:00:00", "capacity": 2056.0, "lat": -20.81871261, "lon": -45.06023334}, {"name": "Aprovale - Associa\u00e7\u00e3o Dos Produtores Do Vale Do Cedro", "state": "MT", "type": "CGH", "phase": "Opera\u00e7\u00e3o", "ceg": "CGHPHMT000120101", "start": "2019-12-10T00:00:00", "capacity": 2600.0, "lat": -12.89109775, "lon": -56.13920028}, {"name": "Barulho", "state": "MG", "type": "CGH", "phase": "Opera\u00e7\u00e3o", "ceg": "CGHPHMG000234802", "start": "1940-01-31T00:00:00", "capacity": 1320.0, "lat": -22.005, "lon": -44.40611111}, {"name": "Xic\u00e3o", "state": "MG", "type": "CGH", "phase": "Opera\u00e7\u00e3o", "ceg": "CGHPHMG000284401", "start": "1942-01-01T00:00:00", "capacity": 1808.0, "lat": -19.82169389, "lon": -42.31867944}, {"name": "Buric\u00e1", "state": "RS", "type": "CGH", "phase": "Opera\u00e7\u00e3o", "ceg": "CGHPHRS000329802", "start": "1999-05-08T00:00:00", "capacity": 3240.0, "lat": -27.89166667, "lon": -54.10305556}, {"name": "Caboclo", "state": "MG", "type": "CGH", "phase": "Opera\u00e7\u00e3o", "ceg": "CGHPHMG000345002", "start": "1944-12-23T00:00:00", "capacity": 4420.0, "lat": -20.49500741, "lon": -43.48276533}, {"name": "Cachoeira dos Prazeres", "state": "MG", "type": "CGH", "phase": "Opera\u00e7\u00e3o", "ceg": "CGHPHMG000526602", "start": "1951-01-01T00:00:00", "capacity": 3757.5, "lat": -20.47727223, "lon": -43.44662222}, {"name": "Diamante", "state": "MT", "type": "CGH", "phase": "Opera\u00e7\u00e3o", "ceg": "CGHPHMT000607601", "start": "2005-12-29T00:00:00", "capacity": 4050.0, "lat": -14.34620934, "lon": -56.79490053}, {"name": "Luiz Dias", "state": "MG", "type": "CGH", "phase": "Opera\u00e7\u00e3o", "ceg": "CGHPHMG001344702", "start": "1914-01-01T00:00:00", "capacity": 1610.0, "lat": -22.36944444, "lon": -45.34944444}, {"name": "Caranda\u00ed", "state": "MG", "type": "CGH", "phase": "Opera\u00e7\u00e3o", "ceg": "CGHPHMG000667001", "start": "1992-01-01T00:00:00", "capacity": 4194.4, "lat": -21.05555555, "lon": -44.20944445}, {"name": "Companhia Tecidos Santanense", "state": "MG", "type": "CGH", "phase": "Opera\u00e7\u00e3o", "ceg": "CGHPHMG000680703", "start": "1969-09-18T00:00:00", "capacity": 1472.0, "lat": -19.80694444, "lon": -44.78444444}, {"name": "Coronel Jo\u00e3o de Cerqueira Lima", "state": "MG", "type": "CGH", "phase": "Opera\u00e7\u00e3o", "ceg": "CGHPHMG000739002", "start": "2020-12-01T00:00:00", "capacity": 1500.0, "lat": -19.97222222, "lon": -44.60388889}, {"name": "Chibarro", "state": "SP", "type": "CGH", "phase": "Opera\u00e7\u00e3o", "ceg": "CGHPHSP000768401", "start": "1912-01-01T00:00:00", "capacity": 2592.0, "lat": -21.88795691, "lon": -48.14748976}, {"name": "Chopim I", "state": "PR", "type": "CGH", "phase": "Opera\u00e7\u00e3o", "ceg": "CGHPHPR000771402", "start": "1963-05-28T00:00:00", "capacity": 1980.0, "lat": -25.98557577, "lon": -52.747351}, {"name": "Colorado", "state": "RS", "type": "CGH", "phase": "Opera\u00e7\u00e3o", "ceg": "CGHPHRS000797802", "start": "1973-01-17T00:00:00", "capacity": 1120.0, "lat": -28.62942553, "lon": -52.93563052}, {"name": "Aquarius", "state": "MS", "type": "CGH", "phase": "Opera\u00e7\u00e3o", "ceg": "CGHPHMS000859102", "start": "2006-09-19T00:00:00", "capacity": 4500.0, "lat": -17.61889751, "lon": -54.88834736}, {"name": "Corumbata\u00ed", "state": "SP", "type": "CGH", "phase": "Opera\u00e7\u00e3o", "ceg": "CGHPHSP000868001", "start": "2008-08-07T00:00:00", "capacity": 1700.0, "lat": -22.48054828, "lon": -47.59218213}, {"name": "Gavi\u00e3o Peixoto", "state": "SP", "type": "CGH", "phase": "Opera\u00e7\u00e3o", "ceg": "CGHPHSP001025101", "start": "1913-01-01T00:00:00", "capacity": 4860.0, "lat": -21.84694444, "lon": -48.48944444}, {"name": "Fagundes", "state": "RJ", "type": "CGH", "phase": "Opera\u00e7\u00e3o", "ceg": "CGHPHRJ000928802", "start": "1923-02-27T00:00:00", "capacity": 4800.0, "lat": -22.21861111, "lon": -43.16555556}, {"name": "Soledade", "state": "RS", "type": "CGH", "phase": "Opera\u00e7\u00e3o", "ceg": "CGHPHRS000931803", "start": "2019-05-01T00:00:00", "capacity": 1196.0, "lat": -28.93772056, "lon": -52.48592889}, {"name": "Faxinal I", "state": "MT", "type": "CGH", "phase": "Opera\u00e7\u00e3o", "ceg": "CGHPHMT000935002", "start": "1997-03-01T00:00:00", "capacity": 2788.0, "lat": -10.16499722, "lon": -59.45237778}, {"name": "Ilh\u00e9us", "state": "MG", "type": "CGH", "phase": "Opera\u00e7\u00e3o", "ceg": "CGHPHMG001122302", "start": "1916-03-12T00:00:00", "capacity": 2560.0, "lat": -21.27253394, "lon": -43.88293166}, {"name": "Izabel", "state": "SP", "type": "CGH", "phase": "Opera\u00e7\u00e3o", "ceg": "CGHPHSP001148703", "start": "1915-05-01T00:00:00", "capacity": 3168.0, "lat": -22.7275131, "lon": -45.45211587}, {"name": "Ituer\u00ea", "state": "MG", "type": "CGH", "phase": "Opera\u00e7\u00e3o", "ceg": "CGHPHMG001192402", "start": "1918-10-01T00:00:00", "capacity": 4040.0, "lat": -21.2993535, "lon": -43.20857571}, {"name": "Ivo Silveira", "state": "SC", "type": "CGH", "phase": "Opera\u00e7\u00e3o", "ceg": "CGHPHSC001202502", "start": "1967-10-14T00:00:00", "capacity": 2600.0, "lat": -27.54112707, "lon": -51.44024806}, {"name": "Jaguaricatu II", "state": "PR", "type": "CGH", "phase": "Opera\u00e7\u00e3o", "ceg": "CGHPHPR001231902", "start": "1981-08-31T00:00:00", "capacity": 2640.0, "lat": -24.16864155, "lon": -49.49150369}, {"name": "Jo\u00e3o de Deus", "state": "MG", "type": "CGH", "phase": "Opera\u00e7\u00e3o", "ceg": "CGHPHMG001252102", "start": "1975-12-24T00:00:00", "capacity": 1569.99, "lat": -19.63946177, "lon": -45.10903684}, {"name": "Lago Azul", "state": "GO", "type": "CGH", "phase": "Opera\u00e7\u00e3o", "ceg": "CGHPHGO001298002", "start": "1988-09-01T00:00:00", "capacity": 3193.6, "lat": -17.28, "lon": -47.52416667}, {"name": "Lajes", "state": "TO", "type": "CGH", "phase": "Opera\u00e7\u00e3o", "ceg": "CGHPHTO001305601", "start": "1970-06-01T00:00:00", "capacity": 1932.0, "lat": -6.78194444, "lon": -48.15083333}, {"name": "Salto do Le\u00e3o", "state": "SC", "type": "CGH", "phase": "Opera\u00e7\u00e3o", "ceg": "CGHPHSC001320002", "start": "1946-01-01T00:00:00", "capacity": 1344.0, "lat": -27.31473645, "lon": -51.47770505}, {"name": "Len\u00e7\u00f3is", "state": "SP", "type": "CGH", "phase": "Opera\u00e7\u00e3o", "ceg": "CGHPHSP001322601", "start": "1917-01-01T00:00:00", "capacity": 1680.0, "lat": -22.52694444, "lon": -48.64861111}, {"name": "Marcol", "state": "RO", "type": "CGH", "phase": "Opera\u00e7\u00e3o", "ceg": "CGHPHRO001412502", "start": "2011-11-24T00:00:00", "capacity": 2500.2, "lat": -12.84516383, "lon": -60.32204556}, {"name": "Marzag\u00e3o", "state": "MG", "type": "CGH", "phase": "Opera\u00e7\u00e3o", "ceg": "CGHPHMG001430302", "start": "1987-07-13T00:00:00", "capacity": 2032.0, "lat": -19.89972222, "lon": -43.87444444}, {"name": "Mata Cobra", "state": "RS", "type": "CGH", "phase": "Opera\u00e7\u00e3o", "ceg": "CGHPHRS001433802", "start": "1973-01-17T00:00:00", "capacity": 2880.0, "lat": -28.10295278, "lon": -53.01492778}, {"name": "Marumbi", "state": "PR", "type": "CGH", "phase": "Opera\u00e7\u00e3o", "ceg": "CGHPHPR001501602", "start": "1961-04-05T00:00:00", "capacity": 4800.0, "lat": -25.42416667, "lon": -48.92111111}, {"name": "Nova Jaguaria\u00edva", "state": "PR", "type": "CGH", "phase": "Opera\u00e7\u00e3o", "ceg": "CGHPHPR001549002", "start": "1995-05-24T00:00:00", "capacity": 1218.75, "lat": -24.28183806, "lon": -49.69506108}, {"name": "Pac\u00edfico Mascarenhas", "state": "MG", "type": "CGH", "phase": "Opera\u00e7\u00e3o", "ceg": "CGHPHMG001928302", "start": "1928-01-01T00:00:00", "capacity": 5000.0, "lat": -19.263892, "lon": -43.6061419}, {"name": "Paina II", "state": "PR", "type": "CGH", "phase": "Opera\u00e7\u00e3o", "ceg": "CGHPHPR001937202", "start": "2004-07-05T00:00:00", "capacity": 1200.0, "lat": -24.88918417, "lon": -49.59155889}, {"name": "Palheiros Klabin", "state": "SC", "type": "CGH", "phase": "Opera\u00e7\u00e3o", "ceg": "CGHPHSC001939902", "start": "1952-12-01T00:00:00", "capacity": 1840.0, "lat": -27.59652778, "lon": -49.74011111}, {"name": "Pari", "state": "SP", "type": "CGH", "phase": "Opera\u00e7\u00e3o", "ceg": "CGHPHSP001988702", "start": "1937-04-10T00:00:00", "capacity": 1344.0, "lat": -22.88166667, "lon": -50.33083333}, {"name": "Picada 48", "state": "RS", "type": "CGH", "phase": "Opera\u00e7\u00e3o", "ceg": "CGHPHRS002054001", "start": "2012-12-20T00:00:00", "capacity": 1270.0, "lat": -29.58405755, "lon": -51.11729688}, {"name": "Quatiara", "state": "SP", "type": "CGH", "phase": "Opera\u00e7\u00e3o", "ceg": "CGHPHSP002164402", "start": "1939-01-01T00:00:00", "capacity": 2600.0, "lat": -21.95167443, "lon": -50.92912507}, {"name": "Ribeir\u00e3o do Pinhal", "state": "SP", "type": "CGH", "phase": "Opera\u00e7\u00e3o", "ceg": "CGHPHSP002238102", "start": "2003-07-15T00:00:00", "capacity": 1200.0, "lat": -22.66029788, "lon": -47.27800741}, {"name": "Rieger Agropecu\u00e1ria", "state": "BA", "type": "CGH", "phase": "Opera\u00e7\u00e3o", "ceg": "CGHPHBA002271302", "start": "1987-08-01T00:00:00", "capacity": 3000.0, "lat": -12.45221499, "lon": -45.19038176}, {"name": "Mario Fett", "state": "SC", "type": "CGH", "phase": "Opera\u00e7\u00e3o", "ceg": "CGHPHSC002354001", "start": "1947-01-01T00:00:00", "capacity": 1710.0, "lat": -27.20743719, "lon": -51.51117224}, {"name": "Rio Tigre", "state": "SC", "type": "CGH", "phase": "Opera\u00e7\u00e3o", "ceg": "CGHPHSC002514302", "start": "2020-11-20T00:00:00", "capacity": 5000.0, "lat": -27.12360174, "lon": -52.76629123}, {"name": "Rio Vermelho", "state": "RO", "type": "CGH", "phase": "Opera\u00e7\u00e3o", "ceg": "CGHPHRO002530502", "start": "1986-11-04T00:00:00", "capacity": 2560.0, "lat": -12.89964194, "lon": -60.19707194}, {"name": "Salto Belo", "state": "MT", "type": "CGH", "phase": "Opera\u00e7\u00e3o", "ceg": "CGHPHMT002581002", "start": "1996-01-01T00:00:00", "capacity": 4000.0, "lat": -14.8690537, "lon": -53.3017543}, {"name": "Salto Claudelino", "state": "PR", "type": "CGH", "phase": "Opera\u00e7\u00e3o", "ceg": "CGHPHPR002592502", "start": "1984-10-30T00:00:00", "capacity": 2800.0, "lat": -26.28083333, "lon": -52.29722222}, {"name": "Salto da Barra", "state": "SP", "type": "CGH", "phase": "Opera\u00e7\u00e3o", "ceg": "CGHPHSP002596802", "start": "1954-01-01T00:00:00", "capacity": 2092.0, "lat": -24.06388889, "lon": -48.72666667}, {"name": "Salto do Jardim", "state": "PR", "type": "CGH", "phase": "Opera\u00e7\u00e3o", "ceg": "CGHPHPR002628001", "start": "1966-03-07T00:00:00", "capacity": 1190.0, "lat": -26.24801069, "lon": -51.28058158}, {"name": "Salto Morais", "state": "MG", "type": "CGH", "phase": "Opera\u00e7\u00e3o", "ceg": "CGHPHMG002656502", "start": "1957-01-01T00:00:00", "capacity": 2394.0, "lat": -18.95018278, "lon": -49.38268361}, {"name": "Salto Rio Branco", "state": "PR", "type": "CGH", "phase": "Opera\u00e7\u00e3o", "ceg": "CGHPHPR002670002", "start": "1990-01-01T00:00:00", "capacity": 4191.52, "lat": -25.16766944, "lon": -50.94234444}, {"name": "S\u00e3o Valentim", "state": "SP", "type": "CGH", "phase": "Opera\u00e7\u00e3o", "ceg": "CGHPHSP002707302", "start": "2009-12-05T00:00:00", "capacity": 1450.0, "lat": -21.74449342, "lon": -47.41134942}, {"name": "Sumidouro", "state": "MG", "type": "CGH", "phase": "Opera\u00e7\u00e3o", "ceg": "CGHPHMG002782002", "start": "1954-02-01T00:00:00", "capacity": 2120.0, "lat": -19.80120616, "lon": -42.30208571}, {"name": "Taguatinga", "state": "TO", "type": "CGH", "phase": "Opera\u00e7\u00e3o", "ceg": "CGHPHTO002796001", "start": "1983-01-01T00:00:00", "capacity": 1751.0, "lat": -12.4694296, "lon": -46.44417879}, {"name": "Toca", "state": "RS", "type": "CGH", "phase": "Opera\u00e7\u00e3o", "ceg": "CGHPHRS002853301", "start": "1929-07-01T00:00:00", "capacity": 1120.0, "lat": -29.28910861, "lon": -50.74051139}, {"name": "Votorantim", "state": "SP", "type": "CGH", "phase": "Opera\u00e7\u00e3o", "ceg": "CGHPHSP003048103", "start": "1912-01-01T00:00:00", "capacity": 3000.0, "lat": -23.55182125, "lon": -47.44179796}, {"name": "Santa Helena", "state": "SP", "type": "CGH", "phase": "Opera\u00e7\u00e3o", "ceg": "CGHPHSP026710403", "start": "1936-01-01T00:00:00", "capacity": 2240.0, "lat": -23.5795601, "lon": -47.43835637}, {"name": "Santa Luzia D\u0092oeste", "state": "RO", "type": "CGH", "phase": "Opera\u00e7\u00e3o", "ceg": "CGHPHRO026716302", "start": "1993-07-01T00:00:00", "capacity": 3000.0, "lat": -12.35084935, "lon": -61.75987756}, {"name": "Santa Maria", "state": "SP", "type": "CGH", "phase": "Opera\u00e7\u00e3o", "ceg": "CGHPHSP026721002", "start": "1951-01-01T00:00:00", "capacity": 3000.0, "lat": -24.02015107, "lon": -48.72156802}, {"name": "Salto S\u00e3o Pedro", "state": "PR", "type": "CGH", "phase": "Opera\u00e7\u00e3o", "ceg": "CGHPHPR026885201", "start": "1975-04-07T00:00:00", "capacity": 1188.0, "lat": -25.66277778, "lon": -51.96583333}, {"name": "Lageado", "state": "TO", "type": "CGH", "phase": "Opera\u00e7\u00e3o", "ceg": "CGHPHTO027013001", "start": "1969-05-08T00:00:00", "capacity": 1776.0, "lat": -9.8416277, "lon": -48.29313045}, {"name": "Cabixi I", "state": "RO", "type": "CGH", "phase": "Opera\u00e7\u00e3o", "ceg": "CGHPHRO027042301", "start": "1995-01-21T00:00:00", "capacity": 2700.0, "lat": -12.95777441, "lon": -60.11776096}, {"name": "Dorneles", "state": "MG", "type": "CGH", "phase": "Opera\u00e7\u00e3o", "ceg": "CGHPHMG027044002", "start": "2013-04-22T00:00:00", "capacity": 4770.0, "lat": -20.54805556, "lon": -44.54166667}, {"name": "Funil", "state": "MG", "type": "CGH", "phase": "Opera\u00e7\u00e3o", "ceg": "CGHPHMG027066002", "start": "1949-12-23T00:00:00", "capacity": 4230.0, "lat": -20.47666667, "lon": -43.44638889}, {"name": "Cap\u00e3o Preto", "state": "SP", "type": "CGH", "phase": "Opera\u00e7\u00e3o", "ceg": "CGHPHSP027107102", "start": "2008-05-31T00:00:00", "capacity": 4293.0, "lat": -21.88173889, "lon": -47.80202778}, {"name": "Corredeira do Capote", "state": "SP", "type": "CGH", "phase": "Opera\u00e7\u00e3o", "ceg": "CGHPHSP027119502", "start": "1960-01-01T00:00:00", "capacity": 1723.0, "lat": -24.16861111, "lon": -48.7125}, {"name": "Doutor Augusto Gon\u00e7alves de Souza", "state": "MG", "type": "CGH", "phase": "Opera\u00e7\u00e3o", "ceg": "CGHPHMG027129203", "start": "2020-12-01T00:00:00", "capacity": 2500.0, "lat": -20.1125, "lon": -44.54777777}, {"name": "S\u00e3o Jo\u00e3o PA", "state": "RO", "type": "CGH", "phase": "Opera\u00e7\u00e3o", "ceg": "CGHPHRO027161602", "start": "2017-10-01T00:00:00", "capacity": 3804.42, "lat": -12.57412121, "lon": -61.49030303}, {"name": "Salto Grande", "state": "SP", "type": "CGH", "phase": "Opera\u00e7\u00e3o", "ceg": "CGHPHSP027172101", "start": "1912-01-01T00:00:00", "capacity": 4550.4, "lat": -22.93388889, "lon": -46.89583333}, {"name": "Barra", "state": "PR", "type": "CGH", "phase": "Opera\u00e7\u00e3o", "ceg": "CGHPHPR027174801", "start": "1950-06-10T00:00:00", "capacity": 4320.0, "lat": -25.75759688, "lon": -52.08688956}, {"name": "Cachoeira Po\u00e7o Preto I", "state": "SP", "type": "CGH", "phase": "Opera\u00e7\u00e3o", "ceg": "CGHPHSP027253103", "start": "1964-01-01T00:00:00", "capacity": 3960.0, "lat": -24.03698847, "lon": -49.46292882}, {"name": "Santana", "state": "SP", "type": "CGH", "phase": "Opera\u00e7\u00e3o", "ceg": "CGHPHSP027415102", "start": "1951-01-01T00:00:00", "capacity": 4320.0, "lat": -22.07416667, "lon": -48.06222222}, {"name": "Cachoeira da Fuma\u00e7a", "state": "MT", "type": "CGH", "phase": "Opera\u00e7\u00e3o", "ceg": "CGHPHMT027473904", "start": "1975-04-22T00:00:00", "capacity": 2880.0, "lat": -15.9801394, "lon": -55.03641691}, {"name": "Santa Cruz", "state": "PR", "type": "CGH", "phase": "Opera\u00e7\u00e3o", "ceg": "CGHPHPR027557302", "start": "1951-01-01T00:00:00", "capacity": 1500.0, "lat": -25.15190372, "lon": -49.41284586}, {"name": "Santa Anna", "state": "SC", "type": "CGH", "phase": "Opera\u00e7\u00e3o", "ceg": "CGHPHSC027620002", "start": "1959-06-30T00:00:00", "capacity": 1345.0, "lat": -27.13260579, "lon": -51.44435174}, {"name": "Salto", "state": "MG", "type": "CGH", "phase": "Opera\u00e7\u00e3o", "ceg": "CGHPHMG027719302", "start": "1940-12-23T00:00:00", "capacity": 4505.0, "lat": -20.49416667, "lon": -43.45055556}, {"name": "Brigadeiro Velloso III", "state": "PA", "type": "CGH", "phase": "Opera\u00e7\u00e3o", "ceg": "CGHPHPA027772001", "start": "2010-11-30T00:00:00", "capacity": 2000.0, "lat": -9.3625, "lon": -54.90388889}, {"name": "Rio Enganado", "state": "RO", "type": "CGH", "phase": "Opera\u00e7\u00e3o", "ceg": "CGHPHRO027963302", "start": "1992-06-16T00:00:00", "capacity": 2000.0, "lat": -13.08408456, "lon": -60.62207399}, {"name": "Cachoeira", "state": "PR", "type": "CGH", "phase": "Opera\u00e7\u00e3o", "ceg": "CGHPHPR028010002", "start": "1984-11-25T00:00:00", "capacity": 2920.0, "lat": -24.93055556, "lon": -51.42888889}, {"name": "Jaguaricatu I", "state": "PR", "type": "CGH", "phase": "Opera\u00e7\u00e3o", "ceg": "CGHPHPR028017802", "start": "1972-04-23T00:00:00", "capacity": 2000.0, "lat": -24.20554142, "lon": -49.48562127}, {"name": "Pitangui", "state": "MG", "type": "CGH", "phase": "Opera\u00e7\u00e3o", "ceg": "CGHPHMG028081003", "start": "1910-01-01T00:00:00", "capacity": 1650.0, "lat": -19.73987546, "lon": -44.89143305}, {"name": "Ginda\u00ed", "state": "PE", "type": "CGH", "phase": "Opera\u00e7\u00e3o", "ceg": "CGHPHPE028091702", "start": "1940-03-01T00:00:00", "capacity": 4500.0, "lat": -8.63107487, "lon": -35.19759182}, {"name": "Margarida Lltda", "state": "RO", "type": "CGH", "phase": "Opera\u00e7\u00e3o", "ceg": "CGHPHRO028099204", "start": "1997-02-02T00:00:00", "capacity": 1480.0, "lat": -13.15166667, "lon": -60.65666667}, {"name": "Lavras", "state": "MG", "type": "CGH", "phase": "Opera\u00e7\u00e3o", "ceg": "CGHPHMG028105002", "start": "1975-03-19T00:00:00", "capacity": 1200.0, "lat": -21.24277778, "lon": -43.8975}, {"name": "Rio Palmeiras I", "state": "SC", "type": "CGH", "phase": "Opera\u00e7\u00e3o", "ceg": "CGHPHSC028195602", "start": "2002-01-01T00:00:00", "capacity": 1500.0, "lat": -28.41908876, "lon": -49.25265548}, {"name": "Cachoeira dos Macacos", "state": "MG", "type": "CGH", "phase": "Opera\u00e7\u00e3o", "ceg": "CGHPHMG028381902", "start": "1949-07-27T00:00:00", "capacity": 3375.0, "lat": -19.60944283, "lon": -47.45652085}, {"name": "Oriental", "state": "AL", "type": "CGH", "phase": "Opera\u00e7\u00e3o", "ceg": "CGHPHAL028557902", "start": "1947-01-01T00:00:00", "capacity": 1406.7, "lat": -8.99622969, "lon": -36.12434191}, {"name": "Nova Ponte Queimada II", "state": "MG", "type": "CGH", "phase": "Opera\u00e7\u00e3o", "ceg": "CGHPHMG028570601", "start": "1983-01-01T00:00:00", "capacity": 3000.0, "lat": -20.27679722, "lon": -42.65151944}, {"name": "Salto do Lobo", "state": "SP", "type": "CGH", "phase": "Opera\u00e7\u00e3o", "ceg": "CGHPHSP028585402", "start": "2002-04-24T00:00:00", "capacity": 1616.0, "lat": -22.95380479, "lon": -48.73788247}, {"name": "S\u00e3o Bento", "state": "GO", "type": "CGH", "phase": "Opera\u00e7\u00e3o", "ceg": "CGHPHGO028589701", "start": "1993-09-01T00:00:00", "capacity": 1380.0, "lat": -17.7851803, "lon": -47.53258478}, {"name": "Bruno Heidrich Neto", "state": "SC", "type": "CGH", "phase": "Opera\u00e7\u00e3o", "ceg": "CGHPHSC028618402", "start": "2002-05-21T00:00:00", "capacity": 2540.0, "lat": -27.02181719, "lon": -50.1864044}, {"name": "Cristalino", "state": "PR", "type": "CGH", "phase": "Opera\u00e7\u00e3o", "ceg": "CGHPHPR028783001", "start": "2005-07-18T00:00:00", "capacity": 4000.0, "lat": -24.57361627, "lon": -51.55725097}, {"name": "Sucupira", "state": "MT", "type": "CGH", "phase": "Opera\u00e7\u00e3o", "ceg": "CGHPHMT028837302", "start": "2008-10-17T00:00:00", "capacity": 4500.0, "lat": -15.99194444, "lon": -55.08722222}, {"name": "Faxinal", "state": "SC", "type": "CGH", "phase": "Opera\u00e7\u00e3o", "ceg": "CGHPHSC028830602", "start": "2007-02-23T00:00:00", "capacity": 4000.0, "lat": -26.769089, "lon": -52.225781}, {"name": "Fund\u00e3o I", "state": "PR", "type": "CGH", "phase": "Opera\u00e7\u00e3o", "ceg": "CGHPHPR028846201", "start": "2002-12-18T00:00:00", "capacity": 2475.0, "lat": -25.70342325, "lon": -52.00202803}, {"name": "Santa Clara I", "state": "PR", "type": "CGH", "phase": "Opera\u00e7\u00e3o", "ceg": "CGHPHPR028850001", "start": "2002-12-18T00:00:00", "capacity": 3600.0, "lat": -25.64559408, "lon": -51.95688739}, {"name": "Tapuirama", "state": "MG", "type": "CGH", "phase": "Opera\u00e7\u00e3o", "ceg": "CGHPHMG028955801", "start": "2017-11-20T00:00:00", "capacity": 1500.0, "lat": -19.1271307, "lon": -47.91859967}, {"name": "Frederico Jo\u00e3o Cerutti SA", "state": "RS", "type": "CGH", "phase": "Opera\u00e7\u00e3o", "ceg": "CGHPHRS029037801", "start": "2003-12-30T00:00:00", "capacity": 1200.0, "lat": -27.51333333, "lon": -53.43111111}, {"name": "\u00c1gua Clara", "state": "MT", "type": "CGH", "phase": "Opera\u00e7\u00e3o", "ceg": "CGHPHMT029042402", "start": "2022-10-26T00:00:00", "capacity": 4000.0, "lat": -16.09086389, "lon": -55.07474444}, {"name": "Santo Ant\u00f4nio", "state": "RS", "type": "CGH", "phase": "Opera\u00e7\u00e3o", "ceg": "CGHPHRS029050501", "start": "2005-10-01T00:00:00", "capacity": 4500.0, "lat": -27.72972222, "lon": -54.40777778}, {"name": "Rio das Pedras", "state": "SC", "type": "CGH", "phase": "Opera\u00e7\u00e3o", "ceg": "CGHPHSC029099801", "start": "2010-08-01T00:00:00", "capacity": 1500.3, "lat": -27.14039971, "lon": -50.54598975}, {"name": "Comendador Ven\u00e3ncio", "state": "RJ", "type": "CGH", "phase": "Opera\u00e7\u00e3o", "ceg": "CGHPHRJ029111002", "start": "2005-03-29T00:00:00", "capacity": 1600.0, "lat": -21.1857097, "lon": -42.09989709}, {"name": "Nova F\u00e1tima", "state": "SC", "type": "CGH", "phase": "Opera\u00e7\u00e3o", "ceg": "CGHPHSC029139001", "start": "2012-05-01T00:00:00", "capacity": 4100.0, "lat": -28.04138889, "lon": -49.12833333}, {"name": "Varginha Jelu", "state": "SC", "type": "CGH", "phase": "Opera\u00e7\u00e3o", "ceg": "CGHPHSC029158702", "start": "2008-09-09T00:00:00", "capacity": 2000.0, "lat": -27.98284326, "lon": -49.10183035}, {"name": "Santa Cec\u00edlia", "state": "MT", "type": "CGH", "phase": "Opera\u00e7\u00e3o", "ceg": "CGHPHMT029151002", "start": "2015-04-18T00:00:00", "capacity": 3500.0, "lat": -15.98222222, "lon": -55.37555556}, {"name": "Mestre", "state": "MT", "type": "CGH", "phase": "Opera\u00e7\u00e3o", "ceg": "CGHPHMT029154402", "start": "2014-10-27T00:00:00", "capacity": 2000.0, "lat": -15.97805556, "lon": -55.35944444}, {"name": "Hacker Energia", "state": "SC", "type": "CGH", "phase": "Opera\u00e7\u00e3o", "ceg": "CGHPHSC029172202", "start": "2015-04-03T00:00:00", "capacity": 1800.0, "lat": -26.98857391, "lon": -52.45213793}, {"name": "Martinuv", "state": "RO", "type": "CGH", "phase": "Opera\u00e7\u00e3o", "ceg": "CGHPHRO029211701", "start": "2005-09-30T00:00:00", "capacity": 1840.0, "lat": -12.82306396, "lon": -60.29284527}, {"name": "Caju", "state": "SC", "type": "CGH", "phase": "Opera\u00e7\u00e3o", "ceg": "CGHPHSC029217602", "start": "2004-12-20T00:00:00", "capacity": 3200.0, "lat": -26.95223665, "lon": -52.45506609}, {"name": "Enercol", "state": "SC", "type": "CGH", "phase": "Opera\u00e7\u00e3o", "ceg": "CGHPHSC029229001", "start": "2018-03-20T00:00:00", "capacity": 2000.0, "lat": -26.57111111, "lon": -52.42666667}, {"name": "Jacar\u00e9 Pepira", "state": "SP", "type": "CGH", "phase": "Opera\u00e7\u00e3o", "ceg": "CGHPHSP029296602", "start": "2010-06-26T00:00:00", "capacity": 2000.0, "lat": -22.42499824, "lon": -48.02055979}, {"name": "Bruno Heidrich", "state": "SC", "type": "CGH", "phase": "Opera\u00e7\u00e3o", "ceg": "CGHPHSC029356301", "start": "1984-01-20T00:00:00", "capacity": 1085.4, "lat": -27.09861111, "lon": -50.13}, {"name": "Rio Palmeiras II", "state": "SC", "type": "CGH", "phase": "Opera\u00e7\u00e3o", "ceg": "CGHPHSC029377602", "start": "2006-03-30T00:00:00", "capacity": 1250.0, "lat": -28.41750423, "lon": -49.26698213}, {"name": "Salto Estrela", "state": "PR", "type": "CGH", "phase": "Opera\u00e7\u00e3o", "ceg": "CGHPHPR029431401", "start": "1950-01-01T00:00:00", "capacity": 2230.0, "lat": -26.36694444, "lon": -52.00833333}, {"name": "Wasser Kraft", "state": "SC", "type": "CGH", "phase": "Opera\u00e7\u00e3o", "ceg": "CGHPHSC029589201", "start": "2009-01-01T00:00:00", "capacity": 1400.0, "lat": -26.44714263, "lon": -53.40711079}, {"name": "\u00cdndio Cond\u00e1", "state": "SC", "type": "CGH", "phase": "Opera\u00e7\u00e3o", "ceg": "CGHPHSC029590601", "start": "2015-10-07T00:00:00", "capacity": 2900.0, "lat": -27.13873363, "lon": -52.70115278}, {"name": "Alian\u00e7a", "state": "GO", "type": "CGH", "phase": "Opera\u00e7\u00e3o", "ceg": "CGHPHGO029647301", "start": "2008-12-01T00:00:00", "capacity": 1840.0, "lat": -17.90888889, "lon": -51.89888889}, {"name": "MAX-01 (Nova Lacerda)", "state": "MT", "type": "CGH", "phase": "Opera\u00e7\u00e3o", "ceg": "CGHPHMT029696101", "start": "2015-01-21T00:00:00", "capacity": 2500.0, "lat": -14.41777778, "lon": -59.52361111}, {"name": "S\u00e3o Valentim", "state": "SC", "type": "CGH", "phase": "Opera\u00e7\u00e3o", "ceg": "CGHPHSC029710002", "start": "2013-11-28T00:00:00", "capacity": 2581.2, "lat": -27.32333333, "lon": -49.02666667}, {"name": "Aguti", "state": "SC", "type": "CGH", "phase": "Opera\u00e7\u00e3o", "ceg": "CGHPHSC029711902", "start": "2011-11-19T00:00:00", "capacity": 3900.6, "lat": -27.31636229, "lon": -49.08454709}, {"name": "S\u00e3o Sebasti\u00e3o", "state": "SC", "type": "CGH", "phase": "Opera\u00e7\u00e3o", "ceg": "CGHPHSC029712702", "start": "2012-10-04T00:00:00", "capacity": 3700.8, "lat": -27.31888889, "lon": -49.04333333}, {"name": "Galopolis", "state": "RS", "type": "CGH", "phase": "Opera\u00e7\u00e3o", "ceg": "CGHPHRS029714302", "start": "2007-12-20T00:00:00", "capacity": 1500.0, "lat": -29.23695852, "lon": -51.15630091}, {"name": "Cachoeira do Brumado", "state": "MG", "type": "CGH", "phase": "Opera\u00e7\u00e3o", "ceg": "CGHPHMG029723202", "start": "2010-03-06T00:00:00", "capacity": 2340.0, "lat": -21.85123956, "lon": -43.89017665}, {"name": "Rio Vermelho", "state": "SC", "type": "CGH", "phase": "Opera\u00e7\u00e3o", "ceg": "CGHPHSC029729102", "start": "2008-07-15T00:00:00", "capacity": 2400.0, "lat": -26.31708106, "lon": -49.32075542}, {"name": "Barra Clara", "state": "SC", "type": "CGH", "phase": "Opera\u00e7\u00e3o", "ceg": "CGHPHSC029764002", "start": "2010-02-26T00:00:00", "capacity": 1600.0, "lat": -27.52916667, "lon": -49.10305556}, {"name": "Horst Bremer", "state": "SC", "type": "CGH", "phase": "Opera\u00e7\u00e3o", "ceg": "CGHPHSC029769002", "start": "2008-09-09T00:00:00", "capacity": 3187.8, "lat": -27.52038274, "lon": -49.07954734}, {"name": "Spessatto", "state": "SC", "type": "CGH", "phase": "Opera\u00e7\u00e3o", "ceg": "CGHPHSC029771202", "start": "2015-11-14T00:00:00", "capacity": 2700.0, "lat": -27.3175, "lon": -51.47777778}, {"name": "Curt Lindner", "state": "SC", "type": "CGH", "phase": "Opera\u00e7\u00e3o", "ceg": "CGHPHSC029781002", "start": "2009-09-03T00:00:00", "capacity": 2283.0, "lat": -27.02416667, "lon": -50.18194444}, {"name": "Buritirana", "state": "TO", "type": "CGH", "phase": "Opera\u00e7\u00e3o", "ceg": "CGHPHTO029804201", "start": "2008-01-01T00:00:00", "capacity": 1120.0, "lat": -11.92694444, "lon": -46.29722222}, {"name": "Pinho Fleck", "state": "PR", "type": "CGH", "phase": "Opera\u00e7\u00e3o", "ceg": "CGHPHPR029891301", "start": "1972-06-01T00:00:00", "capacity": 1279.0, "lat": -26.24470556, "lon": -52.43803611}, {"name": "Rio Mato", "state": "SC", "type": "CGH", "phase": "Opera\u00e7\u00e3o", "ceg": "CGHPHSC029945601", "start": "2014-06-26T00:00:00", "capacity": 1200.0, "lat": -26.79888889, "lon": -51.95027777}, {"name": "Bonga", "state": "MG", "type": "CGH", "phase": "Opera\u00e7\u00e3o", "ceg": "CGHPHMG030030602", "start": "1942-10-14T00:00:00", "capacity": 1320.0, "lat": -20.18734167, "lon": -43.8117525}, {"name": "Maria C\u00e9lia Mauad Notini", "state": "MG", "type": "CGH", "phase": "Opera\u00e7\u00e3o", "ceg": "CGHPHMG030056002", "start": "2011-06-10T00:00:00", "capacity": 1575.0, "lat": -20.53796291, "lon": -44.56481802}, {"name": "Belmonte", "state": "SC", "type": "CGH", "phase": "Opera\u00e7\u00e3o", "ceg": "CGHPHSC030091802", "start": "2012-05-25T00:00:00", "capacity": 3600.0, "lat": -26.83719167, "lon": -53.66345}, {"name": "Bandeirante", "state": "SC", "type": "CGH", "phase": "Opera\u00e7\u00e3o", "ceg": "CGHPHSC030092602", "start": "2012-08-16T00:00:00", "capacity": 3000.0, "lat": -26.7988353, "lon": -53.66826566}, {"name": "Prata", "state": "SC", "type": "CGH", "phase": "Opera\u00e7\u00e3o", "ceg": "CGHPHSC030093402", "start": "2011-08-18T00:00:00", "capacity": 3000.0, "lat": -26.7625, "lon": -53.66555556}, {"name": "Rio Bonito", "state": "SC", "type": "CGH", "phase": "Opera\u00e7\u00e3o", "ceg": "CGHPHSC030132902", "start": "2012-12-11T00:00:00", "capacity": 1530.0, "lat": -26.45610298, "lon": -50.88351388}, {"name": "Baitaca", "state": "SC", "type": "CGH", "phase": "Opera\u00e7\u00e3o", "ceg": "CGHPHSC030153102", "start": "2012-12-11T00:00:00", "capacity": 2700.0, "lat": -26.44055556, "lon": -50.83472222}, {"name": "Camboat\u00e1", "state": "SC", "type": "CGH", "phase": "Opera\u00e7\u00e3o", "ceg": "CGHPHSC030172802", "start": "2013-07-06T00:00:00", "capacity": 2000.0, "lat": -27.33061103, "lon": -51.35692672}, {"name": "Miranda Est\u00e2ncia", "state": "MT", "type": "CGH", "phase": "Opera\u00e7\u00e3o", "ceg": "CGHPHMT030227901", "start": "2009-12-16T00:00:00", "capacity": 1940.0, "lat": -13.49476388, "lon": -60.1225968}, {"name": "Cachoeirinha", "state": "MG", "type": "CGH", "phase": "Opera\u00e7\u00e3o", "ceg": "CGHPHMG030242201", "start": "2015-09-01T00:00:00", "capacity": 1250.0, "lat": -22.570464, "lon": -46.40994052}, {"name": "Invernadinha", "state": "SC", "type": "CGH", "phase": "Opera\u00e7\u00e3o", "ceg": "CGHPHSC030261902", "start": "2012-07-01T00:00:00", "capacity": 2430.0, "lat": -28.40743889, "lon": -49.91292778}, {"name": "Helena Kuhlemann", "state": "SC", "type": "CGH", "phase": "Opera\u00e7\u00e3o", "ceg": "CGHPHSC030387902", "start": "2015-03-06T00:00:00", "capacity": 2050.0, "lat": -26.99777778, "lon": -49.67472222}, {"name": "Karl Kuhlemann", "state": "SC", "type": "CGH", "phase": "Opera\u00e7\u00e3o", "ceg": "CGHPHSC030394102", "start": "2013-12-27T00:00:00", "capacity": 2016.0, "lat": -26.98761069, "lon": -49.68182029}, {"name": "Abranjo I", "state": "RS", "type": "CGH", "phase": "Opera\u00e7\u00e3o", "ceg": "CGHPHRS030400002", "start": "2014-05-01T00:00:00", "capacity": 4860.0, "lat": -30.7879855, "lon": -52.62977881}, {"name": "Morrinhos", "state": "RS", "type": "CGH", "phase": "Opera\u00e7\u00e3o", "ceg": "CGHPHRS030407702", "start": "2014-11-24T00:00:00", "capacity": 2250.0, "lat": -30.31769167, "lon": -51.86760611}, {"name": "Volta Grande", "state": "SC", "type": "CGH", "phase": "Opera\u00e7\u00e3o", "ceg": "CGHPHSC030494802", "start": "2016-12-01T00:00:00", "capacity": 3130.0, "lat": -28.09045149, "lon": -48.943755}, {"name": "Juli\u00f5es", "state": "MG", "type": "CGH", "phase": "Opera\u00e7\u00e3o", "ceg": "CGHPHMG030542102", "start": "2017-03-23T00:00:00", "capacity": 3400.0, "lat": -20.36395611, "lon": -44.19572778}, {"name": "Caquende", "state": "MG", "type": "CGH", "phase": "Opera\u00e7\u00e3o", "ceg": "CGHPHMG030556102", "start": "2017-06-14T00:00:00", "capacity": 4000.0, "lat": -20.38868611, "lon": -44.18758972}, {"name": "Pratud\u00e3o", "state": "BA", "type": "CGH", "phase": "Opera\u00e7\u00e3o", "ceg": "CGHPHBA030579001", "start": "2000-12-20T00:00:00", "capacity": 1760.0, "lat": -13.99724167, "lon": -45.40265}, {"name": "Teodoro Schlickmann", "state": "SC", "type": "CGH", "phase": "Opera\u00e7\u00e3o", "ceg": "CGHPHSC030591001", "start": "2002-09-20T00:00:00", "capacity": 1299.99, "lat": -28.23777778, "lon": -49.16361111}, {"name": "Alirio Sens", "state": "SC", "type": "CGH", "phase": "Opera\u00e7\u00e3o", "ceg": "CGHPHSC030643601", "start": "2016-08-01T00:00:00", "capacity": 2836.0, "lat": -27.09258739, "lon": -50.72278567}, {"name": "Emba\u00faba", "state": "MT", "type": "CGH", "phase": "Opera\u00e7\u00e3o", "ceg": "CGHPHMT030814502", "start": "2012-08-25T00:00:00", "capacity": 4500.0, "lat": -15.9765891, "lon": -55.08165928}, {"name": "Cambar\u00e1", "state": "MT", "type": "CGH", "phase": "Opera\u00e7\u00e3o", "ceg": "CGHPHMT030813702", "start": "2012-12-21T00:00:00", "capacity": 3499.2, "lat": -15.96972222, "lon": -55.08833333}, {"name": "Pito", "state": "SC", "type": "CGH", "phase": "Opera\u00e7\u00e3o", "ceg": "CGHPHSC030794702", "start": "2015-11-18T00:00:00", "capacity": 4400.0, "lat": -27.58281295, "lon": -51.35575953}, {"name": "Limeira", "state": "MG", "type": "CGH", "phase": "Opera\u00e7\u00e3o", "ceg": "CGHPHMG030866801", "start": "2012-05-28T00:00:00", "capacity": 1260.0, "lat": -21.0139851, "lon": -42.46070949}, {"name": "Miradouro", "state": "MG", "type": "CGH", "phase": "Opera\u00e7\u00e3o", "ceg": "CGHPHMG030847101", "start": "2012-02-27T00:00:00", "capacity": 1260.0, "lat": -20.86527778, "lon": -42.355}, {"name": "Bela Uni\u00e3o(trincheira)", "state": "RS", "type": "CGH", "phase": "Opera\u00e7\u00e3o", "ceg": "CGHPHRS030879001", "start": "2015-04-10T00:00:00", "capacity": 2250.0, "lat": -27.78138889, "lon": -54.37361111}, {"name": "Antunes", "state": "SC", "type": "CGH", "phase": "Opera\u00e7\u00e3o", "ceg": "CGHPHSC030880301", "start": "2017-06-30T00:00:00", "capacity": 1765.0, "lat": -27.64974167, "lon": -51.19600278}, {"name": "Salto Grande", "state": "SC", "type": "CGH", "phase": "Opera\u00e7\u00e3o", "ceg": "CGHPHSC030948602", "start": "1950-08-01T00:00:00", "capacity": 1600.0, "lat": -26.46638889, "lon": -49.59638889}, {"name": "Limoeiro", "state": "MG", "type": "CGH", "phase": "Opera\u00e7\u00e3o", "ceg": "CGHPHMG030983401", "start": "2015-09-05T00:00:00", "capacity": 1250.0, "lat": -22.57366141, "lon": -46.41181824}, {"name": "Parisotto", "state": "SC", "type": "CGH", "phase": "Opera\u00e7\u00e3o", "ceg": "CGHPHSC030998201", "start": "2012-09-04T00:00:00", "capacity": 1440.0, "lat": -27.1625, "lon": -52.77138889}, {"name": "Pacheco", "state": "SC", "type": "CGH", "phase": "Opera\u00e7\u00e3o", "ceg": "CGHPHSC031005002", "start": "2010-02-01T00:00:00", "capacity": 1980.0, "lat": -26.5855325, "lon": -52.18432541}, {"name": "Agudo", "state": "SC", "type": "CGH", "phase": "Opera\u00e7\u00e3o", "ceg": "CGHPHSC031040902", "start": "2016-03-02T00:00:00", "capacity": 3899.6, "lat": -27.52500429, "lon": -51.50767898}, {"name": "Frascal", "state": "SC", "type": "CGH", "phase": "Opera\u00e7\u00e3o", "ceg": "CGHPHSC031041701", "start": "2015-04-06T00:00:00", "capacity": 2200.0, "lat": -26.95694444, "lon": -50.48944444}, {"name": "Pirapanema", "state": "MG", "type": "CGH", "phase": "Opera\u00e7\u00e3o", "ceg": "CGHPHMG031051401", "start": "2013-02-28T00:00:00", "capacity": 1260.0, "lat": -21.01722222, "lon": -42.44083333}, {"name": "Sodre", "state": "SP", "type": "CGH", "phase": "Opera\u00e7\u00e3o", "ceg": "CGHPHSP031099901", "start": "2013-04-01T00:00:00", "capacity": 1012.0, "lat": -22.66444444, "lon": -45.30916667}, {"name": "Ing\u00e1", "state": "MG", "type": "CGH", "phase": "Opera\u00e7\u00e3o", "ceg": "CGHPHMG031318101", "start": "2015-11-18T00:00:00", "capacity": 1260.0, "lat": -20.09777778, "lon": -41.75805556}, {"name": "Trabuco", "state": "RS", "type": "CGH", "phase": "Opera\u00e7\u00e3o", "ceg": "CGHPHRS031330001", "start": "2014-02-11T00:00:00", "capacity": 2000.0, "lat": -28.60714114, "lon": -51.21940149}, {"name": "Simon\u00e9sia", "state": "MG", "type": "CGH", "phase": "Opera\u00e7\u00e3o", "ceg": "CGHPHMG031334301", "start": "2015-12-13T00:00:00", "capacity": 3000.0, "lat": -19.99861111, "lon": -41.99805556}, {"name": "Vermelho Velho", "state": "MG", "type": "CGH", "phase": "Opera\u00e7\u00e3o", "ceg": "CGHPHMG031566401", "start": "2015-11-30T00:00:00", "capacity": 2500.0, "lat": -19.99583333, "lon": -42.38}, {"name": "RP 1", "state": "RS", "type": "CGH", "phase": "Opera\u00e7\u00e3o", "ceg": "CGHPHRS031695401", "start": "2015-04-24T00:00:00", "capacity": 1280.0, "lat": -28.84009551, "lon": -52.70141829}, {"name": "Toledo Energia Renovavel", "state": "PR", "type": "CGH", "phase": "Opera\u00e7\u00e3o", "ceg": "CGHPHPR031704701", "start": "2014-01-30T00:00:00", "capacity": 2700.0, "lat": -24.77423444, "lon": -53.72648056}, {"name": "PIABANHA DO TOCANTINS", "state": "TO", "type": "CGH", "phase": "Opera\u00e7\u00e3o", "ceg": "CGHPHTO031902301", "start": "2014-10-14T00:00:00", "capacity": 1300.0, "lat": -11.92665833, "lon": -46.26900278}, {"name": "Caramujo", "state": "MT", "type": "CGH", "phase": "Opera\u00e7\u00e3o", "ceg": "CGHPHMT032151602", "start": "2019-10-01T00:00:00", "capacity": 3520.8, "lat": -14.95027778, "lon": -58.05805}, {"name": "Cachoeira do Cambara", "state": "RO", "type": "CGH", "phase": "Opera\u00e7\u00e3o", "ceg": "CGHPHRO032220201", "start": "2014-07-14T00:00:00", "capacity": 3500.0, "lat": -12.83777778, "lon": -60.57805556}, {"name": "Perola", "state": "SC", "type": "CGH", "phase": "Opera\u00e7\u00e3o", "ceg": "CGHPHSC032600301", "start": "2015-03-23T00:00:00", "capacity": 1912.5, "lat": -26.78138889, "lon": -49.39694444}, {"name": "Tapera 2a", "state": "PR", "type": "CGH", "phase": "Opera\u00e7\u00e3o", "ceg": "CGHPHPR032690901", "start": "2023-07-04T00:00:00", "capacity": 4500.0, "lat": -25.48459339, "lon": -52.27311822}, {"name": "DOIS IRM\u00c3OS", "state": "MG", "type": "CGH", "phase": "Opera\u00e7\u00e3o", "ceg": "CGHPHMG033151101", "start": "2015-01-01T00:00:00", "capacity": 1400.24, "lat": -21.03298333, "lon": -44.17259722}, {"name": "Velha", "state": "PR", "type": "CGH", "phase": "Opera\u00e7\u00e3o", "ceg": "CGHPHPR033372701", "start": "2015-04-01T00:00:00", "capacity": 1000.01, "lat": -24.25514796, "lon": -49.70305102}, {"name": "Jacutinga", "state": "SC", "type": "CGH", "phase": "Opera\u00e7\u00e3o", "ceg": "CGHPHSC033711002", "start": "2021-03-05T00:00:00", "capacity": 4950.0, "lat": -27.14714395, "lon": -52.05122498}, {"name": "Ouro Branco", "state": "PR", "type": "CGH", "phase": "Opera\u00e7\u00e3o", "ceg": "CGHPHPR034015402", "start": "2019-06-05T00:00:00", "capacity": 4000.0, "lat": -23.99530501, "lon": -52.23238902}, {"name": "Rondinha Chalana", "state": "SC", "type": "CGH", "phase": "Opera\u00e7\u00e3o", "ceg": "CGHPHSC034056101", "start": "2015-07-09T00:00:00", "capacity": 1800.0, "lat": -27.19138889, "lon": -52.755}, {"name": "Igrejinha", "state": "RS", "type": "CGH", "phase": "Opera\u00e7\u00e3o", "ceg": "CGHPHRS034672102", "start": "2020-11-10T00:00:00", "capacity": 4850.0, "lat": -28.79583333, "lon": -53.97159722}, {"name": "Estreito", "state": "SC", "type": "CGH", "phase": "Opera\u00e7\u00e3o", "ceg": "CGHPHSC035075301", "start": "2017-11-20T00:00:00", "capacity": 2160.0, "lat": -26.97740896, "lon": -51.17709055}, {"name": "Itapocuzinho II", "state": "SC", "type": "CGH", "phase": "Opera\u00e7\u00e3o", "ceg": "CGHPHSC035335301", "start": "2015-11-12T00:00:00", "capacity": 1650.0, "lat": -26.34694445, "lon": -49.13027778}, {"name": "TAPUIAS", "state": "TO", "type": "CGH", "phase": "Opera\u00e7\u00e3o", "ceg": "CGHPHTO035426001", "start": "2016-01-19T00:00:00", "capacity": 1800.0, "lat": -11.92676684, "lon": -46.27644277}, {"name": "Sirivera", "state": "TO", "type": "CGH", "phase": "Opera\u00e7\u00e3o", "ceg": "CGHPHTO035446501", "start": "2016-01-19T00:00:00", "capacity": 1800.0, "lat": -11.92472222, "lon": -46.27722222}, {"name": "CABE\u00c7A DE PATO", "state": "PR", "type": "CGH", "phase": "Opera\u00e7\u00e3o", "ceg": "CGHPHPR035484801", "start": "2015-12-01T00:00:00", "capacity": 1600.0, "lat": -24.82287111, "lon": -51.4472992}, {"name": "HIDROGERADOR QU\u00c2NTICO", "state": "SP", "type": "CGH", "phase": "Opera\u00e7\u00e3o", "ceg": "CGHPHSP035587901", "start": "2016-03-30T00:00:00", "capacity": 1225.0, "lat": -22.75361111, "lon": -45.44722222}, {"name": "Alto Farias", "state": "SC", "type": "CGH", "phase": "Opera\u00e7\u00e3o", "ceg": "CGHPHSC035698002", "start": "2021-12-01T00:00:00", "capacity": 3006.0, "lat": -27.471195, "lon": -48.83606167}, {"name": "Sucuri", "state": "TO", "type": "CGH", "phase": "Opera\u00e7\u00e3o", "ceg": "CGHPHTO035733201", "start": "2018-04-11T00:00:00", "capacity": 2750.0, "lat": -11.92795478, "lon": -46.31290741}, {"name": "Aparecida I", "state": "SC", "type": "CGH", "phase": "Opera\u00e7\u00e3o", "ceg": "CGHPHSC035736701", "start": "2017-05-11T00:00:00", "capacity": 3060.0, "lat": -26.70673291, "lon": -52.88850631}, {"name": "Uvai\u00e1", "state": "SC", "type": "CGH", "phase": "Opera\u00e7\u00e3o", "ceg": "CGHPHSC035739101", "start": "2017-02-01T00:00:00", "capacity": 2800.0, "lat": -27.25972222, "lon": -52.35194444}, {"name": "Santana do Deserto I", "state": "MG", "type": "CGH", "phase": "Opera\u00e7\u00e3o", "ceg": "CGHPHMG035745601", "start": "2018-05-25T00:00:00", "capacity": 1600.0, "lat": -21.96380372, "lon": -43.1550628}, {"name": "Palmeiras", "state": "TO", "type": "CGH", "phase": "Opera\u00e7\u00e3o", "ceg": "CGHPHTO035747201", "start": "2018-05-18T00:00:00", "capacity": 2750.0, "lat": -11.93096813, "lon": -46.32915775}, {"name": "OPHIR", "state": "MG", "type": "CGH", "phase": "Opera\u00e7\u00e3o", "ceg": "CGHPHMG035858401", "start": "1966-08-20T00:00:00", "capacity": 1400.0, "lat": -20.24805556, "lon": -42.09944444}, {"name": "Santo Ant\u00f4nio do Rio do Freire", "state": "MG", "type": "CGH", "phase": "Opera\u00e7\u00e3o", "ceg": "CGHPHMG036936501", "start": "1952-04-01T00:00:00", "capacity": 1616.0, "lat": -21.13578333, "lon": -43.95531389}, {"name": "Barra Carneiro", "state": "SC", "type": "CGH", "phase": "Opera\u00e7\u00e3o", "ceg": "CGHPHSC037315001", "start": "2016-12-16T00:00:00", "capacity": 1500.0, "lat": -27.20083333, "lon": -52.73361111}, {"name": "Buritizal", "state": "MT", "type": "CGH", "phase": "Opera\u00e7\u00e3o", "ceg": "CGHPHMT037358301", "start": "2019-10-26T00:00:00", "capacity": 5000.0, "lat": -13.70306944, "lon": -56.78591111}, {"name": "TAIMB\u00c9 2", "state": "SC", "type": "CGH", "phase": "Opera\u00e7\u00e3o", "ceg": "CGHPHSC037428801", "start": "2017-03-04T00:00:00", "capacity": 1600.0, "lat": -27.76025656, "lon": -50.63491353}, {"name": "TAIMB\u00c9 1", "state": "SC", "type": "CGH", "phase": "Opera\u00e7\u00e3o", "ceg": "CGHPHSC037429601", "start": "2017-03-07T00:00:00", "capacity": 1600.0, "lat": -27.77971251, "lon": -50.62648369}, {"name": "Rio do Salto", "state": "PR", "type": "CGH", "phase": "Opera\u00e7\u00e3o", "ceg": "CGHPHPR037657401", "start": "2017-06-22T00:00:00", "capacity": 1176.0, "lat": -25.3457191, "lon": -49.91839576}, {"name": "Serra Velha", "state": "SC", "type": "CGH", "phase": "Opera\u00e7\u00e3o", "ceg": "CGHPHSC037678701", "start": "2020-07-20T00:00:00", "capacity": 2500.0, "lat": -27.46777778, "lon": -49.87722222}, {"name": "Chal\u00e9", "state": "MG", "type": "CGH", "phase": "Opera\u00e7\u00e3o", "ceg": "CGHPHMG038150001", "start": "2022-12-06T00:00:00", "capacity": 2100.0, "lat": -19.97915376, "lon": -41.71456429}, {"name": "Diamantino", "state": "GO", "type": "CGH", "phase": "Opera\u00e7\u00e3o", "ceg": "CGHPHGO038152701", "start": "2021-08-25T00:00:00", "capacity": 3000.0, "lat": -17.34935732, "lon": -52.8122882}, {"name": "Marombas I", "state": "SC", "type": "CGH", "phase": "Opera\u00e7\u00e3o", "ceg": "CGHPHSC038153501", "start": "2019-11-01T00:00:00", "capacity": 3498.0, "lat": -27.19581111, "lon": -50.63283056}, {"name": "Marombas II", "state": "SC", "type": "CGH", "phase": "Opera\u00e7\u00e3o", "ceg": "CGHPHSC038154301", "start": "2019-11-01T00:00:00", "capacity": 1933.0, "lat": -27.20444444, "lon": -50.63444444}, {"name": "Quilombo", "state": "RJ", "type": "CGH", "phase": "Opera\u00e7\u00e3o", "ceg": "CGHPHRJ038155101", "start": "2019-10-01T00:00:00", "capacity": 3000.0, "lat": -21.86363333, "lon": -42.43552222}, {"name": "Santa Luzia", "state": "ES", "type": "CGH", "phase": "Opera\u00e7\u00e3o", "ceg": "CGHPHES038158601", "start": "2021-03-27T00:00:00", "capacity": 1512.0, "lat": -20.77358998, "lon": -40.98751668}, {"name": "LIBERDADE", "state": "SC", "type": "CGH", "phase": "Opera\u00e7\u00e3o", "ceg": "CGHPHSC038207801", "start": "2017-08-15T00:00:00", "capacity": 1041.3, "lat": -26.78593942, "lon": -49.42710963}, {"name": "Parque I", "state": "PR", "type": "CGH", "phase": "Opera\u00e7\u00e3o", "ceg": "CGHPHPR038250701", "start": "2017-12-04T00:00:00", "capacity": 4720.0, "lat": -25.44277778, "lon": -51.45777778}, {"name": "CENTRAL III", "state": "SC", "type": "CGH", "phase": "Opera\u00e7\u00e3o", "ceg": "CGHPHSC038334101", "start": "2017-12-06T00:00:00", "capacity": 2975.0, "lat": -26.55806995, "lon": -50.60094177}, {"name": "Serra Negra", "state": "MG", "type": "CGH", "phase": "Opera\u00e7\u00e3o", "ceg": "CGHPHMG040663501", "start": "2023-04-12T00:00:00", "capacity": 3000.0, "lat": -22.02851389, "lon": -43.748105}, {"name": "SantoAntonio", "state": "SC", "type": "CGH", "phase": "Opera\u00e7\u00e3o", "ceg": "CGHPHSC040764001", "start": "2018-08-01T00:00:00", "capacity": 1008.0, "lat": -26.4197083, "lon": -49.33509225}, {"name": "Bom Retiro Chapeco", "state": "SC", "type": "CGH", "phase": "Opera\u00e7\u00e3o", "ceg": "CGHPHSC040776301", "start": "2018-08-13T00:00:00", "capacity": 3000.0, "lat": -27.17890079, "lon": -52.74970438}, {"name": "Bandiera Ronfim", "state": "PR", "type": "CGH", "phase": "Opera\u00e7\u00e3o", "ceg": "CGHPHPR040813101", "start": "2020-07-15T00:00:00", "capacity": 2160.0, "lat": -24.85343333, "lon": -53.18644167}, {"name": "Santiago Fazenda Agrochapada", "state": "MT", "type": "CGH", "phase": "Opera\u00e7\u00e3o", "ceg": "CGHPHMT040814001", "start": "2014-03-25T00:00:00", "capacity": 1350.0, "lat": -13.43485128, "lon": -54.28451876}, {"name": "Laje de Pedra", "state": "SC", "type": "CGH", "phase": "Opera\u00e7\u00e3o", "ceg": "CGHPHSC040849201", "start": "2019-04-20T00:00:00", "capacity": 3000.0, "lat": -27.12111111, "lon": -51.99138889}, {"name": "Santa Paulina", "state": "SC", "type": "CGH", "phase": "Opera\u00e7\u00e3o", "ceg": "CGHPHSC043184201", "start": "2021-06-09T00:00:00", "capacity": 3300.0, "lat": -27.37195556, "lon": -49.24188611}, {"name": "Alagoa III", "state": "MG", "type": "CGH", "phase": "Opera\u00e7\u00e3o", "ceg": "CGHPHMG044305001", "start": "2024-08-06T00:00:00", "capacity": 1600.0, "lat": -22.23133889, "lon": -44.66744167}, {"name": "Fartura", "state": "SC", "type": "CGH", "phase": "Opera\u00e7\u00e3o", "ceg": "CGHPHSC044805201", "start": "2023-04-18T00:00:00", "capacity": 4950.0, "lat": -27.50068056, "lon": -49.06051111}, {"name": "Rancho Grande Ger", "state": "SC", "type": "CGH", "phase": "Opera\u00e7\u00e3o", "ceg": "CGHPHSC044841901", "start": "2018-03-01T00:00:00", "capacity": 1010.5, "lat": -27.30361111, "lon": -51.90361111}, {"name": "Corrego Ger", "state": "MS", "type": "CGH", "phase": "Opera\u00e7\u00e3o", "ceg": "CGHPHMS044877001", "start": "2019-05-01T00:00:00", "capacity": 4176.0, "lat": -18.97928333, "lon": -52.60516111}, {"name": "Rafael Arabut\u00e3", "state": "SC", "type": "CGH", "phase": "Opera\u00e7\u00e3o", "ceg": "CGHPHSC045158401", "start": "2019-08-16T00:00:00", "capacity": 1200.0, "lat": -27.10572778, "lon": -52.17166111}, {"name": "S\u00e3o Domingos do Prata", "state": "RS", "type": "CGH", "phase": "Opera\u00e7\u00e3o", "ceg": "CGHPHRS045162201", "start": "2020-08-15T00:00:00", "capacity": 2205.0, "lat": -28.81305556, "lon": -51.73777778}, {"name": "Rio Capivara", "state": "PR", "type": "CGH", "phase": "Opera\u00e7\u00e3o", "ceg": "CGHPHPR045487701", "start": "2019-09-04T00:00:00", "capacity": 1369.8, "lat": -25.64027778, "lon": -51.86138889}, {"name": "Ju\u00e1", "state": "MG", "type": "CGH", "phase": "Opera\u00e7\u00e3o", "ceg": "CGHPHMG046523202", "start": "2024-04-10T00:00:00", "capacity": 3000.0, "lat": -20.84513333, "lon": -42.32638056}, {"name": "Pingo de Ouro", "state": "SC", "type": "CGH", "phase": "Opera\u00e7\u00e3o", "ceg": "CGHPHSC046694801", "start": "2019-12-02T00:00:00", "capacity": 2400.0, "lat": -27.58166667, "lon": -48.73166667}, {"name": "Figueira do Tigre", "state": "SC", "type": "CGH", "phase": "Opera\u00e7\u00e3o", "ceg": "CGHPHSC046897501", "start": "2022-11-22T00:00:00", "capacity": 2200.0, "lat": -27.35718333, "lon": -49.21953056}, {"name": "Jph Catete", "state": "RJ", "type": "CGH", "phase": "Opera\u00e7\u00e3o", "ceg": "CGHPHRJ049356201", "start": "2020-09-10T00:00:00", "capacity": 1764.0, "lat": -22.21694444, "lon": -42.50055556}, {"name": "Formigueiro", "state": "RS", "type": "CGH", "phase": "Opera\u00e7\u00e3o", "ceg": "CGHPHRS050288001", "start": "2020-10-31T00:00:00", "capacity": 1750.0, "lat": -28.53694444, "lon": -53.86138889}, {"name": "Ilha (ceesam)", "state": "SC", "type": "CGH", "phase": "Opera\u00e7\u00e3o", "ceg": "CGHPHSC055262301", "start": "2021-09-23T00:00:00", "capacity": 1620.0, "lat": -26.76527778, "lon": -49.40027778}, {"name": "Focus Gera\u00e7\u00e3o Camanducaia Participa\u00e7\u00f5es", "state": "MG", "type": "CGH", "phase": "Opera\u00e7\u00e3o", "ceg": "CGHPHMG071933101", "start": "2023-01-21T00:00:00", "capacity": 1566.0, "lat": -22.76292436, "lon": -46.15096801}, {"name": "Cachoeira do Esp\u00edrito Santo", "state": "MG", "type": "CGH", "phase": "Opera\u00e7\u00e3o", "ceg": "CGHPHMG071934001", "start": "2023-07-20T00:00:00", "capacity": 1674.0, "lat": -20.80861219, "lon": -42.32638763}, {"name": "Sbravati", "state": "SC", "type": "CGH", "phase": "Opera\u00e7\u00e3o", "ceg": "CGHPHSC072656701", "start": "1975-01-01T00:00:00", "capacity": 1215.0, "lat": -27.1475, "lon": -50.60944439}, {"name": "Guimar\u00e3es 02", "state": "MT", "type": "CGH", "phase": "Opera\u00e7\u00e3o", "ceg": "CGHPHMT072970101", "start": "2023-08-16T00:00:00", "capacity": 2020.2, "lat": -15.92916669, "lon": -55.41583331}, {"name": "Arabut\u00e3 I", "state": "SC", "type": "CGH", "phase": "Opera\u00e7\u00e3o", "ceg": "CGHPHSC073816601", "start": "2022-06-29T00:00:00", "capacity": 1210.0, "lat": -27.17043611, "lon": -52.16205278}]