[{"name": "E", "state": "MG", "type": "PCH", "phase": "Opera\u00e7\u00e3o", "ceg": "PCHPHMG000008601", "start": "1953-11-20T00:00:00", "capacity": 1400.0, "lat": -20.12479858, "lon": -43.8702025}, {"name": "F", "state": "MG", "type": "PCH", "phase": "Opera\u00e7\u00e3o", "ceg": "PCHPHMG000009401", "start": "1953-11-20T00:00:00", "capacity": 3972.0, "lat": -20.131873, "lon": -43.876935}, {"name": "G", "state": "MG", "type": "PCH", "phase": "Opera\u00e7\u00e3o", "ceg": "PCHPHMG000010801", "start": "1937-01-01T00:00:00", "capacity": 1440.0, "lat": -20.13754468, "lon": -43.8919262}, {"name": "Agro Trafo", "state": "TO", "type": "PCH", "phase": "Opera\u00e7\u00e3o", "ceg": "PCHPHTO000031001", "start": "1992-01-01T00:00:00", "capacity": 14040.0, "lat": -11.67563889, "lon": -46.66815833}, {"name": "Agro Trafo", "state": "TO", "type": "PCH", "phase": "Opera\u00e7\u00e3o", "ceg": "PCHPHTO000031001", "start": "1992-01-01T00:00:00", "capacity": 14040.0, "lat": -11.67563889, "lon": -46.66815833}, {"name": "Alegre", "state": "ES", "type": "PCH", "phase": "Opera\u00e7\u00e3o", "ceg": "PCHPHES000048501", "start": "1920-05-20T00:00:00", "capacity": 2056.0, "lat": -20.76355051, "lon": -41.52857403}, {"name": "Ant\u00f4nio Brennand (Antiga  Alto Jauru)", "state": "MT", "type": "PCH", "phase": "Opera\u00e7\u00e3o", "ceg": "PCHPHMT000077901", "start": "2002-09-13T00:00:00", "capacity": 21960.0, "lat": -15.04388513, "lon": -58.74900747}, {"name": "Alto Paraguai (Pedro Pedrossian)", "state": "MT", "type": "PCH", "phase": "Opera\u00e7\u00e3o", "ceg": "PCHPHMT000078701", "start": "1970-01-01T00:00:00", "capacity": 1680.0, "lat": -14.47829947, "lon": -56.39193309}, {"name": "Americana", "state": "SP", "type": "PCH", "phase": "Opera\u00e7\u00e3o", "ceg": "PCHPHSP000089201", "start": "1949-01-01T00:00:00", "capacity": 30000.0, "lat": -22.69900289, "lon": -47.28417247}, {"name": "Anna Maria", "state": "MG", "type": "PCH", "phase": "Opera\u00e7\u00e3o", "ceg": "PCHPHMG000104001", "start": "1937-08-01T00:00:00", "capacity": 1680.0, "lat": -21.48153969, "lon": -43.46216245}, {"name": "Apucaraninha", "state": "PR", "type": "PCH", "phase": "Opera\u00e7\u00e3o", "ceg": "PCHPHPR000122801", "start": "1949-04-06T00:00:00", "capacity": 10000.0, "lat": -23.74974679, "lon": -50.90792543}, {"name": "Areal", "state": "RJ", "type": "PCH", "phase": "Opera\u00e7\u00e3o", "ceg": "PCHPHRJ000140601", "start": "1949-01-01T00:00:00", "capacity": 18000.0, "lat": -22.22625007, "lon": -43.07815795}, {"name": "Areal", "state": "MG", "type": "PCH", "phase": "Opera\u00e7\u00e3o", "ceg": "PCHPHMG000141401", "start": "1988-01-01T00:00:00", "capacity": 5149.17, "lat": -22.15330834, "lon": -44.09042778}, {"name": "ARS", "state": "MT", "type": "PCH", "phase": "Opera\u00e7\u00e3o", "ceg": "PCHPHMT000161901", "start": "2009-08-07T00:00:00", "capacity": 6660.0, "lat": -13.09805555, "lon": -54.8175}, {"name": "Baru\u00edto", "state": "MT", "type": "PCH", "phase": "Opera\u00e7\u00e3o", "ceg": "PCHPHMT000233002", "start": "2003-04-29T00:00:00", "capacity": 18000.0, "lat": -13.32033217, "lon": -57.59756342}, {"name": "Vi\u00e7osa (Antiga Bicame)", "state": "ES", "type": "PCH", "phase": "Opera\u00e7\u00e3o", "ceg": "PCHPHES000261501", "start": "2001-05-20T00:00:00", "capacity": 4500.0, "lat": -20.3999529, "lon": -41.26649469}, {"name": "Boa Vista II", "state": "PR", "type": "PCH", "phase": "Opera\u00e7\u00e3o", "ceg": "PCHPHPR000273901", "start": "2002-10-15T00:00:00", "capacity": 24000.0, "lat": -24.94111111, "lon": -51.38416667}, {"name": "Bonfante", "state": "MG", "type": "PCH", "phase": "Opera\u00e7\u00e3o", "ceg": "PCHPHMG000291701", "start": "2008-08-02T00:00:00", "capacity": 19000.0, "lat": -22.00888889, "lon": -43.26527778}, {"name": "Buriti", "state": "MT", "type": "PCH", "phase": "Opera\u00e7\u00e3o", "ceg": "PCHPHMT000331001", "start": "2018-08-04T00:00:00", "capacity": 10000.0, "lat": -13.40539444, "lon": -58.59875556}, {"name": "Cachoeira", "state": "RO", "type": "PCH", "phase": "Opera\u00e7\u00e3o", "ceg": "PCHPHRO000396401", "start": "1997-04-05T00:00:00", "capacity": 11120.0, "lat": -12.49216462, "lon": -60.47203533}, {"name": "Canoa Quebrada", "state": "MT", "type": "PCH", "phase": "Opera\u00e7\u00e3o", "ceg": "PCHPHMT000646701", "start": "2006-12-13T00:00:00", "capacity": 28000.0, "lat": -12.79317778, "lon": -56.00801389}, {"name": "Capigui", "state": "RS", "type": "PCH", "phase": "Opera\u00e7\u00e3o", "ceg": "PCHPHRS000654801", "start": "1933-01-01T00:00:00", "capacity": 4470.0, "lat": -28.35102048, "lon": -52.21423653}, {"name": "Capivari", "state": "SC", "type": "PCH", "phase": "Opera\u00e7\u00e3o", "ceg": "PCHPHSC000659901", "start": "2017-02-23T00:00:00", "capacity": 18738.0, "lat": -28.10777777, "lon": -48.95972221}, {"name": "Casca III", "state": "MT", "type": "PCH", "phase": "Opera\u00e7\u00e3o", "ceg": "PCHPHMT000688203", "start": "1970-01-01T00:00:00", "capacity": 12420.0, "lat": -15.35739424, "lon": -55.45369049}, {"name": "Cavernoso", "state": "PR", "type": "PCH", "phase": "Opera\u00e7\u00e3o", "ceg": "PCHPHPR000729301", "start": "1959-01-01T00:00:00", "capacity": 1300.0, "lat": -25.49361111, "lon": -52.21277778}, {"name": "Cazuza Ferreira", "state": "RS", "type": "PCH", "phase": "Opera\u00e7\u00e3o", "ceg": "PCHPHRS000735801", "start": "2016-03-17T00:00:00", "capacity": 9100.0, "lat": -29.0206358, "lon": -50.73085032}, {"name": "Celso Ramos", "state": "SC", "type": "PCH", "phase": "Opera\u00e7\u00e3o", "ceg": "PCHPHSC000742001", "start": "1963-01-02T00:00:00", "capacity": 13915.0, "lat": -26.75909444, "lon": -52.25811667}, {"name": "Chamin\u00e9", "state": "PR", "type": "PCH", "phase": "Opera\u00e7\u00e3o", "ceg": "PCHPHPR000753601", "start": "1930-01-01T00:00:00", "capacity": 18000.0, "lat": -25.82030925, "lon": -49.06507044}, {"name": "Codorna", "state": "MG", "type": "PCH", "phase": "Opera\u00e7\u00e3o", "ceg": "PCHPHMG000789701", "start": "1937-01-01T00:00:00", "capacity": 1944.0, "lat": -20.16553783, "lon": -43.89007353}, {"name": "Coronel Am\u00e9rico Teixeira", "state": "MG", "type": "PCH", "phase": "Opera\u00e7\u00e3o", "ceg": "PCHPHMG000836202", "start": "1953-04-30T00:00:00", "capacity": 5600.0, "lat": -19.16363889, "lon": -43.67133334}, {"name": "Costa Rica", "state": "MS", "type": "PCH", "phase": "Opera\u00e7\u00e3o", "ceg": "PCHPHMS000872901", "start": "1999-01-01T00:00:00", "capacity": 16000.0, "lat": -18.55887522, "lon": -53.1343861}, {"name": "Cotovelo do Jacu\u00ed", "state": "RS", "type": "PCH", "phase": "Opera\u00e7\u00e3o", "ceg": "PCHPHRS000877001", "start": "2001-05-14T00:00:00", "capacity": 3340.0, "lat": -28.67176851, "lon": -52.72624872}, {"name": "Ernestina", "state": "RS", "type": "PCH", "phase": "Opera\u00e7\u00e3o", "ceg": "PCHPHRS000898201", "start": "2012-08-01T00:00:00", "capacity": 4960.0, "lat": -28.55580845, "lon": -52.54556136}, {"name": "Esmeril", "state": "SP", "type": "PCH", "phase": "Opera\u00e7\u00e3o", "ceg": "PCHPHSP000904001", "start": "1912-01-25T00:00:00", "capacity": 5040.0, "lat": -20.83987576, "lon": -47.30215683}, {"name": "Forquilha", "state": "RS", "type": "PCH", "phase": "Opera\u00e7\u00e3o", "ceg": "PCHPHRS000976801", "start": "1950-01-01T00:00:00", "capacity": 1118.0, "lat": -27.65936544, "lon": -51.74824875}, {"name": "Franca Amaral", "state": "RJ", "type": "PCH", "phase": "Opera\u00e7\u00e3o", "ceg": "PCHPHRJ000992001", "start": "1961-01-01T00:00:00", "capacity": 4500.0, "lat": -21.07249475, "lon": -41.72180252}, {"name": "Fruteiras", "state": "ES", "type": "PCH", "phase": "Opera\u00e7\u00e3o", "ceg": "PCHPHES000999701", "start": "1912-05-20T00:00:00", "capacity": 8736.0, "lat": -20.69552778, "lon": -41.082}, {"name": "Furnas do Segredo", "state": "RS", "type": "PCH", "phase": "Opera\u00e7\u00e3o", "ceg": "PCHPHRS001009001", "start": "2005-09-16T00:00:00", "capacity": 9800.0, "lat": -29.36527778, "lon": -54.50388889}, {"name": "T\u00falio Cordeiro de Mello (Antiga Granada)", "state": "MG", "type": "PCH", "phase": "Opera\u00e7\u00e3o", "ceg": "PCHPHMG001047201", "start": "2003-07-22T00:00:00", "capacity": 15800.0, "lat": -20.18288989, "lon": -42.36562922}, {"name": "Guarita", "state": "RS", "type": "PCH", "phase": "Opera\u00e7\u00e3o", "ceg": "PCHPHRS001076601", "start": "1953-01-01T00:00:00", "capacity": 1760.0, "lat": -27.7652738, "lon": -53.55775721}, {"name": "Guary", "state": "MG", "type": "PCH", "phase": "Opera\u00e7\u00e3o", "ceg": "PCHPHMG001078201", "start": "1914-01-01T00:00:00", "capacity": 5400.0, "lat": -21.48892744, "lon": -43.45520215}, {"name": "Herval", "state": "RS", "type": "PCH", "phase": "Opera\u00e7\u00e3o", "ceg": "PCHPHRS001085501", "start": "1941-05-19T00:00:00", "capacity": 1520.0, "lat": -29.50102325, "lon": -51.00248197}, {"name": "Ijuizinho", "state": "RS", "type": "PCH", "phase": "Opera\u00e7\u00e3o", "ceg": "PCHPHRS001108801", "start": "1998-12-02T00:00:00", "capacity": 3600.0, "lat": -28.40091667, "lon": -54.31269444}, {"name": "Irara", "state": "GO", "type": "PCH", "phase": "Opera\u00e7\u00e3o", "ceg": "PCHPHGO001147901", "start": "2008-09-06T00:00:00", "capacity": 30000.0, "lat": -18.0675, "lon": -51.1675}, {"name": "Isamu Ikeda", "state": "TO", "type": "PCH", "phase": "Opera\u00e7\u00e3o", "ceg": "PCHPHTO001149501", "start": "1982-11-04T00:00:00", "capacity": 29064.0, "lat": -10.6988284, "lon": -47.79391384}, {"name": "Itatinga", "state": "SP", "type": "PCH", "phase": "Opera\u00e7\u00e3o", "ceg": "PCHPHSP001185101", "start": "1910-10-10T00:00:00", "capacity": 15000.0, "lat": -23.74473673, "lon": -46.12760367}, {"name": "Jorda Flor", "state": "SP", "type": "PCH", "phase": "Opera\u00e7\u00e3o", "ceg": "PCHPHSP001257201", "start": "1949-01-01T00:00:00", "capacity": 1550.0, "lat": -23.81364395, "lon": -47.67403218}, {"name": "Jucu", "state": "ES", "type": "PCH", "phase": "Opera\u00e7\u00e3o", "ceg": "PCHPHES001272601", "start": "1909-05-20T00:00:00", "capacity": 4840.0, "lat": -20.3934075, "lon": -40.5726775}, {"name": "Arturo Andreoli (Antiga J\u00falio de Mesquita Filho)", "state": "PR", "type": "PCH", "phase": "Opera\u00e7\u00e3o", "ceg": "PCHPHPR001278501", "start": "2001-10-25T00:00:00", "capacity": 29072.0, "lat": -25.57275152, "lon": -53.11291009}, {"name": "Luiz Queiroz", "state": "SP", "type": "PCH", "phase": "Opera\u00e7\u00e3o", "ceg": "PCHPHSP001343901", "start": "1983-01-01T00:00:00", "capacity": 2880.0, "lat": -22.7167292, "lon": -47.65158324}, {"name": "Lajes (Fontes Velha)", "state": "RJ", "type": "PCH", "phase": "Opera\u00e7\u00e3o", "ceg": "PCHPHRJ001306401", "start": "2018-07-21T00:00:00", "capacity": 17000.0, "lat": -22.70277778, "lon": -43.88111111}, {"name": "Macabu", "state": "RJ", "type": "PCH", "phase": "Opera\u00e7\u00e3o", "ceg": "PCHPHRJ001347101", "start": "1950-01-01T00:00:00", "capacity": 21000.0, "lat": -22.13928551, "lon": -42.09805831}, {"name": "Machado Mineiro", "state": "MG", "type": "PCH", "phase": "Opera\u00e7\u00e3o", "ceg": "PCHPHMG001361701", "start": "1992-01-01T00:00:00", "capacity": 1720.0, "lat": -15.52247511, "lon": -41.51111691}, {"name": "Mello", "state": "MG", "type": "PCH", "phase": "Opera\u00e7\u00e3o", "ceg": "PCHPHMG001454001", "start": "1997-10-30T00:00:00", "capacity": 10685.0, "lat": -22.03339237, "lon": -43.78258769}, {"name": "Mogi-Gua\u00e7u", "state": "SP", "type": "PCH", "phase": "Opera\u00e7\u00e3o", "ceg": "PCHPHSP001479601", "start": "1997-10-01T00:00:00", "capacity": 7200.0, "lat": -22.37979839, "lon": -46.90071964}, {"name": "Monte Serrat", "state": "RJ", "type": "PCH", "phase": "Opera\u00e7\u00e3o", "ceg": "PCHPHRJ001498201", "start": "2009-02-13T00:00:00", "capacity": 25000.0, "lat": -22.02094028, "lon": -43.2994536}, {"name": "Paes Leme", "state": "MG", "type": "PCH", "phase": "Opera\u00e7\u00e3o", "ceg": "PCHPHMG001932101", "start": "2001-06-21T00:00:00", "capacity": 1920.0, "lat": -22.18035945, "lon": -44.27777722}, {"name": "Pai Joaquim", "state": "MG", "type": "PCH", "phase": "Opera\u00e7\u00e3o", "ceg": "PCHPHMG001934801", "start": "2004-03-31T00:00:00", "capacity": 23000.0, "lat": -19.48611111, "lon": -47.54166667}, {"name": "Paracambi", "state": "RJ", "type": "PCH", "phase": "Opera\u00e7\u00e3o", "ceg": "PCHPHRJ001959301", "start": "2012-05-18T00:00:00", "capacity": 25000.0, "lat": -22.67105423, "lon": -43.75560797}, {"name": "Para\u00fana", "state": "MG", "type": "PCH", "phase": "Opera\u00e7\u00e3o", "ceg": "PCHPHMG001977101", "start": "1948-09-01T00:00:00", "capacity": 4280.0, "lat": -18.63854164, "lon": -43.96539932}, {"name": "Passo do Inferno", "state": "RS", "type": "PCH", "phase": "Opera\u00e7\u00e3o", "ceg": "PCHPHRS001998401", "start": "1948-11-15T00:00:00", "capacity": 1490.0, "lat": -29.26827528, "lon": -50.74634472}, {"name": "Passo do Meio", "state": "RS", "type": "PCH", "phase": "Opera\u00e7\u00e3o", "ceg": "PCHPHRS001999201", "start": "2003-10-17T00:00:00", "capacity": 30000.0, "lat": -28.80639015, "lon": -50.61301669}, {"name": "Pau Sangue", "state": "PE", "type": "PCH", "phase": "Opera\u00e7\u00e3o", "ceg": "PCHPHPE002008701", "start": "1939-01-01T00:00:00", "capacity": 1224.0, "lat": -8.59486233, "lon": -35.39068085}, {"name": "Pedrinho I", "state": "PR", "type": "PCH", "phase": "Opera\u00e7\u00e3o", "ceg": "PCHPHPR002028101", "start": "2003-10-01T00:00:00", "capacity": 16200.0, "lat": -24.7875, "lon": -51.43}, {"name": "Pesqueiro", "state": "PR", "type": "PCH", "phase": "Opera\u00e7\u00e3o", "ceg": "PCHPHPR002046001", "start": "2003-01-27T00:00:00", "capacity": 10960.0, "lat": -24.13328827, "lon": -49.6439293}, {"name": "Piabanha", "state": "RJ", "type": "PCH", "phase": "Opera\u00e7\u00e3o", "ceg": "PCHPHRJ002051601", "start": "1908-01-01T00:00:00", "capacity": 9000.0, "lat": -22.20938888, "lon": -43.13830556}, {"name": "Pipoca", "state": "MG", "type": "PCH", "phase": "Opera\u00e7\u00e3o", "ceg": "PCHPHMG002069901", "start": "2010-10-08T00:00:00", "capacity": 20000.0, "lat": -19.7690395, "lon": -41.78844727}, {"name": "Rede El\u00e9trica Piquete - Itajub\u00e1 - REPI", "state": "MG", "type": "PCH", "phase": "Opera\u00e7\u00e3o", "ceg": "PCHPHMG002070201", "start": "1932-12-08T00:00:00", "capacity": 3340.0, "lat": -22.54765833, "lon": -45.36185}, {"name": "Rio Piracicaba", "state": "MG", "type": "PCH", "phase": "Opera\u00e7\u00e3o", "ceg": "PCHPHMG002075301", "start": "1939-01-01T00:00:00", "capacity": 9000.0, "lat": -19.85638889, "lon": -43.11972222}, {"name": "Po\u00e7o Fundo", "state": "MG", "type": "PCH", "phase": "Opera\u00e7\u00e3o", "ceg": "PCHPHMG002092301", "start": "1949-01-01T00:00:00", "capacity": 30000.0, "lat": -21.80673056, "lon": -46.13504639}, {"name": "Angelina (Antiga Portobello - Corredeira do Encano)", "state": "SC", "type": "PCH", "phase": "Opera\u00e7\u00e3o", "ceg": "PCHPHSC002133401", "start": "2010-03-02T00:00:00", "capacity": 26270.0, "lat": -27.45619171, "lon": -48.98390182}, {"name": "Presidente Goulart", "state": "BA", "type": "PCH", "phase": "Opera\u00e7\u00e3o", "ceg": "PCHPHBA002146601", "start": "1963-12-31T00:00:00", "capacity": 8000.0, "lat": -13.33890314, "lon": -44.63304689}, {"name": "Primavera", "state": "MT", "type": "PCH", "phase": "Opera\u00e7\u00e3o", "ceg": "PCHPHMT002155501", "start": "1995-12-01T00:00:00", "capacity": 8120.0, "lat": -15.38114444, "lon": -54.41207778}, {"name": "Salto do Passo Velho", "state": "SC", "type": "PCH", "phase": "Opera\u00e7\u00e3o", "ceg": "PCHPHSC002173301", "start": "2001-10-31T00:00:00", "capacity": 1800.0, "lat": -26.74842778, "lon": -52.40763056}, {"name": "Rio Bonito", "state": "ES", "type": "PCH", "phase": "Opera\u00e7\u00e3o", "ceg": "PCHPHES002293402", "start": "1959-01-01T00:00:00", "capacity": 22500.0, "lat": -20.06007495, "lon": -40.6425863}, {"name": "Rio de Pedras", "state": "MG", "type": "PCH", "phase": "Opera\u00e7\u00e3o", "ceg": "PCHPHMG002345001", "start": "1927-01-01T00:00:00", "capacity": 9280.0, "lat": -20.21333333, "lon": -43.73166667}, {"name": "Deriva\u00e7\u00e3o do Rio Jord\u00e3o", "state": "PR", "type": "PCH", "phase": "Opera\u00e7\u00e3o", "ceg": "PCHPHPR002398101", "start": "1997-12-02T00:00:00", "capacity": 6500.0, "lat": -25.76580251, "lon": -52.08843502}, {"name": "Rondon", "state": "MT", "type": "PCH", "phase": "Opera\u00e7\u00e3o", "ceg": "PCHPHMT002547001", "start": "2011-08-06T00:00:00", "capacity": 13000.0, "lat": -12.9040225, "lon": -58.91329083}, {"name": "Saldanha", "state": "RO", "type": "PCH", "phase": "Opera\u00e7\u00e3o", "ceg": "PCHPHRO002569001", "start": "2006-03-13T00:00:00", "capacity": 5280.0, "lat": -11.98543934, "lon": -62.17963043}, {"name": "Salto do Paraopeba", "state": "MG", "type": "PCH", "phase": "Opera\u00e7\u00e3o", "ceg": "PCHPHMG002633601", "start": "1955-11-01T00:00:00", "capacity": 2460.0, "lat": -20.50666667, "lon": -43.98611111}, {"name": "Salto Mau\u00e1", "state": "PR", "type": "PCH", "phase": "Opera\u00e7\u00e3o", "ceg": "PCHPHPR002654901", "start": "1952-01-26T00:00:00", "capacity": 16319.0, "lat": -24.05888889, "lon": -50.71083333}, {"name": "Salto Santo Ant\u00f4nio", "state": "SC", "type": "PCH", "phase": "Opera\u00e7\u00e3o", "ceg": "PCHPHSC002673504", "start": "2019-03-21T00:00:00", "capacity": 10636.0, "lat": -26.69944444, "lon": -51.82444444}, {"name": "San Juan", "state": "SP", "type": "PCH", "phase": "Opera\u00e7\u00e3o", "ceg": "PCHPHSP002688302", "start": "1911-01-01T00:00:00", "capacity": 4870.0, "lat": -23.14942523, "lon": -47.79449893}, {"name": "S\u00edtio Grande", "state": "BA", "type": "PCH", "phase": "Opera\u00e7\u00e3o", "ceg": "PCHPHBA002754501", "start": "2010-10-23T00:00:00", "capacity": 25000.0, "lat": -12.440829, "lon": -45.16555849}, {"name": "Sobrado", "state": "TO", "type": "PCH", "phase": "Opera\u00e7\u00e3o", "ceg": "PCHPHTO002756101", "start": "1994-01-01T00:00:00", "capacity": 4820.0, "lat": -12.52844222, "lon": -46.26763358}, {"name": "Bra\u00e7o Norte II", "state": "MT", "type": "PCH", "phase": "Opera\u00e7\u00e3o", "ceg": "PCHPHMT002832001", "start": "1900-01-03T00:00:00", "capacity": 15100.0, "lat": -9.77861111, "lon": -54.98861111}, {"name": "Tombos", "state": "MG", "type": "PCH", "phase": "Opera\u00e7\u00e3o", "ceg": "PCHPHMG002856801", "start": "1912-01-01T00:00:00", "capacity": 2880.0, "lat": -20.91452778, "lon": -42.02694444}, {"name": "S\u00e3o Domingos (Torixor\u00e9o)", "state": "MT", "type": "PCH", "phase": "Opera\u00e7\u00e3o", "ceg": "PCHPHMT002862201", "start": "1983-06-01T00:00:00", "capacity": 2400.0, "lat": -16.29972222, "lon": -52.7075}, {"name": "Salto Volt\u00e3o", "state": "SC", "type": "PCH", "phase": "Opera\u00e7\u00e3o", "ceg": "PCHPHSC003047301", "start": "2001-09-24T00:00:00", "capacity": 8200.0, "lat": -26.78817726, "lon": -52.50361798}, {"name": "Santa Cruz", "state": "BA", "type": "PCH", "phase": "Opera\u00e7\u00e3o", "ceg": "PCHPHBA026701501", "start": "1900-01-03T00:00:00", "capacity": 3970.0, "lat": -12.21166667, "lon": -45.46833333}, {"name": "Santa Rosa", "state": "RS", "type": "PCH", "phase": "Opera\u00e7\u00e3o", "ceg": "PCHPHRS026730901", "start": "1955-01-01T00:00:00", "capacity": 1580.0, "lat": -27.77138889, "lon": -54.38833333}, {"name": "Santa Rosa II", "state": "RJ", "type": "PCH", "phase": "Opera\u00e7\u00e3o", "ceg": "PCHPHRJ026732501", "start": "2008-06-25T00:00:00", "capacity": 30000.0, "lat": -22.12215012, "lon": -42.30970912}, {"name": "S\u00e3o Bernardo", "state": "MG", "type": "PCH", "phase": "Opera\u00e7\u00e3o", "ceg": "PCHPHMG026798801", "start": "1948-01-01T00:00:00", "capacity": 6820.0, "lat": -22.60083336, "lon": -45.54748278}, {"name": "S\u00e3o Jo\u00e3o", "state": "ES", "type": "PCH", "phase": "Opera\u00e7\u00e3o", "ceg": "PCHPHES026834801", "start": "2007-04-27T00:00:00", "capacity": 25000.0, "lat": -20.50809444, "lon": -41.28077778}, {"name": "S\u00e3o Joaquim", "state": "SP", "type": "PCH", "phase": "Opera\u00e7\u00e3o", "ceg": "PCHPHSP026844501", "start": "2002-07-19T00:00:00", "capacity": 8050.0, "lat": -20.5815524, "lon": -47.78006976}, {"name": "Cachoeira do Lavrinha (Antiga S\u00e3o Patr\u00edcio)", "state": "GO", "type": "PCH", "phase": "Opera\u00e7\u00e3o", "ceg": "PCHPHGO026879801", "start": "2004-04-16T00:00:00", "capacity": 3010.0, "lat": -15.51648955, "lon": -49.48522057}, {"name": "Dourados", "state": "SP", "type": "PCH", "phase": "Opera\u00e7\u00e3o", "ceg": "PCHPHSP027065201", "start": "2002-07-27T00:00:00", "capacity": 10800.0, "lat": -20.66686929, "lon": -47.65398253}, {"name": "Monte Belo", "state": "RO", "type": "PCH", "phase": "Opera\u00e7\u00e3o", "ceg": "PCHPHRO027072501", "start": "2001-06-01T00:00:00", "capacity": 4800.0, "lat": -11.95290046, "lon": -62.1802435}, {"name": "Eloy Chaves", "state": "SP", "type": "PCH", "phase": "Opera\u00e7\u00e3o", "ceg": "PCHPHSP027108001", "start": "1954-01-01T00:00:00", "capacity": 19000.0, "lat": -22.26035633, "lon": -46.71893028}, {"name": "Jaguari", "state": "SP", "type": "PCH", "phase": "Opera\u00e7\u00e3o", "ceg": "PCHPHSP027109801", "start": "1919-01-01T00:00:00", "capacity": 11800.0, "lat": -22.81958316, "lon": -46.87777861}, {"name": "Casca II", "state": "MT", "type": "PCH", "phase": "Opera\u00e7\u00e3o", "ceg": "PCHPHMT027110101", "start": "1954-06-01T00:00:00", "capacity": 3520.0, "lat": -15.36416667, "lon": -55.43472222}, {"name": "Culuene", "state": "MT", "type": "PCH", "phase": "Opera\u00e7\u00e3o", "ceg": "PCHPHMT027111001", "start": "1985-06-01T00:00:00", "capacity": 1790.0, "lat": -14.6337086, "lon": -53.91293429}, {"name": "Bra\u00e7o Norte", "state": "MT", "type": "PCH", "phase": "Opera\u00e7\u00e3o", "ceg": "PCHPHMT027112801", "start": "1986-06-01T00:00:00", "capacity": 5180.0, "lat": -9.83333333, "lon": -55.01611111}, {"name": "S\u00e3o Jorge", "state": "PR", "type": "PCH", "phase": "Opera\u00e7\u00e3o", "ceg": "PCHPHPR027153501", "start": "1945-01-01T00:00:00", "capacity": 2300.0, "lat": -25.01997701, "lon": -50.06192442}, {"name": "Emas Nova", "state": "SP", "type": "PCH", "phase": "Opera\u00e7\u00e3o", "ceg": "PCHPHSP027165901", "start": "2024-11-26T00:00:00", "capacity": 7215.0, "lat": -21.92650833, "lon": -47.36633333}, {"name": "D", "state": "MG", "type": "PCH", "phase": "Opera\u00e7\u00e3o", "ceg": "PCHPHMG027175601", "start": "1953-11-20T00:00:00", "capacity": 1360.0, "lat": -20.13197203, "lon": -43.87790281}, {"name": "Bra\u00e7o Norte III", "state": "MT", "type": "PCH", "phase": "Opera\u00e7\u00e3o", "ceg": "PCHPHMT027176401", "start": "2003-10-03T00:00:00", "capacity": 14160.0, "lat": -9.63164512, "lon": -54.97345991}, {"name": "Benjamim M\u00e1rio Baptista (Antiga Nova Sinceridade)", "state": "MG", "type": "PCH", "phase": "Opera\u00e7\u00e3o", "ceg": "PCHPHMG027207801", "start": "2001-03-31T00:00:00", "capacity": 9000.0, "lat": -20.22768867, "lon": -41.99600333}, {"name": "Ombreiras", "state": "MT", "type": "PCH", "phase": "Opera\u00e7\u00e3o", "ceg": "PCHPHMT027216701", "start": "2005-07-25T00:00:00", "capacity": 26000.0, "lat": -15.1300515, "lon": -58.72976994}, {"name": "Dian\u00f3polis", "state": "TO", "type": "PCH", "phase": "Opera\u00e7\u00e3o", "ceg": "PCHPHTO027227201", "start": "1994-01-01T00:00:00", "capacity": 5500.0, "lat": -11.4682099, "lon": -46.81484366}, {"name": "Pinhal", "state": "SP", "type": "PCH", "phase": "Opera\u00e7\u00e3o", "ceg": "PCHPHSP027228001", "start": "1928-01-25T00:00:00", "capacity": 6800.0, "lat": -22.2762868, "lon": -46.76214457}, {"name": "Rio Prata", "state": "MT", "type": "PCH", "phase": "Opera\u00e7\u00e3o", "ceg": "PCHPHMT027274401", "start": "1994-09-30T00:00:00", "capacity": 2135.0, "lat": -13.63022904, "lon": -59.87250977}, {"name": "Salto Corg\u00e3o", "state": "MT", "type": "PCH", "phase": "Opera\u00e7\u00e3o", "ceg": "PCHPHMT027326001", "start": "2005-06-29T00:00:00", "capacity": 27000.0, "lat": -14.45730653, "lon": -59.50754194}, {"name": "Indiava\u00ed", "state": "MT", "type": "PCH", "phase": "Opera\u00e7\u00e3o", "ceg": "PCHPHMT027370801", "start": "2003-08-01T00:00:00", "capacity": 28000.0, "lat": -15.26111111, "lon": -58.72138889}, {"name": "Curemas", "state": "PB", "type": "PCH", "phase": "Opera\u00e7\u00e3o", "ceg": "PCHPHPB027402001", "start": "1957-07-01T00:00:00", "capacity": 3520.0, "lat": -7.02335186, "lon": -37.94816502}, {"name": "Ijuizinho", "state": "RS", "type": "PCH", "phase": "Opera\u00e7\u00e3o", "ceg": "PCHPHRS027405401", "start": "1950-01-01T00:00:00", "capacity": 1118.0, "lat": -28.44226581, "lon": -54.28925864}, {"name": "Diacal II", "state": "TO", "type": "PCH", "phase": "Opera\u00e7\u00e3o", "ceg": "PCHPHTO027411901", "start": "1999-04-01T00:00:00", "capacity": 5040.0, "lat": -11.73815897, "lon": -46.75283298}, {"name": "Poxor\u00e9o (Jos\u00e9 Fragelli)", "state": "MT", "type": "PCH", "phase": "Opera\u00e7\u00e3o", "ceg": "PCHPHMT027416001", "start": "1976-06-01T00:00:00", "capacity": 1200.0, "lat": -15.83877745, "lon": -54.38185692}, {"name": "Barra da Paci\u00eancia", "state": "MG", "type": "PCH", "phase": "Opera\u00e7\u00e3o", "ceg": "PCHPHMG027530101", "start": "2011-03-04T00:00:00", "capacity": 23000.0, "lat": -18.93997553, "lon": -42.48621714}, {"name": "Ivan Botelho III (Antiga Triunfo)", "state": "MG", "type": "PCH", "phase": "Opera\u00e7\u00e3o", "ceg": "PCHPHMG027532801", "start": "2005-01-26T00:00:00", "capacity": 24400.0, "lat": -21.30267818, "lon": -42.91253128}, {"name": "Piranhas", "state": "GO", "type": "PCH", "phase": "Opera\u00e7\u00e3o", "ceg": "PCHPHGO027533601", "start": "2006-12-08T00:00:00", "capacity": 18000.0, "lat": -16.59156518, "lon": -51.80620284}, {"name": "Ivan Botelho I (Antiga Ponte)", "state": "MG", "type": "PCH", "phase": "Opera\u00e7\u00e3o", "ceg": "PCHPHMG027534401", "start": "2003-05-14T00:00:00", "capacity": 24300.0, "lat": -21.37404851, "lon": -42.99378205}, {"name": "Vitorino", "state": "PR", "type": "PCH", "phase": "Opera\u00e7\u00e3o", "ceg": "PCHPHPR027549201", "start": "2002-09-12T00:00:00", "capacity": 5280.0, "lat": -25.99708053, "lon": -52.78543397}, {"name": "V\u00e1rzea Alegre", "state": "MG", "type": "PCH", "phase": "Opera\u00e7\u00e3o", "ceg": "PCHPHMG027572701", "start": "2011-04-02T00:00:00", "capacity": 7500.0, "lat": -19.98666667, "lon": -41.71916667}, {"name": "Fuma\u00e7a IV", "state": "ES", "type": "PCH", "phase": "Opera\u00e7\u00e3o", "ceg": "PCHPHES027575101", "start": "2008-12-30T00:00:00", "capacity": 4500.0, "lat": -20.74657479, "lon": -41.87479677}, {"name": "Ninho da \u00c1guia", "state": "MG", "type": "PCH", "phase": "Opera\u00e7\u00e3o", "ceg": "PCHPHMG027576001", "start": "2011-01-03T00:00:00", "capacity": 10000.0, "lat": -22.49360887, "lon": -45.33001027}, {"name": "Para\u00edso I", "state": "MS", "type": "PCH", "phase": "Opera\u00e7\u00e3o", "ceg": "PCHPHMS027587501", "start": "2004-02-07T00:00:00", "capacity": 21600.0, "lat": -19.04122307, "lon": -52.99991062}, {"name": "Funil", "state": "MG", "type": "PCH", "phase": "Opera\u00e7\u00e3o", "ceg": "PCHPHMG027645601", "start": "2008-03-05T00:00:00", "capacity": 22500.0, "lat": -19.08568196, "lon": -42.85258157}, {"name": "Calheiros", "state": "RJ", "type": "PCH", "phase": "Opera\u00e7\u00e3o", "ceg": "PCHPHRJ027672301", "start": "2008-09-12T00:00:00", "capacity": 19528.0, "lat": -20.9865676, "lon": -41.71050548}, {"name": "S\u00e3o Gon\u00e7alo (Antiga Santa B\u00e1rbara)", "state": "MG", "type": "PCH", "phase": "Opera\u00e7\u00e3o", "ceg": "PCHPHMG027673101", "start": "2010-06-08T00:00:00", "capacity": 11000.0, "lat": -19.81299962, "lon": -43.26679336}, {"name": "Salto Forqueta", "state": "RS", "type": "PCH", "phase": "Opera\u00e7\u00e3o", "ceg": "PCHPHRS027713401", "start": "2003-03-03T00:00:00", "capacity": 6080.0, "lat": -29.0798476, "lon": -52.20962591}, {"name": "Nova Maur\u00edcio", "state": "MG", "type": "PCH", "phase": "Opera\u00e7\u00e3o", "ceg": "PCHPHMG027722301", "start": "1956-01-01T00:00:00", "capacity": 29232.0, "lat": -21.47917376, "lon": -42.84520996}, {"name": "Ivan Botelho II (Antiga Palestina)", "state": "MG", "type": "PCH", "phase": "Opera\u00e7\u00e3o", "ceg": "PCHPHMG027727401", "start": "2003-11-28T00:00:00", "capacity": 12400.0, "lat": -21.34503536, "lon": -42.97078418}, {"name": "Cocais Grande", "state": "MG", "type": "PCH", "phase": "Opera\u00e7\u00e3o", "ceg": "PCHPHMG027728201", "start": "2009-03-05T00:00:00", "capacity": 10000.0, "lat": -19.51995924, "lon": -42.76667075}, {"name": "Varginha", "state": "MG", "type": "PCH", "phase": "Opera\u00e7\u00e3o", "ceg": "PCHPHMG027729001", "start": "2010-10-15T00:00:00", "capacity": 9000.0, "lat": -20.04722222, "lon": -41.74333333}, {"name": "Cristina", "state": "MG", "type": "PCH", "phase": "Opera\u00e7\u00e3o", "ceg": "PCHPHMG027730401", "start": "2011-11-18T00:00:00", "capacity": 3800.0, "lat": -22.16218821, "lon": -45.27746806}, {"name": "Carangola", "state": "MG", "type": "PCH", "phase": "Opera\u00e7\u00e3o", "ceg": "PCHPHMG027731201", "start": "2008-06-25T00:00:00", "capacity": 15000.0, "lat": -20.70180059, "lon": -42.06403008}, {"name": "Corrente Grande", "state": "MG", "type": "PCH", "phase": "Opera\u00e7\u00e3o", "ceg": "PCHPHMG027842401", "start": "2011-02-02T00:00:00", "capacity": 14000.0, "lat": -18.94733391, "lon": -42.52930741}, {"name": "Padre Carlos (Antiga Rolador)", "state": "MG", "type": "PCH", "phase": "Opera\u00e7\u00e3o", "ceg": "PCHPHMG027870001", "start": "2003-06-15T00:00:00", "capacity": 7800.0, "lat": -21.70288809, "lon": -46.57585778}, {"name": "Linha Em\u00edlia", "state": "RS", "type": "PCH", "phase": "Opera\u00e7\u00e3o", "ceg": "PCHPHRS027876901", "start": "2009-01-31T00:00:00", "capacity": 19500.0, "lat": -28.94069116, "lon": -51.77335718}, {"name": "Cotipor\u00e3", "state": "RS", "type": "PCH", "phase": "Opera\u00e7\u00e3o", "ceg": "PCHPHRS027877701", "start": "2008-12-23T00:00:00", "capacity": 19500.0, "lat": -28.96282975, "lon": -51.7577345}, {"name": "Ca\u00e7ador", "state": "RS", "type": "PCH", "phase": "Opera\u00e7\u00e3o", "ceg": "PCHPHRS027878501", "start": "2008-10-31T00:00:00", "capacity": 22500.0, "lat": -28.70592052, "lon": -51.85079336}, {"name": "Salto Natal", "state": "PR", "type": "PCH", "phase": "Opera\u00e7\u00e3o", "ceg": "PCHPHPR027879301", "start": "2003-11-21T00:00:00", "capacity": 15120.0, "lat": -24.08703923, "lon": -52.30024448}, {"name": "Ferradura", "state": "RS", "type": "PCH", "phase": "Opera\u00e7\u00e3o", "ceg": "PCHPHRS027885801", "start": "2003-12-31T00:00:00", "capacity": 9200.0, "lat": -27.5611185, "lon": -53.57885681}, {"name": "E Nova", "state": "MG", "type": "PCH", "phase": "Opera\u00e7\u00e3o", "ceg": "PCHPHMG027899801", "start": "1953-11-20T00:00:00", "capacity": 2744.0, "lat": -20.12467303, "lon": -43.86976062}, {"name": "Areia Branca", "state": "MG", "type": "PCH", "phase": "Opera\u00e7\u00e3o", "ceg": "PCHPHMG027910201", "start": "2010-03-10T00:00:00", "capacity": 19800.0, "lat": -19.61394663, "lon": -41.80344283}, {"name": "Henrique Nunes Coutinho (Antiga Cachoeir\u00e3o)", "state": "MG", "type": "PCH", "phase": "Opera\u00e7\u00e3o", "ceg": "PCHPHMG027940401", "start": "2008-12-30T00:00:00", "capacity": 27000.0, "lat": -19.43687973, "lon": -41.61439138}, {"name": "Fuma\u00e7a", "state": "MG", "type": "PCH", "phase": "Opera\u00e7\u00e3o", "ceg": "PCHPHMG027957901", "start": "2003-05-20T00:00:00", "capacity": 10000.0, "lat": -20.45293669, "lon": -43.27283052}, {"name": "Ormeo Junqueira Botelho (Antiga Cachoeira Encoberta)", "state": "MG", "type": "PCH", "phase": "Opera\u00e7\u00e3o", "ceg": "PCHPHMG027958701", "start": "2003-12-31T00:00:00", "capacity": 22700.0, "lat": -21.08451487, "lon": -42.34371933}, {"name": "Santa Laura", "state": "SC", "type": "PCH", "phase": "Opera\u00e7\u00e3o", "ceg": "PCHPHSC027972201", "start": "2007-10-01T00:00:00", "capacity": 15000.0, "lat": -26.76716604, "lon": -52.31788827}, {"name": "Itaipava", "state": "SP", "type": "PCH", "phase": "Opera\u00e7\u00e3o", "ceg": "PCHPHSP027984601", "start": "1914-01-01T00:00:00", "capacity": 3880.0, "lat": -21.41289413, "lon": -47.33476681}, {"name": "S\u00e3o Joaquim", "state": "ES", "type": "PCH", "phase": "Opera\u00e7\u00e3o", "ceg": "PCHPHES027985401", "start": "2008-04-17T00:00:00", "capacity": 21000.0, "lat": -20.60360012, "lon": -40.80552455}, {"name": "Santa L\u00facia", "state": "MT", "type": "PCH", "phase": "Opera\u00e7\u00e3o", "ceg": "PCHPHMT027987001", "start": "1994-01-01T00:00:00", "capacity": 5000.0, "lat": -13.54381367, "lon": -59.03062251}, {"name": "Piracicaba (Antiga Boyes)", "state": "SP", "type": "PCH", "phase": "Opera\u00e7\u00e3o", "ceg": "PCHPHSP028024001", "start": "1938-01-01T00:00:00", "capacity": 1120.0, "lat": -22.71628857, "lon": -47.65432895}, {"name": "Rio Branco", "state": "RO", "type": "PCH", "phase": "Opera\u00e7\u00e3o", "ceg": "PCHPHRO028026701", "start": "2004-12-31T00:00:00", "capacity": 6900.0, "lat": -11.91025804, "lon": -62.18110915}, {"name": "Carlos Gonzatto (Antiga Turvo 6)", "state": "RS", "type": "PCH", "phase": "Opera\u00e7\u00e3o", "ceg": "PCHPHRS028030501", "start": "2006-04-01T00:00:00", "capacity": 9000.0, "lat": -27.6220915, "lon": -53.80382786}, {"name": "Congonhal I", "state": "MG", "type": "PCH", "phase": "Opera\u00e7\u00e3o", "ceg": "PCHPHMG028036401", "start": "2001-06-22T00:00:00", "capacity": 1816.0, "lat": -22.11535127, "lon": -44.83967248}, {"name": "Ju\u00edna", "state": "MT", "type": "PCH", "phase": "Opera\u00e7\u00e3o", "ceg": "PCHPHMT028168901", "start": "1993-10-01T00:00:00", "capacity": 5300.0, "lat": -11.31111111, "lon": -59.22333333}, {"name": "S\u00e3o Sim\u00e3o", "state": "ES", "type": "PCH", "phase": "Opera\u00e7\u00e3o", "ceg": "PCHPHES028171901", "start": "2009-02-17T00:00:00", "capacity": 27000.0, "lat": -20.61666667, "lon": -41.48333333}, {"name": "Furquim", "state": "MG", "type": "PCH", "phase": "Opera\u00e7\u00e3o", "ceg": "PCHPHMG028175101", "start": "2003-11-05T00:00:00", "capacity": 6000.0, "lat": -20.36250152, "lon": -43.21236919}, {"name": "Santa Edwiges III", "state": "GO", "type": "PCH", "phase": "Opera\u00e7\u00e3o", "ceg": "PCHPHGO028182401", "start": "2009-01-08T00:00:00", "capacity": 11600.0, "lat": -14.37103608, "lon": -46.32097802}, {"name": "Santa Edwiges II", "state": "GO", "type": "PCH", "phase": "Opera\u00e7\u00e3o", "ceg": "PCHPHGO028183201", "start": "2006-01-09T00:00:00", "capacity": 13000.0, "lat": -14.35803916, "lon": -46.19796406}, {"name": "Riach\u00e3o (Antiga Santa Edwiges I)", "state": "GO", "type": "PCH", "phase": "Opera\u00e7\u00e3o", "ceg": "PCHPHGO028184001", "start": "2006-11-02T00:00:00", "capacity": 13400.0, "lat": -14.3063942, "lon": -46.19993359}, {"name": "Batista", "state": "SP", "type": "PCH", "phase": "Opera\u00e7\u00e3o", "ceg": "PCHPHSP028187501", "start": "1912-01-01T00:00:00", "capacity": 2704.0, "lat": -23.84180911, "lon": -47.65358484}, {"name": "Pilar", "state": "SP", "type": "PCH", "phase": "Opera\u00e7\u00e3o", "ceg": "PCHPHSP028188301", "start": "1928-01-01T00:00:00", "capacity": 1300.0, "lat": -23.83630621, "lon": -47.65994977}, {"name": "Salto", "state": "MT", "type": "PCH", "phase": "Opera\u00e7\u00e3o", "ceg": "PCHPHMT028203001", "start": "2007-12-29T00:00:00", "capacity": 19000.0, "lat": -15.28734063, "lon": -58.7112276}, {"name": "Madame Denise (Cachoeira do Furado)", "state": "MG", "type": "PCH", "phase": "Opera\u00e7\u00e3o", "ceg": "PCHPHMG028218901", "start": "1935-11-26T00:00:00", "capacity": 2880.0, "lat": -19.64922958, "lon": -43.69183871}, {"name": "Jos\u00e9 Barasuol (Antiga Linha 3 Leste)", "state": "RS", "type": "PCH", "phase": "Opera\u00e7\u00e3o", "ceg": "PCHPHRS028231601", "start": "2003-12-31T00:00:00", "capacity": 14335.0, "lat": -28.29193136, "lon": -53.87742757}, {"name": "Francisco Gross (Antiga Santa F\u00e9)", "state": "ES", "type": "PCH", "phase": "Opera\u00e7\u00e3o", "ceg": "PCHPHES028380001", "start": "2009-05-27T00:00:00", "capacity": 29000.0, "lat": -20.69626427, "lon": -41.51583919}, {"name": "S\u00e3o Domingos II", "state": "GO", "type": "PCH", "phase": "Opera\u00e7\u00e3o", "ceg": "PCHPHGO028388601", "start": "2009-05-07T00:00:00", "capacity": 24660.0, "lat": -13.41219734, "lon": -46.36917247}, {"name": "Senador Jonas Pinheiro (Caet\u00e9)", "state": "MT", "type": "PCH", "phase": "Opera\u00e7\u00e3o", "ceg": "PCHPHMT028393201", "start": "2006-09-09T00:00:00", "capacity": 5940.0, "lat": -16.10456602, "lon": -55.34513834}, {"name": "Santa L\u00facia II", "state": "MT", "type": "PCH", "phase": "Opera\u00e7\u00e3o", "ceg": "PCHPHMT028395901", "start": "2003-04-14T00:00:00", "capacity": 7600.0, "lat": -13.54433208, "lon": -59.03014799}, {"name": "Fortuna II", "state": "MG", "type": "PCH", "phase": "Opera\u00e7\u00e3o", "ceg": "PCHPHMG028426201", "start": "2019-01-11T00:00:00", "capacity": 9000.0, "lat": -18.89355002, "lon": -42.684975}, {"name": "Esmeralda", "state": "RS", "type": "PCH", "phase": "Opera\u00e7\u00e3o", "ceg": "PCHPHRS028430001", "start": "2006-12-23T00:00:00", "capacity": 22200.0, "lat": -27.7886275, "lon": -51.34775146}, {"name": "S\u00e3o Bernardo", "state": "RS", "type": "PCH", "phase": "Opera\u00e7\u00e3o", "ceg": "PCHPHRS028431901", "start": "2006-08-05T00:00:00", "capacity": 15000.0, "lat": -27.73844542, "lon": -51.31343555}, {"name": "Areia", "state": "TO", "type": "PCH", "phase": "Opera\u00e7\u00e3o", "ceg": "PCHPHTO028446701", "start": "2011-02-25T00:00:00", "capacity": 11400.0, "lat": -11.69751664, "lon": -46.73671071}, {"name": "\u00c1gua Limpa", "state": "TO", "type": "PCH", "phase": "Opera\u00e7\u00e3o", "ceg": "PCHPHTO028447501", "start": "2010-12-21T00:00:00", "capacity": 14000.0, "lat": -11.69161437, "lon": -46.70422058}, {"name": "Cabixi II", "state": "MT", "type": "PCH", "phase": "Opera\u00e7\u00e3o", "ceg": "PCHPHMT028482301", "start": "2002-08-12T00:00:00", "capacity": 2800.0, "lat": -13.02053791, "lon": -60.11199241}, {"name": "Mosquit\u00e3o", "state": "GO", "type": "PCH", "phase": "Opera\u00e7\u00e3o", "ceg": "PCHPHGO028541201", "start": "2006-12-27T00:00:00", "capacity": 30000.0, "lat": -16.34268538, "lon": -51.43903745}, {"name": "Mata Velha", "state": "MG", "type": "PCH", "phase": "Opera\u00e7\u00e3o", "ceg": "PCHPHMG028607901", "start": "2016-05-07T00:00:00", "capacity": 24000.0, "lat": -16.19211806, "lon": -47.17349278}, {"name": "Salto Tr\u00eas de Maio", "state": "PA", "type": "PCH", "phase": "Opera\u00e7\u00e3o", "ceg": "PCHPHPA028653201", "start": "2010-01-13T00:00:00", "capacity": 20000.0, "lat": -8.74969049, "lon": -55.03411908}, {"name": "Paiol", "state": "MG", "type": "PCH", "phase": "Opera\u00e7\u00e3o", "ceg": "PCHPHMG028670201", "start": "2010-03-23T00:00:00", "capacity": 20000.0, "lat": -18.59989761, "lon": -41.8483167}, {"name": "Salto Buriti", "state": "PA", "type": "PCH", "phase": "Opera\u00e7\u00e3o", "ceg": "PCHPHPA028671001", "start": "2008-12-18T00:00:00", "capacity": 10000.0, "lat": -8.76853632, "lon": -54.95176878}, {"name": "Salto Curu\u00e1", "state": "PA", "type": "PCH", "phase": "Opera\u00e7\u00e3o", "ceg": "PCHPHPA028672901", "start": "2008-10-15T00:00:00", "capacity": 30000.0, "lat": -8.74227799, "lon": -54.96065681}, {"name": "Una\u00ed Baixo", "state": "MG", "type": "PCH", "phase": "Opera\u00e7\u00e3o", "ceg": "PCHPHMG028673701", "start": "2012-05-04T00:00:00", "capacity": 26000.0, "lat": -16.18638889, "lon": -47.02805556}, {"name": "Jo\u00e3o Baptista de Lima Figueiredo", "state": "SP", "type": "PCH", "phase": "Opera\u00e7\u00e3o", "ceg": "PCHPHSP028700801", "start": "1952-02-09T00:00:00", "capacity": 3500.0, "lat": -21.58444444, "lon": -46.7475}, {"name": "Jararaca", "state": "RS", "type": "PCH", "phase": "Opera\u00e7\u00e3o", "ceg": "PCHPHRS028715601", "start": "2008-04-15T00:00:00", "capacity": 28000.0, "lat": -28.93654917, "lon": -51.46532111}, {"name": "Da Ilha", "state": "RS", "type": "PCH", "phase": "Opera\u00e7\u00e3o", "ceg": "PCHPHRS028725301", "start": "2008-04-15T00:00:00", "capacity": 26000.0, "lat": -28.89143806, "lon": -51.45587639}, {"name": "Anhanguera", "state": "SP", "type": "PCH", "phase": "Opera\u00e7\u00e3o", "ceg": "PCHPHSP028734201", "start": "2010-12-03T00:00:00", "capacity": 22680.0, "lat": -20.49411316, "lon": -47.85916975}, {"name": "Senhora do Porto", "state": "MG", "type": "PCH", "phase": "Opera\u00e7\u00e3o", "ceg": "PCHPHMG028735001", "start": "2018-05-29T00:00:00", "capacity": 12000.0, "lat": -19.03819044, "lon": -42.92378827}, {"name": "Planalto", "state": "GO", "type": "PCH", "phase": "Opera\u00e7\u00e3o", "ceg": "PCHPHGO028737701", "start": "2009-07-15T00:00:00", "capacity": 17000.0, "lat": -18.78833333, "lon": -52.37527778}, {"name": "Retiro", "state": "SP", "type": "PCH", "phase": "Opera\u00e7\u00e3o", "ceg": "PCHPHSP028738501", "start": "2014-03-01T00:00:00", "capacity": 16000.0, "lat": -20.43816667, "lon": -47.888}, {"name": "Rio Timb\u00f3", "state": "SC", "type": "PCH", "phase": "Opera\u00e7\u00e3o", "ceg": "PCHPHSC028744001", "start": "1959-08-15T00:00:00", "capacity": 5500.0, "lat": -26.49361111, "lon": -50.78638889}, {"name": "Rio Timb\u00f3", "state": "SC", "type": "PCH", "phase": "Opera\u00e7\u00e3o", "ceg": "PCHPHSC028744001", "start": "1959-08-15T00:00:00", "capacity": 5500.0, "lat": -26.49361111, "lon": -50.78638889}, {"name": "S\u00e3o Francisco", "state": "PR", "type": "PCH", "phase": "Opera\u00e7\u00e3o", "ceg": "PCHPHPR028747401", "start": "2010-11-30T00:00:00", "capacity": 14000.0, "lat": -24.73305556, "lon": -53.89277778}, {"name": "Alto Irani", "state": "SC", "type": "PCH", "phase": "Opera\u00e7\u00e3o", "ceg": "PCHPHSC028748201", "start": "2008-09-27T00:00:00", "capacity": 21000.0, "lat": -27.01222222, "lon": -52.42722222}, {"name": "Jacar\u00e9", "state": "MG", "type": "PCH", "phase": "Opera\u00e7\u00e3o", "ceg": "PCHPHMG028749001", "start": "2019-05-30T00:00:00", "capacity": 9000.0, "lat": -19.00238333, "lon": -42.94662778}, {"name": "Santa F\u00e9 I", "state": "RJ", "type": "PCH", "phase": "Opera\u00e7\u00e3o", "ceg": "PCHPHRJ028752001", "start": "2008-05-09T00:00:00", "capacity": 30000.0, "lat": -22.032955, "lon": -43.1544345}, {"name": "Buriti", "state": "MS", "type": "PCH", "phase": "Opera\u00e7\u00e3o", "ceg": "PCHPHMS028753901", "start": "2007-02-16T00:00:00", "capacity": 30000.0, "lat": -19.33539286, "lon": -52.67212619}, {"name": "Plano Alto", "state": "SC", "type": "PCH", "phase": "Opera\u00e7\u00e3o", "ceg": "PCHPHSC028754701", "start": "2008-02-14T00:00:00", "capacity": 16000.0, "lat": -26.9579029, "lon": -52.34046413}, {"name": "Arvoredo", "state": "SC", "type": "PCH", "phase": "Opera\u00e7\u00e3o", "ceg": "PCHPHSC028755501", "start": "2010-04-08T00:00:00", "capacity": 13000.0, "lat": -27.05868486, "lon": -52.47056619}, {"name": "Retiro Velho", "state": "GO", "type": "PCH", "phase": "Opera\u00e7\u00e3o", "ceg": "PCHPHGO028771701", "start": "2009-06-16T00:00:00", "capacity": 18000.0, "lat": -18.81972222, "lon": -52.1775}, {"name": "Bra\u00e7o Norte IV", "state": "MT", "type": "PCH", "phase": "Opera\u00e7\u00e3o", "ceg": "PCHPHMT028772501", "start": "2007-11-08T00:00:00", "capacity": 14000.0, "lat": -9.68361303, "lon": -54.96333382}, {"name": "Faxinal II", "state": "MT", "type": "PCH", "phase": "Opera\u00e7\u00e3o", "ceg": "PCHPHMT028780601", "start": "2005-11-22T00:00:00", "capacity": 30000.0, "lat": -10.16472433, "lon": -59.45695553}, {"name": "Dores de Guanh\u00e3es", "state": "MG", "type": "PCH", "phase": "Opera\u00e7\u00e3o", "ceg": "PCHPHMG028781401", "start": "2018-10-03T00:00:00", "capacity": 14000.0, "lat": -19.06808197, "lon": -42.8899612}, {"name": "Novo Horizonte", "state": "PR", "type": "PCH", "phase": "Opera\u00e7\u00e3o", "ceg": "PCHPHPR028782201", "start": "2011-06-04T00:00:00", "capacity": 23000.0, "lat": -25.00056125, "lon": -48.6227515}, {"name": "Sacre II", "state": "MT", "type": "PCH", "phase": "Opera\u00e7\u00e3o", "ceg": "PCHPHMT028796201", "start": "2006-09-14T00:00:00", "capacity": 30000.0, "lat": -13.02263889, "lon": -58.18691667}, {"name": "Tudel\u00e2ndia", "state": "RJ", "type": "PCH", "phase": "Opera\u00e7\u00e3o", "ceg": "PCHPHRJ028798901", "start": "2010-05-22T00:00:00", "capacity": 2547.0, "lat": -21.91260408, "lon": -41.95699668}, {"name": "Palmeiras", "state": "SP", "type": "PCH", "phase": "Opera\u00e7\u00e3o", "ceg": "PCHPHSP028800401", "start": "2012-02-07T00:00:00", "capacity": 16500.0, "lat": -20.54777778, "lon": -47.81361111}, {"name": "Ludesa", "state": "SC", "type": "PCH", "phase": "Opera\u00e7\u00e3o", "ceg": "PCHPHSC028801201", "start": "2007-08-01T00:00:00", "capacity": 30000.0, "lat": -26.57777778, "lon": -52.49611111}, {"name": "Alto Benedito Novo I", "state": "SC", "type": "PCH", "phase": "Opera\u00e7\u00e3o", "ceg": "PCHPHSC028802001", "start": "2008-07-08T00:00:00", "capacity": 15000.0, "lat": -26.77359457, "lon": -49.43288228}, {"name": "Goiandira", "state": "GO", "type": "PCH", "phase": "Opera\u00e7\u00e3o", "ceg": "PCHPHGO028803901", "start": "2010-11-11T00:00:00", "capacity": 27000.0, "lat": -18.14356054, "lon": -48.27040066}, {"name": "Pirapetinga", "state": "ES", "type": "PCH", "phase": "Opera\u00e7\u00e3o", "ceg": "PCHPHES028804701", "start": "2009-08-14T00:00:00", "capacity": 20000.0, "lat": -21.1075, "lon": -41.7275}, {"name": "Pedra do Garraf\u00e3o", "state": "ES", "type": "PCH", "phase": "Opera\u00e7\u00e3o", "ceg": "PCHPHES028805501", "start": "2009-09-18T00:00:00", "capacity": 19000.0, "lat": -21.19861111, "lon": -41.37638889}, {"name": "S\u00e3o Tadeu I", "state": "MT", "type": "PCH", "phase": "Opera\u00e7\u00e3o", "ceg": "PCHPHMT028806301", "start": "2010-12-24T00:00:00", "capacity": 18000.0, "lat": -15.73945, "lon": -55.52958889}, {"name": "Piedade", "state": "MG", "type": "PCH", "phase": "Opera\u00e7\u00e3o", "ceg": "PCHPHMG028807101", "start": "2010-08-25T00:00:00", "capacity": 21690.0, "lat": -18.68833333, "lon": -49.00916667}, {"name": "Alto Sucuri\u00fa", "state": "MS", "type": "PCH", "phase": "Opera\u00e7\u00e3o", "ceg": "PCHPHMS028817901", "start": "2008-08-06T00:00:00", "capacity": 29000.0, "lat": -19.24583753, "lon": -52.88109236}, {"name": "Jesu\u00edta", "state": "MT", "type": "PCH", "phase": "Opera\u00e7\u00e3o", "ceg": "PCHPHMT028818701", "start": "2023-04-28T00:00:00", "capacity": 22302.0, "lat": -13.31742778, "lon": -59.03401667}, {"name": "Parecis", "state": "MT", "type": "PCH", "phase": "Opera\u00e7\u00e3o", "ceg": "PCHPHMT028819501", "start": "2011-07-06T00:00:00", "capacity": 15400.0, "lat": -13.07416667, "lon": -58.97538889}, {"name": "Telegr\u00e1fica", "state": "MT", "type": "PCH", "phase": "Opera\u00e7\u00e3o", "ceg": "PCHPHMT028820901", "start": "2011-08-27T00:00:00", "capacity": 30000.0, "lat": -12.84858623, "lon": -58.92609167}, {"name": "Sapezal", "state": "MT", "type": "PCH", "phase": "Opera\u00e7\u00e3o", "ceg": "PCHPHMT028821701", "start": "2011-06-23T00:00:00", "capacity": 16000.0, "lat": -13.26555556, "lon": -59.01944444}, {"name": "Segredo", "state": "MT", "type": "PCH", "phase": "Opera\u00e7\u00e3o", "ceg": "PCHPHMT028822501", "start": "2013-04-25T00:00:00", "capacity": 26118.0, "lat": -13.22383333, "lon": -59.02680556}, {"name": "S\u00e3o Jos\u00e9", "state": "SP", "type": "PCH", "phase": "Opera\u00e7\u00e3o", "ceg": "PCHPHSP028823301", "start": "2012-03-17T00:00:00", "capacity": 4000.0, "lat": -21.93805556, "lon": -46.81583333}, {"name": "S\u00e3o Louren\u00e7o (Antiga Z\u00e9 Fernando)", "state": "MT", "type": "PCH", "phase": "Opera\u00e7\u00e3o", "ceg": "PCHPHMT028825001", "start": "2009-04-28T00:00:00", "capacity": 29988.0, "lat": -16.21759738, "lon": -54.94444043}, {"name": "S\u00e3o Joaquim", "state": "SP", "type": "PCH", "phase": "Opera\u00e7\u00e3o", "ceg": "PCHPHSP028826801", "start": "2011-07-21T00:00:00", "capacity": 3000.0, "lat": -21.8742482, "lon": -46.88661033}, {"name": "Mamba\u00ed II", "state": "GO", "type": "PCH", "phase": "Opera\u00e7\u00e3o", "ceg": "PCHPHGO028829201", "start": "2008-11-28T00:00:00", "capacity": 12000.0, "lat": -14.68821614, "lon": -46.29921973}, {"name": "Salto das Flores", "state": "SC", "type": "PCH", "phase": "Opera\u00e7\u00e3o", "ceg": "PCHPHSC028831401", "start": "2011-10-18T00:00:00", "capacity": 6700.0, "lat": -26.66279657, "lon": -53.65576645}, {"name": "Paranatinga II", "state": "MT", "type": "PCH", "phase": "Opera\u00e7\u00e3o", "ceg": "PCHPHMT028832201", "start": "2008-02-12T00:00:00", "capacity": 29020.0, "lat": -13.85209361, "lon": -53.25631111}, {"name": "Jata\u00ed", "state": "GO", "type": "PCH", "phase": "Opera\u00e7\u00e3o", "ceg": "PCHPHGO028834901", "start": "2008-07-30T00:00:00", "capacity": 30000.0, "lat": -17.94472502, "lon": -51.72623309}, {"name": "Ilha Comprida", "state": "MT", "type": "PCH", "phase": "Opera\u00e7\u00e3o", "ceg": "PCHPHMT028835701", "start": "2013-07-04T00:00:00", "capacity": 20160.0, "lat": -13.19799722, "lon": -58.98381111}, {"name": "Cidezal", "state": "MT", "type": "PCH", "phase": "Opera\u00e7\u00e3o", "ceg": "PCHPHMT028836501", "start": "2011-06-25T00:00:00", "capacity": 17000.0, "lat": -13.36997222, "lon": -59.01263889}, {"name": "Pequi", "state": "MT", "type": "PCH", "phase": "Opera\u00e7\u00e3o", "ceg": "PCHPHMT028838101", "start": "2008-12-05T00:00:00", "capacity": 6000.0, "lat": -16.00333333, "lon": -55.11527778}, {"name": "Primavera", "state": "RO", "type": "PCH", "phase": "Opera\u00e7\u00e3o", "ceg": "PCHPHRO028840301", "start": "2007-02-07T00:00:00", "capacity": 25700.0, "lat": -11.90441956, "lon": -61.23528358}, {"name": "Mucuri", "state": "MG", "type": "PCH", "phase": "Opera\u00e7\u00e3o", "ceg": "PCHPHMG028842001", "start": "2013-05-10T00:00:00", "capacity": 22500.0, "lat": -17.59509393, "lon": -40.98612175}, {"name": "Santa Rosa", "state": "SC", "type": "PCH", "phase": "Opera\u00e7\u00e3o", "ceg": "PCHPHSC028844601", "start": "2013-12-14T00:00:00", "capacity": 6700.0, "lat": -28.01277778, "lon": -49.12305556}, {"name": "Engenheiro Jos\u00e9 Gel\u00e1sio da Rocha", "state": "MT", "type": "PCH", "phase": "Opera\u00e7\u00e3o", "ceg": "PCHPHMT028845401", "start": "2007-02-17T00:00:00", "capacity": 24435.0, "lat": -16.71296697, "lon": -54.74837024}, {"name": "Rondon\u00f3polis", "state": "MT", "type": "PCH", "phase": "Opera\u00e7\u00e3o", "ceg": "PCHPHMT028848901", "start": "2007-12-12T00:00:00", "capacity": 26600.0, "lat": -16.66701393, "lon": -54.73557501}, {"name": "\u00c2ngelo Cassol", "state": "RO", "type": "PCH", "phase": "Opera\u00e7\u00e3o", "ceg": "PCHPHRO028849701", "start": "2011-04-20T00:00:00", "capacity": 3600.0, "lat": -11.93119816, "lon": -62.1039705}, {"name": "Flor do Sert\u00e3o", "state": "SC", "type": "PCH", "phase": "Opera\u00e7\u00e3o", "ceg": "PCHPHSC028852701", "start": "2007-07-28T00:00:00", "capacity": 16500.0, "lat": -26.78840918, "lon": -53.39435567}, {"name": "Sete Quedas Alta", "state": "MT", "type": "PCH", "phase": "Opera\u00e7\u00e3o", "ceg": "PCHPHMT028853501", "start": "2010-12-28T00:00:00", "capacity": 22000.0, "lat": -16.30455973, "lon": -55.06001624}, {"name": "Garganta da Jararaca", "state": "MT", "type": "PCH", "phase": "Opera\u00e7\u00e3o", "ceg": "PCHPHMT028918301", "start": "2006-11-28T00:00:00", "capacity": 29300.0, "lat": -13.39055447, "lon": -57.6226972}, {"name": "Itagua\u00e7u", "state": "PR", "type": "PCH", "phase": "Opera\u00e7\u00e3o", "ceg": "PCHPHPR028921301", "start": "2013-08-21T00:00:00", "capacity": 14000.0, "lat": -24.6946469, "lon": -51.51929144}, {"name": "Salto Donner I", "state": "SC", "type": "PCH", "phase": "Opera\u00e7\u00e3o", "ceg": "PCHPHSC028931001", "start": "2007-05-10T00:00:00", "capacity": 1907.0, "lat": -26.75744457, "lon": -49.45420858}, {"name": "Caix\u00e3o", "state": "MG", "type": "PCH", "phase": "Opera\u00e7\u00e3o", "ceg": "PCHPHMG028966301", "start": "1936-05-01T00:00:00", "capacity": 1172.0, "lat": -20.06113597, "lon": -44.60718386}, {"name": "Marco Baldo", "state": "RS", "type": "PCH", "phase": "Opera\u00e7\u00e3o", "ceg": "PCHPHRS028967101", "start": "2011-05-20T00:00:00", "capacity": 16750.0, "lat": -27.57544787, "lon": -53.78912279}, {"name": "Ouro", "state": "RS", "type": "PCH", "phase": "Opera\u00e7\u00e3o", "ceg": "PCHPHRS028968001", "start": "2009-07-08T00:00:00", "capacity": 16000.0, "lat": -27.63746984, "lon": -51.48984637}, {"name": "Toca do Tigre", "state": "RS", "type": "PCH", "phase": "Opera\u00e7\u00e3o", "ceg": "PCHPHRS028969801", "start": "2013-02-23T00:00:00", "capacity": 11840.3, "lat": -27.54462521, "lon": -53.80689198}, {"name": "Santana I", "state": "MT", "type": "PCH", "phase": "Opera\u00e7\u00e3o", "ceg": "PCHPHMT028971001", "start": "2012-04-26T00:00:00", "capacity": 14758.0, "lat": -14.39177653, "lon": -56.82852653}, {"name": "Dalapria", "state": "SC", "type": "PCH", "phase": "Opera\u00e7\u00e3o", "ceg": "PCHPHSC028985001", "start": "1985-02-01T00:00:00", "capacity": 1440.0, "lat": -26.79402778, "lon": -52.13566667}, {"name": "S\u00e3o Pedro", "state": "ES", "type": "PCH", "phase": "Opera\u00e7\u00e3o", "ceg": "PCHPHES028986801", "start": "2009-06-16T00:00:00", "capacity": 30000.0, "lat": -20.32814736, "lon": -40.63685032}, {"name": "Inhapim", "state": "MG", "type": "PCH", "phase": "Opera\u00e7\u00e3o", "ceg": "PCHPHMG028987601", "start": "2014-12-16T00:00:00", "capacity": 6000.0, "lat": -19.53593671, "lon": -42.12563117}, {"name": "Pezzi", "state": "RS", "type": "PCH", "phase": "Opera\u00e7\u00e3o", "ceg": "PCHPHRS028988401", "start": "2012-10-31T00:00:00", "capacity": 19000.0, "lat": -28.792511, "lon": -50.56539253}, {"name": "Porto das Pedras", "state": "MS", "type": "PCH", "phase": "Opera\u00e7\u00e3o", "ceg": "PCHPHMS028995701", "start": "2008-10-14T00:00:00", "capacity": 28030.0, "lat": -19.47398598, "lon": -52.54145075}, {"name": "Santa Gabriela", "state": "MT", "type": "PCH", "phase": "Opera\u00e7\u00e3o", "ceg": "PCHPHMT028996501", "start": "2009-09-18T00:00:00", "capacity": 24000.0, "lat": -17.53774875, "lon": -54.43256581}, {"name": "Colino 2", "state": "BA", "type": "PCH", "phase": "Opera\u00e7\u00e3o", "ceg": "PCHPHBA028997301", "start": "2008-07-17T00:00:00", "capacity": 16000.0, "lat": -17.07239897, "lon": -40.10602245}, {"name": "Foz do Estrela", "state": "PR", "type": "PCH", "phase": "Opera\u00e7\u00e3o", "ceg": "PCHPHPR028998101", "start": "2022-05-12T00:00:00", "capacity": 29500.0, "lat": -26.09317222, "lon": -51.87782778}, {"name": "Cachoeira da Lixa", "state": "BA", "type": "PCH", "phase": "Opera\u00e7\u00e3o", "ceg": "PCHPHBA028999001", "start": "2008-05-24T00:00:00", "capacity": 14800.0, "lat": -17.07479781, "lon": -40.06934674}, {"name": "Palanquinho", "state": "RS", "type": "PCH", "phase": "Opera\u00e7\u00e3o", "ceg": "PCHPHRS029001701", "start": "2010-07-13T00:00:00", "capacity": 24165.0, "lat": -28.89601362, "lon": -50.81195024}, {"name": "Cri\u00fava", "state": "RS", "type": "PCH", "phase": "Opera\u00e7\u00e3o", "ceg": "PCHPHRS029002501", "start": "2010-05-12T00:00:00", "capacity": 23949.0, "lat": -28.96438521, "lon": -50.79897485}, {"name": "Colino 1", "state": "BA", "type": "PCH", "phase": "Opera\u00e7\u00e3o", "ceg": "PCHPHBA029004101", "start": "2008-09-23T00:00:00", "capacity": 11000.0, "lat": -17.07542102, "lon": -40.08555722}, {"name": "Ponte Alta", "state": "MS", "type": "PCH", "phase": "Opera\u00e7\u00e3o", "ceg": "PCHPHMS029013001", "start": "2007-06-05T00:00:00", "capacity": 13000.0, "lat": -19.41027778, "lon": -54.49305556}, {"name": "\u00c1gua Prata", "state": "MT", "type": "PCH", "phase": "Opera\u00e7\u00e3o", "ceg": "PCHPHMT029044001", "start": "2017-08-05T00:00:00", "capacity": 13300.0, "lat": -16.09009727, "lon": -55.07349724}, {"name": "\u00c1gua Brava", "state": "MT", "type": "PCH", "phase": "Opera\u00e7\u00e3o", "ceg": "PCHPHMT029045901", "start": "2019-04-27T00:00:00", "capacity": 13050.0, "lat": -16.09635278, "lon": -55.04336944}, {"name": "Divisa", "state": "MT", "type": "PCH", "phase": "Opera\u00e7\u00e3o", "ceg": "PCHPHMT029048301", "start": "2011-11-09T00:00:00", "capacity": 10800.0, "lat": -13.37388889, "lon": -59.14194444}, {"name": "Ibirama", "state": "SC", "type": "PCH", "phase": "Opera\u00e7\u00e3o", "ceg": "PCHPHSC029049101", "start": "2010-12-21T00:00:00", "capacity": 21000.0, "lat": -27.03722222, "lon": -49.57083333}, {"name": "Lagoa Grande", "state": "TO", "type": "PCH", "phase": "Opera\u00e7\u00e3o", "ceg": "PCHPHTO029057201", "start": "2008-09-25T00:00:00", "capacity": 25600.0, "lat": -12.15250833, "lon": -46.81766111}, {"name": "Riacho Preto", "state": "TO", "type": "PCH", "phase": "Opera\u00e7\u00e3o", "ceg": "PCHPHTO029058001", "start": "2008-09-04T00:00:00", "capacity": 9300.0, "lat": -11.95046111, "lon": -46.7555425}, {"name": "Porto Franco", "state": "TO", "type": "PCH", "phase": "Opera\u00e7\u00e3o", "ceg": "PCHPHTO029059901", "start": "2009-11-14T00:00:00", "capacity": 30000.0, "lat": -11.81416667, "lon": -46.78305556}, {"name": "Boa Sorte", "state": "TO", "type": "PCH", "phase": "Opera\u00e7\u00e3o", "ceg": "PCHPHTO029060201", "start": "2008-11-12T00:00:00", "capacity": 16000.0, "lat": -11.89098902, "lon": -46.77004967}, {"name": "Boa F\u00e9", "state": "RS", "type": "PCH", "phase": "Opera\u00e7\u00e3o", "ceg": "PCHPHRS029063701", "start": "2011-10-20T00:00:00", "capacity": 24000.0, "lat": -28.75277778, "lon": -51.84388889}, {"name": "Nova Aurora", "state": "GO", "type": "PCH", "phase": "Opera\u00e7\u00e3o", "ceg": "PCHPHGO029066101", "start": "2011-01-19T00:00:00", "capacity": 21000.0, "lat": -18.06188595, "lon": -48.20986719}, {"name": "S\u00e3o Paulo", "state": "RS", "type": "PCH", "phase": "Opera\u00e7\u00e3o", "ceg": "PCHPHRS029067001", "start": "2012-04-28T00:00:00", "capacity": 16000.0, "lat": -28.77472222, "lon": -51.84305556}, {"name": "Conflu\u00eancia", "state": "PR", "type": "PCH", "phase": "Opera\u00e7\u00e3o", "ceg": "PCHPHPR029068801", "start": "2023-06-20T00:00:00", "capacity": 27435.0, "lat": -24.91888889, "lon": -51.40863889}, {"name": "Aut\u00f3dromo", "state": "RS", "type": "PCH", "phase": "Opera\u00e7\u00e3o", "ceg": "PCHPHRS029071801", "start": "2011-11-18T00:00:00", "capacity": 24000.0, "lat": -28.82823578, "lon": -51.84216092}, {"name": "Victor Baptista Adami (Antiga Passos Maia)", "state": "SC", "type": "PCH", "phase": "Opera\u00e7\u00e3o", "ceg": "PCHPHSC029072601", "start": "2012-02-18T00:00:00", "capacity": 25000.0, "lat": -26.70333333, "lon": -51.91861111}, {"name": "Rio S\u00e3o Marcos", "state": "RS", "type": "PCH", "phase": "Opera\u00e7\u00e3o", "ceg": "PCHPHRS029077701", "start": "2004-12-31T00:00:00", "capacity": 2200.0, "lat": -29.03632861, "lon": -51.09440194}, {"name": "Lavrinhas", "state": "SP", "type": "PCH", "phase": "Opera\u00e7\u00e3o", "ceg": "PCHPHSP029114501", "start": "2011-09-03T00:00:00", "capacity": 30000.0, "lat": -22.56798023, "lon": -44.86335879}, {"name": "Queluz", "state": "SP", "type": "PCH", "phase": "Opera\u00e7\u00e3o", "ceg": "PCHPHSP029115301", "start": "2011-08-12T00:00:00", "capacity": 30000.0, "lat": -22.5437643, "lon": -44.79597647}, {"name": "Pontal do Prata", "state": "GO", "type": "PCH", "phase": "Opera\u00e7\u00e3o", "ceg": "PCHPHGO029118801", "start": "2012-04-14T00:00:00", "capacity": 13774.0, "lat": -18.73611111, "lon": -52.29638889}, {"name": "Santo Ant\u00f4nio do Caiap\u00f3", "state": "GO", "type": "PCH", "phase": "Opera\u00e7\u00e3o", "ceg": "PCHPHGO029119601", "start": "2012-12-22T00:00:00", "capacity": 30000.0, "lat": -16.44150845, "lon": -51.39965576}, {"name": "Roncador", "state": "SC", "type": "PCH", "phase": "Opera\u00e7\u00e3o", "ceg": "PCHPHSC029120002", "start": "2020-03-04T00:00:00", "capacity": 6000.0, "lat": -26.46222222, "lon": -53.31583333}, {"name": "S\u00e3o Maur\u00edcio", "state": "SC", "type": "PCH", "phase": "Opera\u00e7\u00e3o", "ceg": "PCHPHSC029137401", "start": "2010-04-29T00:00:00", "capacity": 2500.0, "lat": -28.15277778, "lon": -49.11833333}, {"name": "Rio Fortuna", "state": "SC", "type": "PCH", "phase": "Opera\u00e7\u00e3o", "ceg": "PCHPHSC029140401", "start": "2012-10-30T00:00:00", "capacity": 6990.0, "lat": -28.12432582, "lon": -49.13324852}, {"name": "Barra do Rio Chap\u00e9u", "state": "SC", "type": "PCH", "phase": "Opera\u00e7\u00e3o", "ceg": "PCHPHSC029141201", "start": "2013-02-19T00:00:00", "capacity": 15150.0, "lat": -28.08106926, "lon": -49.14872911}, {"name": "Figueir\u00f3polis", "state": "MT", "type": "PCH", "phase": "Opera\u00e7\u00e3o", "ceg": "PCHPHMT029145501", "start": "2010-09-28T00:00:00", "capacity": 19410.0, "lat": -15.39260834, "lon": -58.63775833}, {"name": "Rodeio Bonito", "state": "SC", "type": "PCH", "phase": "Opera\u00e7\u00e3o", "ceg": "PCHPHSC029159501", "start": "2009-11-27T00:00:00", "capacity": 14680.0, "lat": -27.11055556, "lon": -52.48055556}, {"name": "Coronel Ara\u00fajo", "state": "SC", "type": "PCH", "phase": "Opera\u00e7\u00e3o", "ceg": "PCHPHSC029163301", "start": "2007-11-01T00:00:00", "capacity": 5800.0, "lat": -26.67613949, "lon": -51.75311256}, {"name": "Contestado", "state": "SC", "type": "PCH", "phase": "Opera\u00e7\u00e3o", "ceg": "PCHPHSC029165001", "start": "2007-11-01T00:00:00", "capacity": 5600.0, "lat": -26.67492972, "lon": -51.71578472}, {"name": "Cant\u00fa 2", "state": "PR", "type": "PCH", "phase": "Opera\u00e7\u00e3o", "ceg": "PCHPHPR029180301", "start": "2015-12-25T00:00:00", "capacity": 19807.1, "lat": -24.74790184, "lon": -52.46849337}, {"name": "Bocai\u00fava", "state": "MT", "type": "PCH", "phase": "Opera\u00e7\u00e3o", "ceg": "PCHPHMT029184601", "start": "2010-06-24T00:00:00", "capacity": 30000.0, "lat": -12.53025289, "lon": -57.88083913}, {"name": "Tigre", "state": "PR", "type": "PCH", "phase": "Opera\u00e7\u00e3o", "ceg": "PCHPHPR029222201", "start": "2016-10-27T00:00:00", "capacity": 9000.0, "lat": -26.05319447, "lon": -52.18021682}, {"name": "Engenheiro Ernesto Jorge Dreher", "state": "RS", "type": "PCH", "phase": "Opera\u00e7\u00e3o", "ceg": "PCHPHRS029245101", "start": "2009-10-03T00:00:00", "capacity": 17870.0, "lat": -29.12221595, "lon": -53.36617744}, {"name": "Engenheiro Henrique Kotzian", "state": "RS", "type": "PCH", "phase": "Opera\u00e7\u00e3o", "ceg": "PCHPHRS029246001", "start": "2011-03-05T00:00:00", "capacity": 13000.0, "lat": -29.12850705, "lon": -53.3198459}, {"name": "Verde 4", "state": "MS", "type": "PCH", "phase": "Opera\u00e7\u00e3o", "ceg": "PCHPHMS029260501", "start": "2019-01-18T00:00:00", "capacity": 19000.0, "lat": -19.97666667, "lon": -53.27166667}, {"name": "Verde 4A", "state": "MS", "type": "PCH", "phase": "Opera\u00e7\u00e3o", "ceg": "PCHPHMS029261301", "start": "2018-02-07T00:00:00", "capacity": 28000.0, "lat": -19.87444444, "lon": -53.36861111}, {"name": "Jo\u00e3o Borges", "state": "SC", "type": "PCH", "phase": "Opera\u00e7\u00e3o", "ceg": "PCHPHSC029332601", "start": "2013-07-27T00:00:00", "capacity": 19000.0, "lat": -27.71720324, "lon": -50.65747135}, {"name": "Gra\u00e7a Brennand (Antiga Terra Santa)", "state": "MT", "type": "PCH", "phase": "Opera\u00e7\u00e3o", "ceg": "PCHPHMT029367901", "start": "2008-06-28T00:00:00", "capacity": 27400.0, "lat": -14.79298611, "lon": -57.9672}, {"name": "Cascata Chupinguaia", "state": "RO", "type": "PCH", "phase": "Opera\u00e7\u00e3o", "ceg": "PCHPHRO029373301", "start": "2009-12-11T00:00:00", "capacity": 9600.0, "lat": -12.70444444, "lon": -60.88472222}, {"name": "Pampeana", "state": "MT", "type": "PCH", "phase": "Opera\u00e7\u00e3o", "ceg": "PCHPHMT029376801", "start": "2009-05-14T00:00:00", "capacity": 28000.0, "lat": -14.83005567, "lon": -57.91158358}, {"name": "Cov\u00f3", "state": "PR", "type": "PCH", "phase": "Opera\u00e7\u00e3o", "ceg": "PCHPHPR029411001", "start": "2019-03-02T00:00:00", "capacity": 5000.0, "lat": -25.97388889, "lon": -52.15111111}, {"name": "Santa Cruz de Monte Negro", "state": "RO", "type": "PCH", "phase": "Opera\u00e7\u00e3o", "ceg": "PCHPHRO029434901", "start": "2014-06-19T00:00:00", "capacity": 17010.0, "lat": -10.23041667, "lon": -63.23375}, {"name": "Jamari", "state": "RO", "type": "PCH", "phase": "Opera\u00e7\u00e3o", "ceg": "PCHPHRO029435701", "start": "2015-01-09T00:00:00", "capacity": 20000.0, "lat": -9.93694444, "lon": -63.07638889}, {"name": "Cana\u00e3", "state": "RO", "type": "PCH", "phase": "Opera\u00e7\u00e3o", "ceg": "PCHPHRO029436501", "start": "2015-03-10T00:00:00", "capacity": 17000.0, "lat": -10.02027778, "lon": -63.06027777}, {"name": "Albano Machado", "state": "RS", "type": "PCH", "phase": "Opera\u00e7\u00e3o", "ceg": "PCHPHRS029514001", "start": "2011-02-11T00:00:00", "capacity": 3000.0, "lat": -27.50271357, "lon": -52.81149499}, {"name": "Barra Escondida", "state": "SC", "type": "PCH", "phase": "Opera\u00e7\u00e3o", "ceg": "PCHPHSC029560401", "start": "2009-01-31T00:00:00", "capacity": 2250.0, "lat": -26.89958333, "lon": -53.02958333}, {"name": "Bela Vista", "state": "PR", "type": "PCH", "phase": "Opera\u00e7\u00e3o", "ceg": "PCHPHPR029576001", "start": "2021-06-12T00:00:00", "capacity": 29810.0, "lat": -25.80694445, "lon": -52.89861114}, {"name": "Malagone", "state": "MG", "type": "PCH", "phase": "Opera\u00e7\u00e3o", "ceg": "PCHPHMG029646501", "start": "2010-04-01T00:00:00", "capacity": 19000.0, "lat": -18.6810268, "lon": -48.49965745}, {"name": "Tamboril", "state": "GO", "type": "PCH", "phase": "Opera\u00e7\u00e3o", "ceg": "PCHPHGO029648101", "start": "2015-05-12T00:00:00", "capacity": 29328.0, "lat": -16.53527778, "lon": -51.48027778}, {"name": "Santa Luzia Alto", "state": "SC", "type": "PCH", "phase": "Opera\u00e7\u00e3o", "ceg": "PCHPHSC029652001", "start": "2011-07-01T00:00:00", "capacity": 28500.0, "lat": -26.61116111, "lon": -52.53423611}, {"name": "R\u00eanic", "state": "GO", "type": "PCH", "phase": "Opera\u00e7\u00e3o", "ceg": "PCHPHGO029663501", "start": "2016-06-10T00:00:00", "capacity": 16000.0, "lat": -16.48111111, "lon": -51.41694444}, {"name": "Pedra Furada", "state": "PE", "type": "PCH", "phase": "Opera\u00e7\u00e3o", "ceg": "PCHPHPE029666001", "start": "2012-03-21T00:00:00", "capacity": 6500.0, "lat": -8.51805556, "lon": -35.48861111}, {"name": "Salto Bandeirantes", "state": "PR", "type": "PCH", "phase": "Opera\u00e7\u00e3o", "ceg": "PCHPHPR029686401", "start": "2016-11-24T00:00:00", "capacity": 4200.0, "lat": -22.986425, "lon": -51.824375}, {"name": "Pirapora", "state": "SP", "type": "PCH", "phase": "Opera\u00e7\u00e3o", "ceg": "PCHPHSP029721601", "start": "2014-12-30T00:00:00", "capacity": 25024.0, "lat": -23.39133297, "lon": -46.99499234}, {"name": "Cabe\u00e7a de Boi", "state": "MT", "type": "PCH", "phase": "Opera\u00e7\u00e3o", "ceg": "PCHPHMT029733001", "start": "2016-11-05T00:00:00", "capacity": 30000.0, "lat": -10.35491139, "lon": -56.98567139}, {"name": "Moinho", "state": "RS", "type": "PCH", "phase": "Opera\u00e7\u00e3o", "ceg": "PCHPHRS029725901", "start": "2011-09-17T00:00:00", "capacity": 13700.0, "lat": -27.77083333, "lon": -51.33333333}, {"name": "Caju", "state": "RJ", "type": "PCH", "phase": "Opera\u00e7\u00e3o", "ceg": "PCHPHRJ029726701", "start": "2011-03-17T00:00:00", "capacity": 10000.0, "lat": -21.89904038, "lon": -42.04872522}, {"name": "S\u00e3o Sebasti\u00e3o do Alto", "state": "RJ", "type": "PCH", "phase": "Opera\u00e7\u00e3o", "ceg": "PCHPHRJ029727501", "start": "2011-08-19T00:00:00", "capacity": 13200.0, "lat": -21.93718909, "lon": -42.09001795}, {"name": "Santo Ant\u00f4nio", "state": "RJ", "type": "PCH", "phase": "Opera\u00e7\u00e3o", "ceg": "PCHPHRJ029728301", "start": "2012-02-04T00:00:00", "capacity": 8000.0, "lat": -22.13944931, "lon": -42.35205657}, {"name": "Da Fazenda", "state": "MT", "type": "PCH", "phase": "Opera\u00e7\u00e3o", "ceg": "PCHPHMT029734801", "start": "2016-09-22T00:00:00", "capacity": 27000.0, "lat": -10.33084724, "lon": -56.981663}, {"name": "Figueira", "state": "RO", "type": "PCH", "phase": "Opera\u00e7\u00e3o", "ceg": "PCHPHRO029758501", "start": "2017-07-26T00:00:00", "capacity": 1400.0, "lat": -11.99555556, "lon": -62.17138889}, {"name": "Santa Ana", "state": "SC", "type": "PCH", "phase": "Opera\u00e7\u00e3o", "ceg": "PCHPHSC029778001", "start": "2010-04-27T00:00:00", "capacity": 6304.0, "lat": -27.49833333, "lon": -49.03527778}, {"name": "Bra\u00e7o", "state": "RJ", "type": "PCH", "phase": "Opera\u00e7\u00e3o", "ceg": "PCHPHRJ030001201", "start": "2011-02-01T00:00:00", "capacity": 11155.0, "lat": -22.79096111, "lon": -44.23925}, {"name": "Esperan\u00e7a", "state": "MT", "type": "PCH", "phase": "Opera\u00e7\u00e3o", "ceg": "PCHPHMT030042001", "start": "2012-09-27T00:00:00", "capacity": 2400.0, "lat": -13.77909167, "lon": -59.77213056}, {"name": "Rio dos \u00cdndios", "state": "RS", "type": "PCH", "phase": "Opera\u00e7\u00e3o", "ceg": "PCHPHRS030057801", "start": "2013-05-04T00:00:00", "capacity": 8000.0, "lat": -27.28122028, "lon": -52.79472556}, {"name": "Tamba\u00fa", "state": "RS", "type": "PCH", "phase": "Opera\u00e7\u00e3o", "ceg": "PCHPHRS030064001", "start": "2013-03-28T00:00:00", "capacity": 8806.0, "lat": -27.44122222, "lon": -53.56116667}, {"name": "Indai\u00e1 Grande", "state": "MS", "type": "PCH", "phase": "Opera\u00e7\u00e3o", "ceg": "PCHPHMS030078001", "start": "2012-04-26T00:00:00", "capacity": 20000.0, "lat": -19.28277777, "lon": -52.39777778}, {"name": "Indaiazinho  (Antiga Indaiazinho Grande)", "state": "MS", "type": "PCH", "phase": "Opera\u00e7\u00e3o", "ceg": "PCHPHMS030079901", "start": "2012-05-31T00:00:00", "capacity": 12500.0, "lat": -19.2, "lon": -52.35333333}, {"name": "Pardos", "state": "SC", "type": "PCH", "phase": "Opera\u00e7\u00e3o", "ceg": "PCHPHSC030123001", "start": "2013-03-27T00:00:00", "capacity": 10000.0, "lat": -26.44852104, "lon": -50.98864732}, {"name": "Oliveira", "state": "MG", "type": "PCH", "phase": "Opera\u00e7\u00e3o", "ceg": "PCHPHMG030148501", "start": "2010-07-31T00:00:00", "capacity": 2880.0, "lat": -20.77501748, "lon": -44.69597407}, {"name": "Passo Ferraz", "state": "SC", "type": "PCH", "phase": "Opera\u00e7\u00e3o", "ceg": "PCHPHSC030183301", "start": "2011-06-03T00:00:00", "capacity": 4000.0, "lat": -26.75888889, "lon": -52.38544167}, {"name": "Maracan\u00e3", "state": "MT", "type": "PCH", "phase": "Opera\u00e7\u00e3o", "ceg": "PCHPHMT030185001", "start": "2013-08-20T00:00:00", "capacity": 10500.0, "lat": -14.33293915, "lon": -57.61612676}, {"name": "Xavantina", "state": "SC", "type": "PCH", "phase": "Opera\u00e7\u00e3o", "ceg": "PCHPHSC030263501", "start": "2015-09-04T00:00:00", "capacity": 6075.0, "lat": -26.97944444, "lon": -52.37944444}, {"name": "Ilha da Luz", "state": "ES", "type": "PCH", "phase": "Opera\u00e7\u00e3o", "ceg": "PCHPHES030265101", "start": "2012-10-23T00:00:00", "capacity": 3800.0, "lat": -20.83416667, "lon": -41.1225}, {"name": "Queixada", "state": "GO", "type": "PCH", "phase": "Opera\u00e7\u00e3o", "ceg": "PCHPHGO030272401", "start": "2012-09-04T00:00:00", "capacity": 30000.0, "lat": -18.73095833, "lon": -51.79836667}, {"name": "Rastro de Auto", "state": "RS", "type": "PCH", "phase": "Opera\u00e7\u00e3o", "ceg": "PCHPHRS030287201", "start": "2013-06-29T00:00:00", "capacity": 7020.0, "lat": -29.05222222, "lon": -52.21861111}, {"name": "Galheiros I", "state": "GO", "type": "PCH", "phase": "Opera\u00e7\u00e3o", "ceg": "PCHPHGO030312701", "start": "2012-11-09T00:00:00", "capacity": 12060.0, "lat": -13.39527777, "lon": -46.39027778}, {"name": "Serra dos Cavalinhos II", "state": "RS", "type": "PCH", "phase": "Opera\u00e7\u00e3o", "ceg": "PCHPHRS030337201", "start": "2013-02-23T00:00:00", "capacity": 29025.0, "lat": -28.79184163, "lon": -50.74647603}, {"name": "Salto G\u00f3es", "state": "SC", "type": "PCH", "phase": "Opera\u00e7\u00e3o", "ceg": "PCHPHSC030338001", "start": "2012-12-28T00:00:00", "capacity": 20000.0, "lat": -27.10361111, "lon": -51.28222222}, {"name": "Salto Donner II", "state": "SC", "type": "PCH", "phase": "Opera\u00e7\u00e3o", "ceg": "PCHPHSC030353401", "start": "2012-07-31T00:00:00", "capacity": 2890.0, "lat": -26.75696434, "lon": -49.45360164}, {"name": "S\u00e3o Jorge", "state": "SC", "type": "PCH", "phase": "Opera\u00e7\u00e3o", "ceg": "PCHPHSC030379801", "start": "2014-08-23T00:00:00", "capacity": 8700.0, "lat": -26.71083333, "lon": -53.39166667}, {"name": "Rondinha", "state": "SC", "type": "PCH", "phase": "Opera\u00e7\u00e3o", "ceg": "PCHPHSC030382801", "start": "2014-06-04T00:00:00", "capacity": 9600.0, "lat": -26.68247521, "lon": -52.04556137}, {"name": "Rio do Sapo", "state": "MT", "type": "PCH", "phase": "Opera\u00e7\u00e3o", "ceg": "PCHPHMT030408501", "start": "2016-02-27T00:00:00", "capacity": 5760.0, "lat": -14.6112787, "lon": -57.74497479}, {"name": "Cavernoso II", "state": "PR", "type": "PCH", "phase": "Opera\u00e7\u00e3o", "ceg": "PCHPHPR030458101", "start": "2013-05-15T00:00:00", "capacity": 19008.0, "lat": -25.48805556, "lon": -52.21555556}, {"name": "RS-155", "state": "RS", "type": "PCH", "phase": "Opera\u00e7\u00e3o", "ceg": "PCHPHRS030525101", "start": "2012-08-21T00:00:00", "capacity": 5982.0, "lat": -28.31211971, "lon": -53.89604074}, {"name": "S\u00e3o Sebasti\u00e3o", "state": "SC", "type": "PCH", "phase": "Opera\u00e7\u00e3o", "ceg": "PCHPHSC030526001", "start": "2012-12-22T00:00:00", "capacity": 9900.0, "lat": -27.39955284, "lon": -49.03250893}, {"name": "Luiz Dias Lins (Antiga Manopla)", "state": "PE", "type": "PCH", "phase": "Opera\u00e7\u00e3o", "ceg": "PCHPHPE030572301", "start": "2016-07-08T00:00:00", "capacity": 5751.0, "lat": -8.65333333, "lon": -35.21833333}, {"name": "Cachoeira Cachimbo Alto", "state": "RO", "type": "PCH", "phase": "Opera\u00e7\u00e3o", "ceg": "PCHPHRO030573101", "start": "2017-09-01T00:00:00", "capacity": 9801.0, "lat": -11.92638056, "lon": -62.14624722}, {"name": "Das Pedras", "state": "SC", "type": "PCH", "phase": "Opera\u00e7\u00e3o", "ceg": "PCHPHSC030575801", "start": "2017-12-23T00:00:00", "capacity": 5600.0, "lat": -26.67861111, "lon": -51.78055556}, {"name": "Z\u00e9 Tunin", "state": "MG", "type": "PCH", "phase": "Opera\u00e7\u00e3o", "ceg": "PCHPHMG030597901", "start": "2012-12-27T00:00:00", "capacity": 8000.0, "lat": -21.315, "lon": -42.945}, {"name": "Po\u00e7o Fundo", "state": "RJ", "type": "PCH", "phase": "Opera\u00e7\u00e3o", "ceg": "PCHPHRJ030600201", "start": "2020-10-02T00:00:00", "capacity": 14000.0, "lat": -22.18986383, "lon": -42.89174642}, {"name": "Inx\u00fa", "state": "MT", "type": "PCH", "phase": "Opera\u00e7\u00e3o", "ceg": "PCHPHMT030642801", "start": "2016-06-30T00:00:00", "capacity": 21800.0, "lat": -13.35553086, "lon": -57.61386682}, {"name": "Santa Carolina", "state": "RS", "type": "PCH", "phase": "Opera\u00e7\u00e3o", "ceg": "PCHPHRS030723801", "start": "2016-03-11T00:00:00", "capacity": 10500.0, "lat": -28.61465278, "lon": -51.40290556}, {"name": "Moinho", "state": "PR", "type": "PCH", "phase": "Opera\u00e7\u00e3o", "ceg": "PCHPHPR030836601", "start": "2015-07-18T00:00:00", "capacity": 3700.0, "lat": -24.41916667, "lon": -54.02777778}, {"name": "Jardim", "state": "RS", "type": "PCH", "phase": "Opera\u00e7\u00e3o", "ceg": "PCHPHRS030887001", "start": "2018-01-26T00:00:00", "capacity": 9000.0, "lat": -28.56078889, "lon": -51.40699722}, {"name": "Morro Grande", "state": "RS", "type": "PCH", "phase": "Opera\u00e7\u00e3o", "ceg": "PCHPHRS030950801", "start": "2020-10-15T00:00:00", "capacity": 9800.0, "lat": -28.5591, "lon": -51.3109}, {"name": "Santa Helena", "state": "MG", "type": "PCH", "phase": "Opera\u00e7\u00e3o", "ceg": "PCHPHMG030961301", "start": "2014-07-18T00:00:00", "capacity": 5335.0, "lat": -17.75593065, "lon": -44.4733197}, {"name": "Verde 8", "state": "GO", "type": "PCH", "phase": "Opera\u00e7\u00e3o", "ceg": "PCHPHGO030973701", "start": "2018-05-31T00:00:00", "capacity": 30000.0, "lat": -17.65393059, "lon": -50.4769139}, {"name": "Rinc\u00e3o S\u00e3o Miguel", "state": "RS", "type": "PCH", "phase": "Opera\u00e7\u00e3o", "ceg": "PCHPHRS031029801", "start": "2024-03-23T00:00:00", "capacity": 9750.0, "lat": -29.4489, "lon": -54.09225}, {"name": "Cachoeira Cinco Veados", "state": "RS", "type": "PCH", "phase": "Opera\u00e7\u00e3o", "ceg": "PCHPHRS031030101", "start": "2022-09-30T00:00:00", "capacity": 16227.0, "lat": -29.41888889, "lon": -54.04916667}, {"name": "Quebra Dentes", "state": "RS", "type": "PCH", "phase": "Opera\u00e7\u00e3o", "ceg": "PCHPHRS031035201", "start": "2020-08-25T00:00:00", "capacity": 22360.0, "lat": -29.364085, "lon": -54.01353778}, {"name": "Nova Mutum", "state": "MT", "type": "PCH", "phase": "Opera\u00e7\u00e3o", "ceg": "PCHPHMT031042501", "start": "2014-11-26T00:00:00", "capacity": 14000.0, "lat": -13.60361111, "lon": -56.20027778}, {"name": "Salto do Guassupi", "state": "RS", "type": "PCH", "phase": "Opera\u00e7\u00e3o", "ceg": "PCHPHRS031049201", "start": "2020-12-31T00:00:00", "capacity": 12199.0, "lat": -29.41166666, "lon": -54.00000002}, {"name": "Cesar Filho", "state": "RO", "type": "PCH", "phase": "Opera\u00e7\u00e3o", "ceg": "PCHPHRO031050601", "start": "2014-03-22T00:00:00", "capacity": 7000.0, "lat": -12.271225, "lon": -61.1875}, {"name": "Gar\u00e7a Branca", "state": "SC", "type": "PCH", "phase": "Opera\u00e7\u00e3o", "ceg": "PCHPHSC031059001", "start": "2018-07-17T00:00:00", "capacity": 6500.0, "lat": -26.5777777, "lon": -53.43361112}, {"name": "Ponte Branca", "state": "SP", "type": "PCH", "phase": "Opera\u00e7\u00e3o", "ceg": "PCHPHSP031107301", "start": "2022-03-24T00:00:00", "capacity": 10500.0, "lat": -22.87413056, "lon": -49.21534167}, {"name": "Serra das Agulhas", "state": "MG", "type": "PCH", "phase": "Opera\u00e7\u00e3o", "ceg": "PCHPHMG031207001", "start": "2017-04-21T00:00:00", "capacity": 30000.0, "lat": -18.36289722, "lon": -43.95995556}, {"name": "Rudolf", "state": "SC", "type": "PCH", "phase": "Opera\u00e7\u00e3o", "ceg": "PCHPHSC031208801", "start": "2017-08-19T00:00:00", "capacity": 9260.0, "lat": -27.01417401, "lon": -50.16142278}, {"name": "Doido", "state": "TO", "type": "PCH", "phase": "Opera\u00e7\u00e3o", "ceg": "PCHPHTO031244401", "start": "2015-10-10T00:00:00", "capacity": 6000.0, "lat": -11.7100524, "lon": -46.7503284}, {"name": "Serra dos Cavalinhos I", "state": "RS", "type": "PCH", "phase": "Opera\u00e7\u00e3o", "ceg": "PCHPHRS031324601", "start": "2017-01-04T00:00:00", "capacity": 25000.0, "lat": -28.79569538, "lon": -50.72966788}, {"name": "Yp\u00ea", "state": "GO", "type": "PCH", "phase": "Opera\u00e7\u00e3o", "ceg": "PCHPHGO031327001", "start": "2017-12-30T00:00:00", "capacity": 30000.0, "lat": -17.72775378, "lon": -50.45193136}, {"name": "Lajeado", "state": "MS", "type": "PCH", "phase": "Opera\u00e7\u00e3o", "ceg": "PCHPHMS031438201", "start": "2016-07-12T00:00:00", "capacity": 8838.0, "lat": -19.05763754, "lon": -52.53207407}, {"name": "Fazenda Velha", "state": "GO", "type": "PCH", "phase": "Opera\u00e7\u00e3o", "ceg": "PCHPHGO031575301", "start": "2016-05-11T00:00:00", "capacity": 16500.0, "lat": -17.97109409, "lon": -51.76238376}, {"name": "Ado Popinhaki", "state": "SC", "type": "PCH", "phase": "Opera\u00e7\u00e3o", "ceg": "PCHPHSC031598201", "start": "2017-12-22T00:00:00", "capacity": 22600.0, "lat": -27.45999999, "lon": -50.51972218}, {"name": "Verde 02 Baixo", "state": "GO", "type": "PCH", "phase": "Opera\u00e7\u00e3o", "ceg": "PCHPHGO031768301", "start": "2024-11-26T00:00:00", "capacity": 21595.0, "lat": -17.267125, "lon": -50.86255833}, {"name": "Rinc\u00e3o", "state": "RS", "type": "PCH", "phase": "Opera\u00e7\u00e3o", "ceg": "PCHPHRS031956201", "start": "2020-09-10T00:00:00", "capacity": 10000.0, "lat": -28.421075, "lon": -54.29803889}, {"name": "Barra do Le\u00e3o", "state": "SC", "type": "PCH", "phase": "Opera\u00e7\u00e3o", "ceg": "PCHPHSC032162101", "start": "2018-05-16T00:00:00", "capacity": 3570.0, "lat": -27.2995765, "lon": -51.55272347}, {"name": "Bandeirante", "state": "MS", "type": "PCH", "phase": "Opera\u00e7\u00e3o", "ceg": "PCHPHMS032163001", "start": "2019-10-12T00:00:00", "capacity": 28000.0, "lat": -19.52980278, "lon": -52.51814444}, {"name": "Canhad\u00e3o", "state": "PR", "type": "PCH", "phase": "Opera\u00e7\u00e3o", "ceg": "PCHPHPR032511201", "start": "2017-12-22T00:00:00", "capacity": 10000.0, "lat": -25.98105857, "lon": -52.2169721}, {"name": "Castro", "state": "PR", "type": "PCH", "phase": "Opera\u00e7\u00e3o", "ceg": "PCHPHPR032513901", "start": "2017-10-21T00:00:00", "capacity": 4000.0, "lat": -24.73739722, "lon": -50.11882222}, {"name": "Cora\u00e7\u00e3o", "state": "SC", "type": "PCH", "phase": "Opera\u00e7\u00e3o", "ceg": "PCHPHSC032516301", "start": "2019-06-05T00:00:00", "capacity": 4600.0, "lat": -26.85333333, "lon": -52.90027778}, {"name": "Piarucum", "state": "TO", "type": "PCH", "phase": "Opera\u00e7\u00e3o", "ceg": "PCHPHTO032551101", "start": "2020-10-30T00:00:00", "capacity": 10000.0, "lat": -11.98087778, "lon": -46.64203056}, {"name": "Jaspe", "state": "SC", "type": "PCH", "phase": "Opera\u00e7\u00e3o", "ceg": "PCHPHSC032571601", "start": "2024-10-10T00:00:00", "capacity": 5100.0, "lat": -26.68361944, "lon": -53.27920833}, {"name": "Linha Rica", "state": "SC", "type": "PCH", "phase": "Opera\u00e7\u00e3o", "ceg": "PCHPHSC032879001", "start": "2021-12-09T00:00:00", "capacity": 9965.0, "lat": -27.12, "lon": -51.40666667}, {"name": "Secret\u00e1rio", "state": "RJ", "type": "PCH", "phase": "Opera\u00e7\u00e3o", "ceg": "PCHPHRJ032922302", "start": "2018-08-02T00:00:00", "capacity": 2680.0, "lat": -22.29887915, "lon": -43.17713056}, {"name": "Ponte Serrada", "state": "SC", "type": "PCH", "phase": "Opera\u00e7\u00e3o", "ceg": "PCHPHSC033228301", "start": "2020-10-01T00:00:00", "capacity": 4320.0, "lat": -26.77222222, "lon": -52.03388889}, {"name": "Lajari", "state": "MT", "type": "PCH", "phase": "Opera\u00e7\u00e3o", "ceg": "PCHPHMT033386701", "start": "2019-05-10T00:00:00", "capacity": 20880.0, "lat": -17.93138889, "lon": -53.38138889}, {"name": "Boa Vista II", "state": "MG", "type": "PCH", "phase": "Opera\u00e7\u00e3o", "ceg": "PCHPHMG033465001", "start": "2018-10-24T00:00:00", "capacity": 29900.0, "lat": -21.60858952, "lon": -45.46114825}, {"name": "Alto Benedito II", "state": "SC", "type": "PCH", "phase": "Opera\u00e7\u00e3o", "ceg": "PCHPHSC033599101", "start": "2018-06-05T00:00:00", "capacity": 5600.0, "lat": -26.78379152, "lon": -49.41685381}, {"name": "\u00c2mbar", "state": "SC", "type": "PCH", "phase": "Opera\u00e7\u00e3o", "ceg": "PCHPHSC033613001", "start": "2021-12-30T00:00:00", "capacity": 5100.0, "lat": -26.72277778, "lon": -53.34333333}, {"name": "S\u00e3o Carlos", "state": "SC", "type": "PCH", "phase": "Opera\u00e7\u00e3o", "ceg": "PCHPHSC033762501", "start": "2023-03-15T00:00:00", "capacity": 15199.0, "lat": -27.3029139, "lon": -51.57290835}, {"name": "Areado", "state": "MS", "type": "PCH", "phase": "Opera\u00e7\u00e3o", "ceg": "PCHPHMS033893101", "start": "2019-10-12T00:00:00", "capacity": 18000.0, "lat": -19.54527778, "lon": -52.50527778}, {"name": "Candengo", "state": "BA", "type": "PCH", "phase": "Opera\u00e7\u00e3o", "ceg": "PCHPHBA033901601", "start": "2017-03-10T00:00:00", "capacity": 10980.0, "lat": -13.34623665, "lon": -39.10319242}, {"name": "Mantovilis", "state": "MT", "type": "PCH", "phase": "Opera\u00e7\u00e3o", "ceg": "PCHPHMT033916401", "start": "2022-10-14T00:00:00", "capacity": 5200.0, "lat": -16.45171944, "lon": -55.31655556}, {"name": "Dois Saltos", "state": "PR", "type": "PCH", "phase": "Opera\u00e7\u00e3o", "ceg": "PCHPHPR033975001", "start": "2022-03-18T00:00:00", "capacity": 30000.0, "lat": -25.17666667, "lon": -50.94027778}, {"name": "Forquilha IV", "state": "RS", "type": "PCH", "phase": "Opera\u00e7\u00e3o", "ceg": "PCHPHRS034057001", "start": "2021-01-29T00:00:00", "capacity": 13000.0, "lat": -27.61436111, "lon": -51.74988889}, {"name": "Jacar\u00e9", "state": "PR", "type": "PCH", "phase": "Opera\u00e7\u00e3o", "ceg": "PCHPHPR034094401", "start": "2018-06-16T00:00:00", "capacity": 5600.0, "lat": -26.03923333, "lon": -52.93275833}, {"name": "Cavernoso IV", "state": "PR", "type": "PCH", "phase": "Opera\u00e7\u00e3o", "ceg": "PCHPHPR034241601", "start": "2022-12-17T00:00:00", "capacity": 6000.0, "lat": -25.42508314, "lon": -52.08694451}, {"name": "Pulo", "state": "PR", "type": "PCH", "phase": "Opera\u00e7\u00e3o", "ceg": "PCHPHPR034438901", "start": "2019-05-22T00:00:00", "capacity": 8400.0, "lat": -24.72185, "lon": -50.13437778}, {"name": "Manuel Alves", "state": "TO", "type": "PCH", "phase": "Opera\u00e7\u00e3o", "ceg": "PCHPHTO034495801", "start": "2021-11-13T00:00:00", "capacity": 8000.0, "lat": -11.54209722, "lon": -46.98921111}, {"name": "Foz do Cedro (Antiga A1E8)", "state": "MT", "type": "PCH", "phase": "Opera\u00e7\u00e3o", "ceg": "PCHPHMT034560101", "start": "2022-11-30T00:00:00", "capacity": 24000.0, "lat": -12.75140278, "lon": -56.03242234}, {"name": "Nova Guapor\u00e9", "state": "MT", "type": "PCH", "phase": "Opera\u00e7\u00e3o", "ceg": "PCHPHMT034705101", "start": "2022-09-03T00:00:00", "capacity": 14000.0, "lat": -15.20591109, "lon": -59.01251098}, {"name": "Barrinha", "state": "SC", "type": "PCH", "phase": "Opera\u00e7\u00e3o", "ceg": "PCHPHSC034743401", "start": "2019-07-27T00:00:00", "capacity": 3300.0, "lat": -26.69288889, "lon": -52.90080556}, {"name": "Recanto", "state": "MT", "type": "PCH", "phase": "Opera\u00e7\u00e3o", "ceg": "PCHPHMT034865101", "start": "2019-12-21T00:00:00", "capacity": 9110.0, "lat": -14.42050002, "lon": -57.81874908}, {"name": "Ju\u00ed 117", "state": "MT", "type": "PCH", "phase": "Opera\u00e7\u00e3o", "ceg": "PCHPHMT034966601", "start": "2019-12-17T00:00:00", "capacity": 25000.0, "lat": -13.385625, "lon": -59.39235833}, {"name": "Macacos", "state": "PR", "type": "PCH", "phase": "Opera\u00e7\u00e3o", "ceg": "PCHPHPR035006001", "start": "2021-02-13T00:00:00", "capacity": 9900.0, "lat": -24.07222218, "lon": -49.62416669}, {"name": "Armando Ribeiro", "state": "RN", "type": "PCH", "phase": "Opera\u00e7\u00e3o", "ceg": "PCHPHRN035096601", "start": "2021-01-01T00:00:00", "capacity": 4700.0, "lat": -5.66907496, "lon": -36.88048055}, {"name": "S\u00e3o Bartolomeu", "state": "GO", "type": "PCH", "phase": "Opera\u00e7\u00e3o", "ceg": "PCHPHGO035111301", "start": "2023-11-09T00:00:00", "capacity": 12000.0, "lat": -16.48126951, "lon": -47.77584156}, {"name": "Gameleira", "state": "GO", "type": "PCH", "phase": "Opera\u00e7\u00e3o", "ceg": "PCHPHGO035112101", "start": "2023-08-11T00:00:00", "capacity": 14000.0, "lat": -16.6457274, "lon": -47.83224487}, {"name": "Tamboril", "state": "GO", "type": "PCH", "phase": "Opera\u00e7\u00e3o", "ceg": "PCHPHGO035113001", "start": "2020-09-12T00:00:00", "capacity": 15800.0, "lat": -16.78505556, "lon": -47.88510833}, {"name": "Lambari", "state": "SC", "type": "PCH", "phase": "Opera\u00e7\u00e3o", "ceg": "PCHPHSC035120201", "start": "2020-03-03T00:00:00", "capacity": 4500.0, "lat": -26.75725917, "lon": -52.90779444}, {"name": "Barra das \u00c1guas", "state": "SC", "type": "PCH", "phase": "Opera\u00e7\u00e3o", "ceg": "PCHPHSC035155501", "start": "2020-05-29T00:00:00", "capacity": 8500.0, "lat": -26.95456667, "lon": -52.30098889}, {"name": "S\u00e3o Luiz", "state": "ES", "type": "PCH", "phase": "Opera\u00e7\u00e3o", "ceg": "PCHPHES035297701", "start": "2021-08-06T00:00:00", "capacity": 10500.0, "lat": -19.96527778, "lon": -41.07611111}, {"name": "Zeca Golin (Antiga Fazenda do Salto)", "state": "PR", "type": "PCH", "phase": "Opera\u00e7\u00e3o", "ceg": "PCHPHPR035340001", "start": "2021-12-24T00:00:00", "capacity": 9850.0, "lat": -24.63757778, "lon": -53.10264167}, {"name": "Tr\u00eas Cap\u00f5es Novo", "state": "PR", "type": "PCH", "phase": "Opera\u00e7\u00e3o", "ceg": "PCHPHPR035416301", "start": "2024-03-16T00:00:00", "capacity": 10000.0, "lat": -25.46353694, "lon": -51.66077917}, {"name": "Chimarr\u00e3o", "state": "RS", "type": "PCH", "phase": "Opera\u00e7\u00e3o", "ceg": "PCHPHRS035481301", "start": "2023-06-06T00:00:00", "capacity": 11825.0, "lat": -28.597975, "lon": -51.39916111}, {"name": "\u00c1guas da Serra", "state": "SC", "type": "PCH", "phase": "Opera\u00e7\u00e3o", "ceg": "PCHPHSC035496101", "start": "2023-01-04T00:00:00", "capacity": 22500.0, "lat": -26.78150833, "lon": -49.40038333}, {"name": "ITAPOCUZINHO IIA", "state": "SC", "type": "PCH", "phase": "Opera\u00e7\u00e3o", "ceg": "PCHPHSC035753701", "start": "2020-07-22T00:00:00", "capacity": 11700.0, "lat": -26.30218323, "lon": -49.152886}, {"name": "Tupitinga", "state": "SC", "type": "PCH", "phase": "Opera\u00e7\u00e3o", "ceg": "PCHPHSC035764201", "start": "2019-12-25T00:00:00", "capacity": 24000.0, "lat": -27.53230833, "lon": -51.42337778}, {"name": "Invernadinha", "state": "PR", "type": "PCH", "phase": "Opera\u00e7\u00e3o", "ceg": "PCHPHPR035800201", "start": "2022-02-26T00:00:00", "capacity": 18000.0, "lat": -26.03795, "lon": -52.17636111}, {"name": "Forquilha", "state": "PR", "type": "PCH", "phase": "Opera\u00e7\u00e3o", "ceg": "PCHPHPR035801001", "start": "2021-05-12T00:00:00", "capacity": 5500.0, "lat": -26.00543889, "lon": -52.18349722}, {"name": "Tagu\u00e1", "state": "PR", "type": "PCH", "phase": "Opera\u00e7\u00e3o", "ceg": "PCHPHPR036914401", "start": "2022-03-16T00:00:00", "capacity": 6600.0, "lat": -25.52338333, "lon": -51.78334444}, {"name": "Cobre Km 19", "state": "PR", "type": "PCH", "phase": "Opera\u00e7\u00e3o", "ceg": "PCHPHPR036938101", "start": "2024-08-28T00:00:00", "capacity": 14200.0, "lat": -25.11859181, "lon": -52.38657496}, {"name": "Sede II", "state": "RS", "type": "PCH", "phase": "Opera\u00e7\u00e3o", "ceg": "PCHPHRS037300101", "start": "2020-12-19T00:00:00", "capacity": 7900.0, "lat": -28.37049167, "lon": -53.87901972}, {"name": "Beleza", "state": "MT", "type": "PCH", "phase": "Opera\u00e7\u00e3o", "ceg": "PCHPHMT037309501", "start": "2020-08-07T00:00:00", "capacity": 6500.0, "lat": -16.1825, "lon": -55.015}, {"name": "Cavernoso III", "state": "PR", "type": "PCH", "phase": "Opera\u00e7\u00e3o", "ceg": "PCHPHPR037314101", "start": "2023-03-23T00:00:00", "capacity": 6500.0, "lat": -25.47907222, "lon": -52.19264167}, {"name": "Rio Claro (Antiga Perdidos)", "state": "MT", "type": "PCH", "phase": "Opera\u00e7\u00e3o", "ceg": "PCHPHMT037328101", "start": "2022-11-26T00:00:00", "capacity": 28000.0, "lat": -13.79642222, "lon": -56.69989444}, {"name": "Tio Hugo", "state": "RS", "type": "PCH", "phase": "Opera\u00e7\u00e3o", "ceg": "PCHPHRS037469501", "start": "2023-12-30T00:00:00", "capacity": 10100.0, "lat": -28.59027768, "lon": -52.58166652}, {"name": "Generoso", "state": "PR", "type": "PCH", "phase": "Opera\u00e7\u00e3o", "ceg": "PCHPHPR037573002", "start": "2017-02-08T00:00:00", "capacity": 8000.0, "lat": -25.61612778, "lon": -53.08185556}, {"name": "Bedim", "state": "PR", "type": "PCH", "phase": "Opera\u00e7\u00e3o", "ceg": "PCHPHPR037757001", "start": "2020-10-28T00:00:00", "capacity": 6000.0, "lat": -26.09132778, "lon": -52.95588889}, {"name": "Vila Galupo", "state": "PR", "type": "PCH", "phase": "Opera\u00e7\u00e3o", "ceg": "PCHPHPR037822401", "start": "2019-06-19T00:00:00", "capacity": 5670.0, "lat": -26.06066667, "lon": -52.92441667}]