[{"name": "Tau\u00e1", "state": "CE", "type": "UFV", "phase": "Opera\u00e7\u00e3o", "ceg": "UFVRSCE030060801", "start": "2011-07-01T00:00:00", "capacity": 5000.0, "lat": -6.00388889, "lon": -40.27472222}, {"name": "Tanquinho", "state": "SP", "type": "UFV", "phase": "Opera\u00e7\u00e3o", "ceg": "UFVRSSP030977001", "start": "1900-01-03T00:00:00", "capacity": 1082.0, "lat": -22.81583333, "lon": -47.05916667}, {"name": "Sol Moradas Salitre e Rodeadouro", "state": "BA", "type": "UFV", "phase": "Opera\u00e7\u00e3o", "ceg": "UFVRSBA031285101", "start": "2014-02-12T00:00:00", "capacity": 2103.0, "lat": -9.5445, "lon": -40.27311}, {"name": "Nova Aurora", "state": "SC", "type": "UFV", "phase": "Opera\u00e7\u00e3o", "ceg": "UFVRSSC031430701", "start": "2013-03-28T00:00:00", "capacity": 4445.83, "lat": -28.44777819, "lon": -48.97472207}, {"name": "Caldeir\u00e3o Grande III (Antiga Santa Veridiana)", "state": "PI", "type": "UFV", "phase": "Opera\u00e7\u00e3o", "ceg": "UFVRSPI031685702", "start": "2023-01-31T00:00:00", "capacity": 30933.0, "lat": -7.346326, "lon": -40.5547}, {"name": "Caldeir\u00e3o Grande VI (Antiga Santa Ver\u00f4nica)", "state": "PI", "type": "UFV", "phase": "Opera\u00e7\u00e3o", "ceg": "UFVRSPI031686502", "start": "2022-11-04T00:00:00", "capacity": 30933.0, "lat": -7.332665, "lon": -40.572205}, {"name": "Caldeir\u00e3o Grande VII (Antiga S\u00e3o Moises)", "state": "PI", "type": "UFV", "phase": "Opera\u00e7\u00e3o", "ceg": "UFVRSPI031687302", "start": "2022-11-17T00:00:00", "capacity": 34370.0, "lat": -7.346787, "lon": -40.541405}, {"name": "Caldeir\u00e3o Grande V (Antiga S\u00e3o Felix)", "state": "PI", "type": "UFV", "phase": "Opera\u00e7\u00e3o", "ceg": "UFVRSPI031688102", "start": "2022-11-17T00:00:00", "capacity": 27496.0, "lat": -7.372831, "lon": -40.549022}, {"name": "Caldeir\u00e3o Grande I (Antiga S\u00e3o Bas\u00edlio)", "state": "PI", "type": "UFV", "phase": "Opera\u00e7\u00e3o", "ceg": "UFVRSPI031689002", "start": "2022-12-22T00:00:00", "capacity": 30933.0, "lat": -7.394981, "lon": -40.5835664}, {"name": "Caldeir\u00e3o Grande II (Antiga Santo Anast\u00e1cio)", "state": "PI", "type": "UFV", "phase": "Opera\u00e7\u00e3o", "ceg": "UFVRSPI031690302", "start": "2023-01-03T00:00:00", "capacity": 30933.0, "lat": -7.403997, "lon": -40.59609}, {"name": "Caldeir\u00e3o Grande IV (Antiga Santo Amaro do Piau\u00ed)", "state": "PI", "type": "UFV", "phase": "Opera\u00e7\u00e3o", "ceg": "UFVRSPI031691102", "start": "2023-02-18T00:00:00", "capacity": 27496.0, "lat": -7.37912, "lon": -40.563702}, {"name": "Solar Alto do Rodrigues", "state": "RN", "type": "UFV", "phase": "Opera\u00e7\u00e3o", "ceg": "UFVRSRN031694601", "start": "2014-05-14T00:00:00", "capacity": 1100.0, "lat": -5.37858306, "lon": -36.8210861}, {"name": "Central Mineir\u00e3o", "state": "MG", "type": "UFV", "phase": "Opera\u00e7\u00e3o", "ceg": "UFVRSMG031760801", "start": "2014-04-25T00:00:00", "capacity": 1418.4, "lat": -19.86555556, "lon": -43.97111111}, {"name": "S\u00e3o Pedro e Paulo I", "state": "PE", "type": "UFV", "phase": "Opera\u00e7\u00e3o", "ceg": "UFVRSPE031870101", "start": "2024-05-18T00:00:00", "capacity": 27496.0, "lat": -7.87835555, "lon": -37.98277778}, {"name": "Sol do Sert\u00e3o XXXV", "state": "BA", "type": "UFV", "phase": "Opera\u00e7\u00e3o", "ceg": "UFVRSBA032049801", "start": "2021-08-21T00:00:00", "capacity": 27213.11, "lat": -12.32529722, "lon": -42.62414167}, {"name": "Sol do Sert\u00e3o XII", "state": "BA", "type": "UFV", "phase": "Opera\u00e7\u00e3o", "ceg": "UFVRSBA032050101", "start": "2021-10-16T00:00:00", "capacity": 54426.22, "lat": -12.31173611, "lon": -42.61910278}, {"name": "Sol do Sert\u00e3o XIII", "state": "BA", "type": "UFV", "phase": "Opera\u00e7\u00e3o", "ceg": "UFVRSBA032052801", "start": "2021-08-21T00:00:00", "capacity": 74836.06, "lat": -12.32500833, "lon": -42.62808333}, {"name": "Terra do Sol VII", "state": "BA", "type": "UFV", "phase": "Opera\u00e7\u00e3o", "ceg": "UFVRSBA032053601", "start": "2021-10-19T00:00:00", "capacity": 54426.22, "lat": -12.31478612, "lon": -42.61841389}, {"name": "Terra do Sol XI", "state": "BA", "type": "UFV", "phase": "Opera\u00e7\u00e3o", "ceg": "UFVRSBA032059501", "start": "2021-08-21T00:00:00", "capacity": 47622.95, "lat": -12.31738611, "lon": -42.60540833}, {"name": "Sol do Sert\u00e3o XIV", "state": "BA", "type": "UFV", "phase": "Opera\u00e7\u00e3o", "ceg": "UFVRSBA032065001", "start": "2021-10-19T00:00:00", "capacity": 20409.83, "lat": -12.32802222, "lon": -42.63796111}, {"name": "Sol do Sert\u00e3o VIII", "state": "BA", "type": "UFV", "phase": "Opera\u00e7\u00e3o", "ceg": "UFVRSBA032066801", "start": "2021-09-01T00:00:00", "capacity": 95245.89, "lat": -12.31885, "lon": -42.62378611}, {"name": "Sol do Sert\u00e3o XXXVI", "state": "BA", "type": "UFV", "phase": "Opera\u00e7\u00e3o", "ceg": "UFVRSBA032067601", "start": "2021-08-21T00:00:00", "capacity": 40819.67, "lat": -12.32483056, "lon": -42.61340833}, {"name": "Coremas I", "state": "PB", "type": "UFV", "phase": "Opera\u00e7\u00e3o", "ceg": "UFVRSPB032311001", "start": "2019-02-01T00:00:00", "capacity": 27000.0, "lat": -6.95673176, "lon": -37.9977973}, {"name": "Dracena 1", "state": "SP", "type": "UFV", "phase": "Opera\u00e7\u00e3o", "ceg": "UFVRSSP032312801", "start": "2019-08-24T00:00:00", "capacity": 27000.0, "lat": -21.46620444, "lon": -51.59167583}, {"name": "Dracena 2", "state": "SP", "type": "UFV", "phase": "Opera\u00e7\u00e3o", "ceg": "UFVRSSP032313601", "start": "2019-08-24T00:00:00", "capacity": 27000.0, "lat": -21.45992306, "lon": -51.58972027}, {"name": "Dracena 4", "state": "SP", "type": "UFV", "phase": "Opera\u00e7\u00e3o", "ceg": "UFVRSSP032315201", "start": "2019-08-24T00:00:00", "capacity": 27000.0, "lat": -21.45091584, "lon": -51.5870011}, {"name": "Ituverava 1", "state": "BA", "type": "UFV", "phase": "Opera\u00e7\u00e3o", "ceg": "UFVRSBA032316001", "start": "2017-08-05T00:00:00", "capacity": 28000.0, "lat": -12.587325, "lon": -44.10687778}, {"name": "Ituverava 2", "state": "BA", "type": "UFV", "phase": "Opera\u00e7\u00e3o", "ceg": "UFVRSBA032317901", "start": "2017-11-28T00:00:00", "capacity": 28000.0, "lat": -12.5926, "lon": -44.10463611}, {"name": "Ituverava 3", "state": "BA", "type": "UFV", "phase": "Opera\u00e7\u00e3o", "ceg": "UFVRSBA032318701", "start": "2017-11-04T00:00:00", "capacity": 28000.0, "lat": -12.59339422, "lon": -44.09953352}, {"name": "Ituverava 4", "state": "BA", "type": "UFV", "phase": "Opera\u00e7\u00e3o", "ceg": "UFVRSBA032319501", "start": "2017-12-23T00:00:00", "capacity": 28000.0, "lat": -12.59896667, "lon": -44.10378056}, {"name": "Ituverava 5", "state": "BA", "type": "UFV", "phase": "Opera\u00e7\u00e3o", "ceg": "UFVRSBA032320901", "start": "2017-12-23T00:00:00", "capacity": 28000.0, "lat": -12.60149459, "lon": -44.10414738}, {"name": "Ituverava 6", "state": "BA", "type": "UFV", "phase": "Opera\u00e7\u00e3o", "ceg": "UFVRSBA032321701", "start": "2017-12-23T00:00:00", "capacity": 28000.0, "lat": -12.60346111, "lon": -44.09329167}, {"name": "Ituverava 7", "state": "BA", "type": "UFV", "phase": "Opera\u00e7\u00e3o", "ceg": "UFVRSBA032322501", "start": "2017-12-29T00:00:00", "capacity": 28000.0, "lat": -12.60423611, "lon": -44.11575}, {"name": "FCR III Itapuranga", "state": "MG", "type": "UFV", "phase": "Opera\u00e7\u00e3o", "ceg": "UFVRSMG032323302", "start": "2019-09-18T00:00:00", "capacity": 9125.0, "lat": -15.49278056, "lon": -44.39271389}, {"name": "Guaimb\u00e9 1", "state": "SP", "type": "UFV", "phase": "Opera\u00e7\u00e3o", "ceg": "UFVRSSP032326801", "start": "2018-03-13T00:00:00", "capacity": 30000.0, "lat": -21.88569028, "lon": -49.86962555}, {"name": "Guaimb\u00e9 2", "state": "SP", "type": "UFV", "phase": "Opera\u00e7\u00e3o", "ceg": "UFVRSSP032327601", "start": "2018-02-06T00:00:00", "capacity": 30000.0, "lat": -21.88835028, "lon": -49.87285667}, {"name": "Guaimb\u00e9 3", "state": "SP", "type": "UFV", "phase": "Opera\u00e7\u00e3o", "ceg": "UFVRSSP032328401", "start": "2018-10-03T00:00:00", "capacity": 30000.0, "lat": -21.89097361, "lon": -49.87603972}, {"name": "Guaimb\u00e9 4", "state": "SP", "type": "UFV", "phase": "Opera\u00e7\u00e3o", "ceg": "UFVRSSP032329201", "start": "2018-04-26T00:00:00", "capacity": 30000.0, "lat": -21.8933875, "lon": -49.86186972}, {"name": "Guaimb\u00e9 5", "state": "SP", "type": "UFV", "phase": "Opera\u00e7\u00e3o", "ceg": "UFVRSSP032330601", "start": "2018-04-13T00:00:00", "capacity": 30000.0, "lat": -21.89805944, "lon": -49.86866639}, {"name": "Vazante 1", "state": "MG", "type": "UFV", "phase": "Opera\u00e7\u00e3o", "ceg": "UFVRSMG032339001", "start": "2017-12-16T00:00:00", "capacity": 27000.0, "lat": -17.40524846, "lon": -44.8870214}, {"name": "Vazante 2", "state": "MG", "type": "UFV", "phase": "Opera\u00e7\u00e3o", "ceg": "UFVRSMG032340301", "start": "2017-12-07T00:00:00", "capacity": 27000.0, "lat": -17.41431283, "lon": -44.9095913}, {"name": "Vazante 3", "state": "MG", "type": "UFV", "phase": "Opera\u00e7\u00e3o", "ceg": "UFVRSMG032341101", "start": "2017-12-07T00:00:00", "capacity": 27000.0, "lat": -17.40762336, "lon": -44.91539358}, {"name": "Fontes Solar I", "state": "PE", "type": "UFV", "phase": "Opera\u00e7\u00e3o", "ceg": "UFVRSPE032372101", "start": "2015-09-02T00:00:00", "capacity": 5000.0, "lat": -9.07006111, "lon": -38.14711666}, {"name": "Fontes Solar II", "state": "PE", "type": "UFV", "phase": "Opera\u00e7\u00e3o", "ceg": "UFVRSPE032373001", "start": "2015-09-08T00:00:00", "capacity": 5000.0, "lat": -9.07113611, "lon": -38.14598611}, {"name": "Coremas III", "state": "PB", "type": "UFV", "phase": "Opera\u00e7\u00e3o", "ceg": "UFVRSPB032544901", "start": "2020-11-17T00:00:00", "capacity": 27000.0, "lat": -6.9472175, "lon": -37.99384389}, {"name": "Coremas IV", "state": "PB", "type": "UFV", "phase": "Opera\u00e7\u00e3o", "ceg": "UFVRSPB032843001", "start": "2022-09-02T00:00:00", "capacity": 27000.0, "lat": -6.95712028, "lon": -37.98965195}, {"name": "Coremas VI", "state": "PB", "type": "UFV", "phase": "Opera\u00e7\u00e3o", "ceg": "UFVRSPB032865001", "start": "2022-09-09T00:00:00", "capacity": 27000.0, "lat": -6.94947362, "lon": -37.98305888}, {"name": "Coremas VII", "state": "PB", "type": "UFV", "phase": "Opera\u00e7\u00e3o", "ceg": "UFVRSPB032882001", "start": "2022-05-26T00:00:00", "capacity": 27000.0, "lat": -6.9480825, "lon": -37.99598667}, {"name": "Coremas V", "state": "PB", "type": "UFV", "phase": "Opera\u00e7\u00e3o", "ceg": "UFVRSPB032888001", "start": "2022-08-24T00:00:00", "capacity": 27000.0, "lat": -6.95228722, "lon": -37.99598027}, {"name": "Bom Jesus da Lapa I", "state": "BA", "type": "UFV", "phase": "Opera\u00e7\u00e3o", "ceg": "UFVRSBA032892801", "start": "2017-06-30T00:00:00", "capacity": 30000.0, "lat": -13.30021076, "lon": -43.32352929}, {"name": "Bom Jesus da Lapa II", "state": "BA", "type": "UFV", "phase": "Opera\u00e7\u00e3o", "ceg": "UFVRSBA032893601", "start": "2017-06-30T00:00:00", "capacity": 30000.0, "lat": -13.29780661, "lon": -43.3241291}, {"name": "Coremas II", "state": "PB", "type": "UFV", "phase": "Opera\u00e7\u00e3o", "ceg": "UFVRSPB032926601", "start": "2018-10-16T00:00:00", "capacity": 27000.0, "lat": -6.96295389, "lon": -38.00186638}, {"name": "Nova Olinda 8", "state": "PI", "type": "UFV", "phase": "Opera\u00e7\u00e3o", "ceg": "UFVRSPI033127901", "start": "2017-12-09T00:00:00", "capacity": 30000.0, "lat": -8.20960743, "lon": -42.53943004}, {"name": "Nova Olinda 9", "state": "PI", "type": "UFV", "phase": "Opera\u00e7\u00e3o", "ceg": "UFVRSPI033128701", "start": "2017-12-09T00:00:00", "capacity": 30000.0, "lat": -8.21653122, "lon": -42.53818101}, {"name": "Nova Olinda 10", "state": "PI", "type": "UFV", "phase": "Opera\u00e7\u00e3o", "ceg": "UFVRSPI033129501", "start": "2017-12-09T00:00:00", "capacity": 30000.0, "lat": -8.19412159, "lon": -42.55956272}, {"name": "Nova Olinda 11", "state": "PI", "type": "UFV", "phase": "Opera\u00e7\u00e3o", "ceg": "UFVRSPI033130901", "start": "2017-12-09T00:00:00", "capacity": 30000.0, "lat": -8.18979101, "lon": -42.56426133}, {"name": "Nova Olinda 12", "state": "PI", "type": "UFV", "phase": "Opera\u00e7\u00e3o", "ceg": "UFVRSPI033131701", "start": "2017-12-09T00:00:00", "capacity": 30000.0, "lat": -8.17995153, "lon": -42.5608908}, {"name": "Nova Olinda 13", "state": "PI", "type": "UFV", "phase": "Opera\u00e7\u00e3o", "ceg": "UFVRSPI033132501", "start": "2017-12-09T00:00:00", "capacity": 30000.0, "lat": -7.92722, "lon": -42.61272}, {"name": "Nova Olinda 14", "state": "PI", "type": "UFV", "phase": "Opera\u00e7\u00e3o", "ceg": "UFVRSPI033133301", "start": "2017-12-09T00:00:00", "capacity": 30000.0, "lat": -8.17743775, "lon": -42.56388283}, {"name": "Pirapora 2", "state": "MG", "type": "UFV", "phase": "Opera\u00e7\u00e3o", "ceg": "UFVRSMG033185601", "start": "2016-05-18T00:00:00", "capacity": 31000.0, "lat": -17.40864908, "lon": -44.87355101}, {"name": "Pirapora 3", "state": "MG", "type": "UFV", "phase": "Opera\u00e7\u00e3o", "ceg": "UFVRSMG033186401", "start": "2018-05-04T00:00:00", "capacity": 31000.0, "lat": -17.40866353, "lon": -44.88544361}, {"name": "Pirapora 4", "state": "MG", "type": "UFV", "phase": "Opera\u00e7\u00e3o", "ceg": "UFVRSMG033187201", "start": "2018-05-04T00:00:00", "capacity": 31000.0, "lat": -17.40866363, "lon": -44.88544386}, {"name": "Pirapora 5", "state": "MG", "type": "UFV", "phase": "Opera\u00e7\u00e3o", "ceg": "UFVRSMG033188001", "start": "2017-09-26T00:00:00", "capacity": 31000.0, "lat": -17.40865727, "lon": -44.88972752}, {"name": "Pirapora 6", "state": "MG", "type": "UFV", "phase": "Opera\u00e7\u00e3o", "ceg": "UFVRSMG033189901", "start": "2017-10-06T00:00:00", "capacity": 31000.0, "lat": -17.40844374, "lon": -44.89613029}, {"name": "Pirapora 7", "state": "MG", "type": "UFV", "phase": "Opera\u00e7\u00e3o", "ceg": "UFVRSMG033190201", "start": "2017-09-26T00:00:00", "capacity": 31000.0, "lat": -17.40819296, "lon": -44.90148739}, {"name": "Pirapora 9", "state": "MG", "type": "UFV", "phase": "Opera\u00e7\u00e3o", "ceg": "UFVRSMG033192901", "start": "2017-09-26T00:00:00", "capacity": 31000.0, "lat": -17.40765554, "lon": -44.91220205}, {"name": "Pirapora 10", "state": "MG", "type": "UFV", "phase": "Opera\u00e7\u00e3o", "ceg": "UFVRSMG033193701", "start": "2017-09-26T00:00:00", "capacity": 31000.0, "lat": -17.40679108, "lon": -44.91860534}, {"name": "Coromandel 2", "state": "MG", "type": "UFV", "phase": "Opera\u00e7\u00e3o", "ceg": "UFVRSMG033202001", "start": "2022-12-28T00:00:00", "capacity": 30000.0, "lat": -18.41663052, "lon": -47.05647483}, {"name": "Coromandel 1", "state": "MG", "type": "UFV", "phase": "Opera\u00e7\u00e3o", "ceg": "UFVRSMG033203801", "start": "2022-12-28T00:00:00", "capacity": 30000.0, "lat": -18.41968614, "lon": -47.06361106}, {"name": "Francisco S\u00e1 1", "state": "MG", "type": "UFV", "phase": "Opera\u00e7\u00e3o", "ceg": "UFVRSMG033236401", "start": "2022-04-07T00:00:00", "capacity": 33000.0, "lat": -16.30956393, "lon": -43.66698612}, {"name": "Francisco S\u00e1 2", "state": "MG", "type": "UFV", "phase": "Opera\u00e7\u00e3o", "ceg": "UFVRSMG033237201", "start": "2022-04-07T00:00:00", "capacity": 33000.0, "lat": -16.30225278, "lon": -43.66539444}, {"name": "Francisco S\u00e1 3", "state": "MG", "type": "UFV", "phase": "Opera\u00e7\u00e3o", "ceg": "UFVRSMG033238001", "start": "2022-04-07T00:00:00", "capacity": 33000.0, "lat": -16.29757221, "lon": -43.66339722}, {"name": "Sert\u00e3o Solar Barreiras I", "state": "BA", "type": "UFV", "phase": "Opera\u00e7\u00e3o", "ceg": "UFVRSBA033469301", "start": "2019-11-29T00:00:00", "capacity": 23660.0, "lat": -12.032015, "lon": -45.07217652}, {"name": "Sert\u00e3o Solar Barreiras II", "state": "BA", "type": "UFV", "phase": "Opera\u00e7\u00e3o", "ceg": "UFVRSBA033470701", "start": "2019-11-29T00:00:00", "capacity": 23660.0, "lat": -12.03487949, "lon": -45.07066889}, {"name": "Sert\u00e3o Solar Barreiras III", "state": "BA", "type": "UFV", "phase": "Opera\u00e7\u00e3o", "ceg": "UFVRSBA033471501", "start": "2019-11-29T00:00:00", "capacity": 23660.0, "lat": -12.03789474, "lon": -45.06931202}, {"name": "Sert\u00e3o Solar Barreiras IV", "state": "BA", "type": "UFV", "phase": "Opera\u00e7\u00e3o", "ceg": "UFVRSBA033473101", "start": "2019-11-29T00:00:00", "capacity": 23660.0, "lat": -12.04920194, "lon": -45.0702166}, {"name": "Floresta III", "state": "RN", "type": "UFV", "phase": "Opera\u00e7\u00e3o", "ceg": "UFVRSRN033569001", "start": "2017-12-23T00:00:00", "capacity": 22000.0, "lat": -4.97587183, "lon": -36.90518017}, {"name": "Verde Vale III", "state": "BA", "type": "UFV", "phase": "Opera\u00e7\u00e3o", "ceg": "UFVRSBA033588601", "start": "2018-08-22T00:00:00", "capacity": 14300.0, "lat": -14.14925154, "lon": -42.72702632}, {"name": "Solar Salgueiro", "state": "PE", "type": "UFV", "phase": "Opera\u00e7\u00e3o", "ceg": "UFVRSPE033606801", "start": "2021-07-08T00:00:00", "capacity": 30000.0, "lat": -8.08037223, "lon": -39.34452499}, {"name": "Sol Maior 2", "state": "TO", "type": "UFV", "phase": "Opera\u00e7\u00e3o", "ceg": "UFVRSTO033608401", "start": "2019-02-06T00:00:00", "capacity": 5000.0, "lat": -9.54056981, "lon": -48.53782413}, {"name": "Horizonte MP 1", "state": "BA", "type": "UFV", "phase": "Opera\u00e7\u00e3o", "ceg": "UFVRSBA033757901", "start": "2018-03-17T00:00:00", "capacity": 29400.0, "lat": -12.60903827, "lon": -44.08514302}, {"name": "Horizonte MP 2", "state": "BA", "type": "UFV", "phase": "Opera\u00e7\u00e3o", "ceg": "UFVRSBA033759501", "start": "2018-03-15T00:00:00", "capacity": 29400.0, "lat": -12.61406454, "lon": -44.08961868}, {"name": "Horizonte MP 11", "state": "BA", "type": "UFV", "phase": "Opera\u00e7\u00e3o", "ceg": "UFVRSBA033777301", "start": "2018-03-17T00:00:00", "capacity": 21000.0, "lat": -12.63943181, "lon": -44.08480598}, {"name": "S\u00e3o Pedro II", "state": "BA", "type": "UFV", "phase": "Opera\u00e7\u00e3o", "ceg": "UFVRSBA033782001", "start": "2018-11-08T00:00:00", "capacity": 27000.0, "lat": -13.32273116, "lon": -43.29514073}, {"name": "S\u00e3o Pedro IV", "state": "BA", "type": "UFV", "phase": "Opera\u00e7\u00e3o", "ceg": "UFVRSBA033784601", "start": "2018-11-08T00:00:00", "capacity": 27000.0, "lat": -13.32273116, "lon": -43.29514073}, {"name": "S\u00e3o Gon\u00e7alo 1", "state": "PI", "type": "UFV", "phase": "Opera\u00e7\u00e3o", "ceg": "UFVRSPI033841901", "start": "2020-02-22T00:00:00", "capacity": 45680.0, "lat": -10.09157393, "lon": -45.264353}, {"name": "S\u00e3o Gon\u00e7alo 2", "state": "PI", "type": "UFV", "phase": "Opera\u00e7\u00e3o", "ceg": "UFVRSPI033842701", "start": "2020-02-22T00:00:00", "capacity": 50000.0, "lat": -10.09650699, "lon": -45.274419}, {"name": "S\u00e3o Gon\u00e7alo 3", "state": "PI", "type": "UFV", "phase": "Opera\u00e7\u00e3o", "ceg": "UFVRSPI033843501", "start": "2020-04-02T00:00:00", "capacity": 45680.0, "lat": -10.09910259, "lon": -45.28151119}, {"name": "S\u00e3o Gon\u00e7alo 4", "state": "PI", "type": "UFV", "phase": "Opera\u00e7\u00e3o", "ceg": "UFVRSPI033844301", "start": "2020-05-21T00:00:00", "capacity": 50000.0, "lat": -10.12049778, "lon": -45.29693667}, {"name": "S\u00e3o Gon\u00e7alo 5", "state": "PI", "type": "UFV", "phase": "Opera\u00e7\u00e3o", "ceg": "UFVRSPI033845101", "start": "2020-10-14T00:00:00", "capacity": 50000.0, "lat": -10.10765279, "lon": -45.29966364}, {"name": "S\u00e3o Gon\u00e7alo 6", "state": "PI", "type": "UFV", "phase": "Opera\u00e7\u00e3o", "ceg": "UFVRSPI033846001", "start": "2020-10-14T00:00:00", "capacity": 45680.0, "lat": -10.11463333, "lon": -45.3006}, {"name": "S\u00e3o Gon\u00e7alo 7", "state": "PI", "type": "UFV", "phase": "Opera\u00e7\u00e3o", "ceg": "UFVRSPI033847801", "start": "2020-12-11T00:00:00", "capacity": 34542.0, "lat": -10.12844053, "lon": -45.298516}, {"name": "S\u00e3o Gon\u00e7alo 8", "state": "PI", "type": "UFV", "phase": "Opera\u00e7\u00e3o", "ceg": "UFVRSPI033849401", "start": "2020-12-22T00:00:00", "capacity": 34542.0, "lat": -10.12342778, "lon": -45.29311667}, {"name": "Apodi I", "state": "CE", "type": "UFV", "phase": "Opera\u00e7\u00e3o", "ceg": "UFVRSCE033917201", "start": "2018-11-28T00:00:00", "capacity": 33000.0, "lat": -5.04133889, "lon": -37.78653889}, {"name": "Apodi II", "state": "CE", "type": "UFV", "phase": "Opera\u00e7\u00e3o", "ceg": "UFVRSCE033918001", "start": "2018-11-28T00:00:00", "capacity": 33000.0, "lat": -5.052125, "lon": -37.79}, {"name": "Apodi III", "state": "CE", "type": "UFV", "phase": "Opera\u00e7\u00e3o", "ceg": "UFVRSCE033919901", "start": "2018-11-28T00:00:00", "capacity": 33000.0, "lat": -5.04450833, "lon": -37.79287222}, {"name": "Apodi IV", "state": "CE", "type": "UFV", "phase": "Opera\u00e7\u00e3o", "ceg": "UFVRSCE033920201", "start": "2018-11-28T00:00:00", "capacity": 33000.0, "lat": -5.044, "lon": -37.79717499}, {"name": "Juazeiro Solar I", "state": "BA", "type": "UFV", "phase": "Opera\u00e7\u00e3o", "ceg": "UFVRSBA033928801", "start": "2018-12-12T00:00:00", "capacity": 30000.0, "lat": -9.53190291, "lon": -40.48784622}, {"name": "Juazeiro Solar II", "state": "BA", "type": "UFV", "phase": "Opera\u00e7\u00e3o", "ceg": "UFVRSBA033929601", "start": "2018-12-18T00:00:00", "capacity": 30000.0, "lat": -9.53190291, "lon": -40.48784622}, {"name": "Juazeiro Solar III", "state": "BA", "type": "UFV", "phase": "Opera\u00e7\u00e3o", "ceg": "UFVRSBA033930001", "start": "2018-12-13T00:00:00", "capacity": 30000.0, "lat": -9.53190291, "lon": -40.48784622}, {"name": "Juazeiro Solar IV", "state": "BA", "type": "UFV", "phase": "Opera\u00e7\u00e3o", "ceg": "UFVRSBA033931801", "start": "2018-12-19T00:00:00", "capacity": 30000.0, "lat": -9.53190291, "lon": -40.48784622}, {"name": "Paracatu 3", "state": "MG", "type": "UFV", "phase": "Opera\u00e7\u00e3o", "ceg": "UFVRSMG033990301", "start": "2019-01-09T00:00:00", "capacity": 33000.0, "lat": -17.22026771, "lon": -47.09223811}, {"name": "Paracatu 4", "state": "MG", "type": "UFV", "phase": "Opera\u00e7\u00e3o", "ceg": "UFVRSMG033991101", "start": "2019-01-09T00:00:00", "capacity": 33000.0, "lat": -17.2238503, "lon": -47.08718807}, {"name": "Paracatu 1", "state": "MG", "type": "UFV", "phase": "Opera\u00e7\u00e3o", "ceg": "UFVRSMG033999701", "start": "2019-01-09T00:00:00", "capacity": 33000.0, "lat": -17.21342159, "lon": -47.0891553}, {"name": "Paracatu 2", "state": "MG", "type": "UFV", "phase": "Opera\u00e7\u00e3o", "ceg": "UFVRSMG034000601", "start": "2019-02-09T00:00:00", "capacity": 33000.0, "lat": -17.22013817, "lon": -47.09220028}, {"name": "Pitombeira", "state": "CE", "type": "UFV", "phase": "Opera\u00e7\u00e3o", "ceg": "UFVRSCE034037501", "start": "2024-02-16T00:00:00", "capacity": 47250.0, "lat": -4.60098333, "lon": -37.64212222}, {"name": "Guimarania 1", "state": "MG", "type": "UFV", "phase": "Opera\u00e7\u00e3o", "ceg": "UFVRSMG034073101", "start": "2018-12-12T00:00:00", "capacity": 32550.0, "lat": -18.82442131, "lon": -46.67448395}, {"name": "Guimarania 2", "state": "MG", "type": "UFV", "phase": "Opera\u00e7\u00e3o", "ceg": "UFVRSMG034074001", "start": "2018-12-12T00:00:00", "capacity": 32550.0, "lat": -18.81662405, "lon": -46.69043}, {"name": "Angico I", "state": "PB", "type": "UFV", "phase": "Opera\u00e7\u00e3o", "ceg": "UFVRSPB034085501", "start": "2018-09-29T00:00:00", "capacity": 27200.0, "lat": -6.91704135, "lon": -37.56017362}, {"name": "Malta", "state": "PB", "type": "UFV", "phase": "Opera\u00e7\u00e3o", "ceg": "UFVRSPB034086301", "start": "2018-10-27T00:00:00", "capacity": 27200.0, "lat": -6.90975366, "lon": -37.56014221}, {"name": "Solar Salgueiro III", "state": "PE", "type": "UFV", "phase": "Opera\u00e7\u00e3o", "ceg": "UFVRSPE034105301", "start": "2021-08-19T00:00:00", "capacity": 30000.0, "lat": -8.08333333, "lon": -39.35547222}, {"name": "Brisas Suaves", "state": "SP", "type": "UFV", "phase": "Opera\u00e7\u00e3o", "ceg": "UFVRSSP034107002", "start": "2020-03-10T00:00:00", "capacity": 5000.0, "lat": -15.54018984, "lon": -43.6283}, {"name": "Castilho 1", "state": "SP", "type": "UFV", "phase": "Opera\u00e7\u00e3o", "ceg": "UFVRSSP034108801", "start": "2022-12-29T00:00:00", "capacity": 49999.32, "lat": -20.80000555, "lon": -51.52874166}, {"name": "Castilho 5", "state": "SP", "type": "UFV", "phase": "Opera\u00e7\u00e3o", "ceg": "UFVRSSP034109601", "start": "2022-12-31T00:00:00", "capacity": 49999.32, "lat": -20.78925833, "lon": -51.51476388}, {"name": "Castilho 3", "state": "SP", "type": "UFV", "phase": "Opera\u00e7\u00e3o", "ceg": "UFVRSSP034110001", "start": "2022-12-31T00:00:00", "capacity": 49999.32, "lat": -20.77671666, "lon": -51.52710555}, {"name": "Castilho 4", "state": "SP", "type": "UFV", "phase": "Opera\u00e7\u00e3o", "ceg": "UFVRSSP034111801", "start": "2022-12-31T00:00:00", "capacity": 49999.32, "lat": -20.78123056, "lon": -51.51658055}, {"name": "Castilho 2", "state": "SP", "type": "UFV", "phase": "Opera\u00e7\u00e3o", "ceg": "UFVRSSP034112601", "start": "2022-12-29T00:00:00", "capacity": 4999.92, "lat": -20.80781111, "lon": -51.52939222}, {"name": "Assuru\u00e1", "state": "BA", "type": "UFV", "phase": "Opera\u00e7\u00e3o", "ceg": "UFVRSBA034120701", "start": "2018-02-06T00:00:00", "capacity": 30520.0, "lat": -10.99000579, "lon": -42.36037131}, {"name": "BJL 11", "state": "BA", "type": "UFV", "phase": "Opera\u00e7\u00e3o", "ceg": "UFVRSBA034153301", "start": "2018-05-12T00:00:00", "capacity": 20000.0, "lat": -13.32717157, "lon": -43.35719176}, {"name": "BJL 4", "state": "BA", "type": "UFV", "phase": "Opera\u00e7\u00e3o", "ceg": "UFVRSBA034158401", "start": "2018-12-07T00:00:00", "capacity": 20000.0, "lat": -13.32076646, "lon": -43.34286701}, {"name": "Solar Salgueiro II", "state": "PE", "type": "UFV", "phase": "Opera\u00e7\u00e3o", "ceg": "UFVRSPE034160601", "start": "2021-07-08T00:00:00", "capacity": 30000.0, "lat": -8.08547485, "lon": -39.35340209}, {"name": "Boa Hora 1", "state": "SP", "type": "UFV", "phase": "Opera\u00e7\u00e3o", "ceg": "UFVRSSP034161402", "start": "2019-08-14T00:00:00", "capacity": 23040.0, "lat": -19.873, "lon": -50.89047036}, {"name": "Boa Hora 2", "state": "SP", "type": "UFV", "phase": "Opera\u00e7\u00e3o", "ceg": "UFVRSSP034162202", "start": "2019-08-14T00:00:00", "capacity": 23040.0, "lat": -19.88467353, "lon": -50.39708404}, {"name": "Boa Hora 3", "state": "SP", "type": "UFV", "phase": "Opera\u00e7\u00e3o", "ceg": "UFVRSSP034163002", "start": "2019-08-14T00:00:00", "capacity": 23040.0, "lat": -19.88110601, "lon": -50.39462758}, {"name": "Br\u00edgida", "state": "PE", "type": "UFV", "phase": "Opera\u00e7\u00e3o", "ceg": "UFVRSPE034169001", "start": "2021-06-26T00:00:00", "capacity": 31500.0, "lat": -7.89336111, "lon": -38.69644722}, {"name": "Ass\u00fa V", "state": "RN", "type": "UFV", "phase": "Opera\u00e7\u00e3o", "ceg": "UFVRSRN034184301", "start": "2017-12-23T00:00:00", "capacity": 34000.0, "lat": -5.54600429, "lon": -37.02639026}, {"name": "S\u00e3o Pedro e Paulo V", "state": "PE", "type": "UFV", "phase": "Opera\u00e7\u00e3o", "ceg": "UFVRSPE034186001", "start": "2024-05-18T00:00:00", "capacity": 27496.0, "lat": -7.89001111, "lon": -37.9358}, {"name": "S\u00e3o Pedro e Paulo VI", "state": "PE", "type": "UFV", "phase": "Opera\u00e7\u00e3o", "ceg": "UFVRSPE034188601", "start": "2024-05-18T00:00:00", "capacity": 23123.0, "lat": -7.8956, "lon": -37.9446}, {"name": "\u00c1gua Vermelha IV", "state": "SP", "type": "UFV", "phase": "Opera\u00e7\u00e3o", "ceg": "UFVRSSP034206801", "start": "2019-11-29T00:00:00", "capacity": 15200.0, "lat": -19.88391425, "lon": -50.38202221}, {"name": "\u00c1gua Vermelha V", "state": "SP", "type": "UFV", "phase": "Opera\u00e7\u00e3o", "ceg": "UFVRSSP034207601", "start": "2019-11-29T00:00:00", "capacity": 30400.0, "lat": -19.87547918, "lon": -50.37763459}, {"name": "\u00c1gua Vermelha VI", "state": "SP", "type": "UFV", "phase": "Opera\u00e7\u00e3o", "ceg": "UFVRSSP034208401", "start": "2019-11-29T00:00:00", "capacity": 30400.0, "lat": -19.86618809, "lon": -50.3787922}, {"name": "Brigida 2", "state": "PE", "type": "UFV", "phase": "Opera\u00e7\u00e3o", "ceg": "UFVRSPE034234301", "start": "2021-06-26T00:00:00", "capacity": 31500.0, "lat": -7.89800558, "lon": -38.70325013}, {"name": "Fazenda Esmeralda", "state": "PE", "type": "UFV", "phase": "Opera\u00e7\u00e3o", "ceg": "UFVRSPE034305601", "start": "2019-04-18T00:00:00", "capacity": 29000.0, "lat": -8.41599667, "lon": -35.95800278}, {"name": "Floresta II", "state": "RN", "type": "UFV", "phase": "Opera\u00e7\u00e3o", "ceg": "UFVRSRN034309901", "start": "2017-12-23T00:00:00", "capacity": 32000.0, "lat": -4.96160106, "lon": -36.90669327}, {"name": "Floresta I", "state": "RN", "type": "UFV", "phase": "Opera\u00e7\u00e3o", "ceg": "UFVRSRN034310201", "start": "2017-12-23T00:00:00", "capacity": 32000.0, "lat": -4.96426606, "lon": -36.9105004}, {"name": "Lapa 3", "state": "BA", "type": "UFV", "phase": "Opera\u00e7\u00e3o", "ceg": "UFVRSBA034333101", "start": "2017-06-30T00:00:00", "capacity": 30000.0, "lat": -13.32031389, "lon": -43.37230278}, {"name": "Pedran\u00f3polis 1", "state": "SP", "type": "UFV", "phase": "Opera\u00e7\u00e3o", "ceg": "UFVRSSP034358701", "start": "2022-11-10T00:00:00", "capacity": 30000.0, "lat": -20.19463333, "lon": -50.04071389}, {"name": "Pedran\u00f3polis 2", "state": "SP", "type": "UFV", "phase": "Opera\u00e7\u00e3o", "ceg": "UFVRSSP034359501", "start": "2022-11-17T00:00:00", "capacity": 30000.0, "lat": -20.19298056, "lon": -50.04839167}, {"name": "Pedran\u00f3polis 3", "state": "SP", "type": "UFV", "phase": "Opera\u00e7\u00e3o", "ceg": "UFVRSSP034360901", "start": "2022-11-10T00:00:00", "capacity": 30000.0, "lat": -20.19849444, "lon": -50.03453333}, {"name": "Pereira Barreto I", "state": "SP", "type": "UFV", "phase": "Opera\u00e7\u00e3o", "ceg": "UFVRSSP034361701", "start": "2021-10-15T00:00:00", "capacity": 41895.0, "lat": -20.627834, "lon": -51.302895}, {"name": "Pereira Barreto II", "state": "SP", "type": "UFV", "phase": "Opera\u00e7\u00e3o", "ceg": "UFVRSSP034362501", "start": "2021-10-15T00:00:00", "capacity": 41895.0, "lat": -20.625035, "lon": -51.2915445}, {"name": "Pereira Barreto III", "state": "SP", "type": "UFV", "phase": "Opera\u00e7\u00e3o", "ceg": "UFVRSSP034363301", "start": "2021-10-15T00:00:00", "capacity": 41895.0, "lat": -20.619428, "lon": -51.29579525}, {"name": "Pereira Barreto IV", "state": "SP", "type": "UFV", "phase": "Opera\u00e7\u00e3o", "ceg": "UFVRSSP034364101", "start": "2021-10-15T00:00:00", "capacity": 41895.0, "lat": -20.613537, "lon": -51.29196411}, {"name": "Pereira Barreto V", "state": "SP", "type": "UFV", "phase": "Opera\u00e7\u00e3o", "ceg": "UFVRSSP034365001", "start": "2021-11-20T00:00:00", "capacity": 35910.0, "lat": -20.608851, "lon": -51.29577483}, {"name": "Sert\u00e3o 1", "state": "PI", "type": "UFV", "phase": "Opera\u00e7\u00e3o", "ceg": "UFVRSPI034384601", "start": "2017-09-09T00:00:00", "capacity": 30000.0, "lat": -8.55040144, "lon": -42.29265678}, {"name": "Sobrado 1", "state": "BA", "type": "UFV", "phase": "Opera\u00e7\u00e3o", "ceg": "UFVRSBA034387001", "start": "2019-11-14T00:00:00", "capacity": 30000.0, "lat": -9.38115197, "lon": -41.81209074}, {"name": "Sobral 1", "state": "PI", "type": "UFV", "phase": "Opera\u00e7\u00e3o", "ceg": "UFVRSPI034388901", "start": "2017-09-09T00:00:00", "capacity": 30000.0, "lat": -8.28894761, "lon": -42.36966728}, {"name": "Ja\u00edba 3", "state": "MG", "type": "UFV", "phase": "Opera\u00e7\u00e3o", "ceg": "UFVRSMG034392701", "start": "2021-08-31T00:00:00", "capacity": 33000.0, "lat": -15.34972222, "lon": -43.62999999}, {"name": "Ja\u00edba 4", "state": "MG", "type": "UFV", "phase": "Opera\u00e7\u00e3o", "ceg": "UFVRSMG034394301", "start": "2021-08-31T00:00:00", "capacity": 33000.0, "lat": -15.34194445, "lon": -43.62722222}, {"name": "Xaxado 1", "state": "PE", "type": "UFV", "phase": "Opera\u00e7\u00e3o", "ceg": "UFVRSPE034405201", "start": "2023-04-01T00:00:00", "capacity": 32000.06, "lat": -7.97972222, "lon": -38.6225}, {"name": "Xaxado 2", "state": "PE", "type": "UFV", "phase": "Opera\u00e7\u00e3o", "ceg": "UFVRSPE034406001", "start": "2023-04-04T00:00:00", "capacity": 32000.06, "lat": -7.97166667, "lon": -38.61916666}, {"name": "Xaxado 3", "state": "PE", "type": "UFV", "phase": "Opera\u00e7\u00e3o", "ceg": "UFVRSPE034407901", "start": "2023-04-15T00:00:00", "capacity": 32000.06, "lat": -7.97555556, "lon": -38.60888889}, {"name": "Lapa 2", "state": "BA", "type": "UFV", "phase": "Opera\u00e7\u00e3o", "ceg": "UFVRSBA034437001", "start": "2017-06-30T00:00:00", "capacity": 30000.0, "lat": -13.316258, "lon": -43.353367}, {"name": "Sol do Futuro I (Steelcons Sol do Futuro I)", "state": "CE", "type": "UFV", "phase": "Opera\u00e7\u00e3o", "ceg": "UFVRSCE034745002", "start": "2019-03-02T00:00:00", "capacity": 27000.0, "lat": -3.95533317, "lon": -38.39498032}, {"name": "Sol do Futuro II (Antiga Steelcons Sol do Futuro III)", "state": "CE", "type": "UFV", "phase": "Opera\u00e7\u00e3o", "ceg": "UFVRSCE034746902", "start": "2019-03-02T00:00:00", "capacity": 27000.0, "lat": -3.96212166, "lon": -38.39764342}, {"name": "Sol do Futuro III (Antiga Steelcons Sol do Futuro III)", "state": "CE", "type": "UFV", "phase": "Opera\u00e7\u00e3o", "ceg": "UFVRSCE034747702", "start": "2019-03-02T00:00:00", "capacity": 27000.0, "lat": -3.96938722, "lon": -38.39392043}, {"name": "ETESA 17 S\u00e3o Jo\u00e3o do Piau\u00ed I", "state": "PI", "type": "UFV", "phase": "Opera\u00e7\u00e3o", "ceg": "UFVRSPI034785001", "start": "2020-04-15T00:00:00", "capacity": 32164.0, "lat": -8.27853583, "lon": -42.16353972}, {"name": "ETESA 18 S\u00e3o Jo\u00e3o do Piau\u00ed II", "state": "PI", "type": "UFV", "phase": "Opera\u00e7\u00e3o", "ceg": "UFVRSPI034786801", "start": "2020-04-15T00:00:00", "capacity": 32164.0, "lat": -8.28010806, "lon": -42.15216361}, {"name": "ETESA 19 S\u00e3o Jo\u00e3o do Piau\u00ed III", "state": "PI", "type": "UFV", "phase": "Opera\u00e7\u00e3o", "ceg": "UFVRSPI034787601", "start": "2020-04-15T00:00:00", "capacity": 32164.0, "lat": -8.26861222, "lon": -42.15543889}, {"name": "ETESA 20 S\u00e3o Jo\u00e3o do Piau\u00ed IV", "state": "PI", "type": "UFV", "phase": "Opera\u00e7\u00e3o", "ceg": "UFVRSPI034788401", "start": "2020-04-15T00:00:00", "capacity": 28840.0, "lat": -8.266435, "lon": -42.14281139}, {"name": "ETESA 21 S\u00e3o Jo\u00e3o do Piau\u00ed V", "state": "PI", "type": "UFV", "phase": "Opera\u00e7\u00e3o", "ceg": "UFVRSPI034789201", "start": "2020-04-14T00:00:00", "capacity": 28840.0, "lat": -8.27330583, "lon": -42.14342389}, {"name": "ETESA 22 S\u00e3o Jo\u00e3o do Piau\u00ed VI", "state": "PI", "type": "UFV", "phase": "Opera\u00e7\u00e3o", "ceg": "UFVRSPI034790601", "start": "2020-04-15T00:00:00", "capacity": 31878.0, "lat": -8.28026528, "lon": -42.13752361}, {"name": "Alex I", "state": "CE", "type": "UFV", "phase": "Opera\u00e7\u00e3o", "ceg": "UFVRSCE035699901", "start": "2021-10-30T00:00:00", "capacity": 30933.0, "lat": -5.261875, "lon": -37.96893889}, {"name": "Alex VIII", "state": "CE", "type": "UFV", "phase": "Opera\u00e7\u00e3o", "ceg": "UFVRSCE035862201", "start": "2021-10-30T00:00:00", "capacity": 30933.0, "lat": -5.25664167, "lon": -37.98144444}, {"name": "Ja\u00edba 9", "state": "MG", "type": "UFV", "phase": "Opera\u00e7\u00e3o", "ceg": "UFVRSMG035805301", "start": "2021-08-31T00:00:00", "capacity": 22500.0, "lat": -15.35138889, "lon": -43.61888161}, {"name": "Alex V", "state": "CE", "type": "UFV", "phase": "Opera\u00e7\u00e3o", "ceg": "UFVRSCE035859201", "start": "2021-10-30T00:00:00", "capacity": 30933.0, "lat": -5.24583611, "lon": -37.97250278}, {"name": "Alex VI", "state": "CE", "type": "UFV", "phase": "Opera\u00e7\u00e3o", "ceg": "UFVRSCE035860601", "start": "2021-10-30T00:00:00", "capacity": 30933.0, "lat": -5.25896266, "lon": -37.97729167}, {"name": "Alex VII", "state": "CE", "type": "UFV", "phase": "Opera\u00e7\u00e3o", "ceg": "UFVRSCE035861401", "start": "2021-10-30T00:00:00", "capacity": 30933.0, "lat": -5.24730833, "lon": -37.97747222}, {"name": "Alex IX", "state": "CE", "type": "UFV", "phase": "Opera\u00e7\u00e3o", "ceg": "UFVRSCE035863001", "start": "2021-10-30T00:00:00", "capacity": 30933.0, "lat": -5.23791111, "lon": -37.97709167}, {"name": "Alex X", "state": "CE", "type": "UFV", "phase": "Opera\u00e7\u00e3o", "ceg": "UFVRSCE035864901", "start": "2021-10-30T00:00:00", "capacity": 30933.0, "lat": -5.23550555, "lon": -37.98328333}, {"name": "Alex III", "state": "CE", "type": "UFV", "phase": "Opera\u00e7\u00e3o", "ceg": "UFVRSCE035883501", "start": "2021-10-30T00:00:00", "capacity": 30933.0, "lat": -5.24686944, "lon": -37.96888333}, {"name": "Alex IV", "state": "CE", "type": "UFV", "phase": "Opera\u00e7\u00e3o", "ceg": "UFVRSCE035884301", "start": "2021-10-30T00:00:00", "capacity": 30933.0, "lat": -5.26086944, "lon": -37.97305556}, {"name": "Oiapoque", "state": "AP", "type": "UFV", "phase": "Opera\u00e7\u00e3o", "ceg": "UFVRSAP037369901", "start": "2017-10-26T00:00:00", "capacity": 4039.2, "lat": 3.83139174, "lon": -51.83583048}, {"name": "AC V", "state": "MG", "type": "UFV", "phase": "Opera\u00e7\u00e3o", "ceg": "UFVRSMG037390701", "start": "2023-01-03T00:00:00", "capacity": 39496.0, "lat": -15.36376389, "lon": -43.79035278}, {"name": "AC III", "state": "MG", "type": "UFV", "phase": "Opera\u00e7\u00e3o", "ceg": "UFVRSMG037403201", "start": "2023-01-07T00:00:00", "capacity": 39496.0, "lat": -15.36046944, "lon": -43.80889722}, {"name": "AC IV", "state": "MG", "type": "UFV", "phase": "Opera\u00e7\u00e3o", "ceg": "UFVRSMG037404001", "start": "2023-01-03T00:00:00", "capacity": 39496.0, "lat": -15.35932222, "lon": -43.79888611}, {"name": "AC VI", "state": "MG", "type": "UFV", "phase": "Opera\u00e7\u00e3o", "ceg": "UFVRSMG037405901", "start": "2023-01-03T00:00:00", "capacity": 39496.0, "lat": -15.36711667, "lon": -43.79499444}, {"name": "Ciranda 1", "state": "PE", "type": "UFV", "phase": "Opera\u00e7\u00e3o", "ceg": "UFVRSPE037465201", "start": "2023-08-09T00:00:00", "capacity": 49500.0, "lat": -7.96478611, "lon": -38.630675}, {"name": "Ciranda 2", "state": "PE", "type": "UFV", "phase": "Opera\u00e7\u00e3o", "ceg": "UFVRSPE037466001", "start": "2023-08-09T00:00:00", "capacity": 49500.0, "lat": -7.95388611, "lon": -38.62964444}, {"name": "Futura 1", "state": "BA", "type": "UFV", "phase": "Opera\u00e7\u00e3o", "ceg": "UFVRSBA037479201", "start": "2023-05-24T00:00:00", "capacity": 31474.8, "lat": -9.65917778, "lon": -40.67818611}, {"name": "Futura 2", "state": "BA", "type": "UFV", "phase": "Opera\u00e7\u00e3o", "ceg": "UFVRSBA037480601", "start": "2023-05-24T00:00:00", "capacity": 31474.8, "lat": -9.66278333, "lon": -40.67706389}, {"name": "Futura 3", "state": "BA", "type": "UFV", "phase": "Opera\u00e7\u00e3o", "ceg": "UFVRSBA037481401", "start": "2023-05-26T00:00:00", "capacity": 31474.8, "lat": -9.66879166, "lon": -40.67576389}, {"name": "Futura 4", "state": "BA", "type": "UFV", "phase": "Opera\u00e7\u00e3o", "ceg": "UFVRSBA037482201", "start": "2023-05-26T00:00:00", "capacity": 31474.8, "lat": -9.67440556, "lon": -40.67577222}, {"name": "Futura 5", "state": "BA", "type": "UFV", "phase": "Opera\u00e7\u00e3o", "ceg": "UFVRSBA037483001", "start": "2023-05-26T00:00:00", "capacity": 31474.8, "lat": -9.68020833, "lon": -40.67469167}, {"name": "Futura 6", "state": "BA", "type": "UFV", "phase": "Opera\u00e7\u00e3o", "ceg": "UFVRSBA037484901", "start": "2023-05-26T00:00:00", "capacity": 31474.8, "lat": -9.68698611, "lon": -40.67313888}, {"name": "Futura 7", "state": "BA", "type": "UFV", "phase": "Opera\u00e7\u00e3o", "ceg": "UFVRSBA037485701", "start": "2023-05-24T00:00:00", "capacity": 31474.8, "lat": -9.68125, "lon": -40.66079166}, {"name": "Futura 8", "state": "BA", "type": "UFV", "phase": "Opera\u00e7\u00e3o", "ceg": "UFVRSBA037486501", "start": "2023-05-26T00:00:00", "capacity": 31474.8, "lat": -9.68660278, "lon": -40.66440833}, {"name": "Futura 9", "state": "BA", "type": "UFV", "phase": "Opera\u00e7\u00e3o", "ceg": "UFVRSBA037487301", "start": "2023-05-24T00:00:00", "capacity": 31474.8, "lat": -9.69105277, "lon": -40.66224166}, {"name": "Futura 10", "state": "BA", "type": "UFV", "phase": "Opera\u00e7\u00e3o", "ceg": "UFVRSBA037488101", "start": "2023-05-26T00:00:00", "capacity": 31474.8, "lat": -9.69218611, "lon": -40.67313611}, {"name": "Futura 11", "state": "BA", "type": "UFV", "phase": "Opera\u00e7\u00e3o", "ceg": "UFVRSBA037489001", "start": "2023-05-26T00:00:00", "capacity": 31474.8, "lat": -9.69498333, "lon": -40.66480278}, {"name": "Futura 12", "state": "BA", "type": "UFV", "phase": "Opera\u00e7\u00e3o", "ceg": "UFVRSBA037490301", "start": "2023-05-26T00:00:00", "capacity": 31474.8, "lat": -9.69854166, "lon": -40.67128334}, {"name": "Futura 13", "state": "BA", "type": "UFV", "phase": "Opera\u00e7\u00e3o", "ceg": "UFVRSBA037491101", "start": "2023-05-26T00:00:00", "capacity": 31474.8, "lat": -9.70214167, "lon": -40.67130833}, {"name": "Futura 14", "state": "BA", "type": "UFV", "phase": "Opera\u00e7\u00e3o", "ceg": "UFVRSBA037492001", "start": "2023-05-26T00:00:00", "capacity": 31474.8, "lat": -9.667125, "lon": -40.68939444}, {"name": "Futura 15", "state": "BA", "type": "UFV", "phase": "Opera\u00e7\u00e3o", "ceg": "UFVRSBA037493801", "start": "2023-05-26T00:00:00", "capacity": 31474.8, "lat": -9.67275, "lon": -40.68725555}, {"name": "Futura 16", "state": "BA", "type": "UFV", "phase": "Opera\u00e7\u00e3o", "ceg": "UFVRSBA037494601", "start": "2023-05-26T00:00:00", "capacity": 31474.8, "lat": -9.67591944, "lon": -40.68988611}, {"name": "Futura 17", "state": "BA", "type": "UFV", "phase": "Opera\u00e7\u00e3o", "ceg": "UFVRSBA037495401", "start": "2023-05-26T00:00:00", "capacity": 31474.8, "lat": -9.67951667, "lon": -40.68825556}, {"name": "Futura 18", "state": "BA", "type": "UFV", "phase": "Opera\u00e7\u00e3o", "ceg": "UFVRSBA037496201", "start": "2023-05-24T00:00:00", "capacity": 31474.8, "lat": -9.68275833, "lon": -40.69105833}, {"name": "Futura 19", "state": "BA", "type": "UFV", "phase": "Opera\u00e7\u00e3o", "ceg": "UFVRSBA037497001", "start": "2023-05-24T00:00:00", "capacity": 31474.8, "lat": -9.68664445, "lon": -40.68780833}, {"name": "Futura 20", "state": "BA", "type": "UFV", "phase": "Opera\u00e7\u00e3o", "ceg": "UFVRSBA037498901", "start": "2023-05-26T00:00:00", "capacity": 31474.8, "lat": -9.69025834, "lon": -40.68632222}, {"name": "Futura 21", "state": "BA", "type": "UFV", "phase": "Opera\u00e7\u00e3o", "ceg": "UFVRSBA037499701", "start": "2023-05-26T00:00:00", "capacity": 31474.8, "lat": -9.69368611, "lon": -40.69137778}, {"name": "Futura 22", "state": "BA", "type": "UFV", "phase": "Opera\u00e7\u00e3o", "ceg": "UFVRSBA037500401", "start": "2023-05-26T00:00:00", "capacity": 31474.8, "lat": -9.69585277, "lon": -40.68286111}, {"name": "Ciranda 3", "state": "PE", "type": "UFV", "phase": "Opera\u00e7\u00e3o", "ceg": "UFVRSPE037516001", "start": "2023-08-15T00:00:00", "capacity": 49500.0, "lat": -7.94741389, "lon": -38.62284722}, {"name": "AC VII", "state": "MG", "type": "UFV", "phase": "Opera\u00e7\u00e3o", "ceg": "UFVRSMG037548901", "start": "2023-01-03T00:00:00", "capacity": 39496.0, "lat": -15.37226667, "lon": -43.78785278}, {"name": "AC VIII", "state": "MG", "type": "UFV", "phase": "Opera\u00e7\u00e3o", "ceg": "UFVRSMG037549701", "start": "2023-01-03T00:00:00", "capacity": 39496.0, "lat": -15.38061389, "lon": -43.78592778}, {"name": "AC IX", "state": "MG", "type": "UFV", "phase": "Opera\u00e7\u00e3o", "ceg": "UFVRSMG037550001", "start": "2023-02-15T00:00:00", "capacity": 29622.0, "lat": -15.39205278, "lon": -43.78731389}, {"name": "AC X", "state": "MG", "type": "UFV", "phase": "Opera\u00e7\u00e3o", "ceg": "UFVRSMG037551901", "start": "2023-03-18T00:00:00", "capacity": 39496.0, "lat": -15.39651944, "lon": -43.80338056}, {"name": "S\u00e3o Gon\u00e7alo 10", "state": "PI", "type": "UFV", "phase": "Opera\u00e7\u00e3o", "ceg": "UFVRSPI037577201", "start": "2020-05-01T00:00:00", "capacity": 50000.0, "lat": -10.11292229, "lon": -45.29150844}, {"name": "S\u00e3o Gon\u00e7alo 11", "state": "PI", "type": "UFV", "phase": "Opera\u00e7\u00e3o", "ceg": "UFVRSPI037578001", "start": "2020-12-22T00:00:00", "capacity": 34542.0, "lat": -10.12340106, "lon": -45.288711}, {"name": "S\u00e3o Gon\u00e7alo 12", "state": "PI", "type": "UFV", "phase": "Opera\u00e7\u00e3o", "ceg": "UFVRSPI037579901", "start": "2020-12-22T00:00:00", "capacity": 34542.0, "lat": -10.12027211, "lon": -45.28390476}, {"name": "S\u00e3o Gon\u00e7alo 14", "state": "PI", "type": "UFV", "phase": "Opera\u00e7\u00e3o", "ceg": "UFVRSPI037581001", "start": "2022-03-25T00:00:00", "capacity": 43032.0, "lat": -10.11092466, "lon": -45.27917116}, {"name": "S\u00e3o Gon\u00e7alo 15", "state": "PI", "type": "UFV", "phase": "Opera\u00e7\u00e3o", "ceg": "UFVRSPI037582901", "start": "2022-03-25T00:00:00", "capacity": 43032.0, "lat": -10.11174166, "lon": -45.26591389}, {"name": "S\u00e3o Gon\u00e7alo 17", "state": "PI", "type": "UFV", "phase": "Opera\u00e7\u00e3o", "ceg": "UFVRSPI037584501", "start": "2022-03-19T00:00:00", "capacity": 43032.0, "lat": -10.11607778, "lon": -45.27381111}, {"name": "S\u00e3o Gon\u00e7alo 18", "state": "PI", "type": "UFV", "phase": "Opera\u00e7\u00e3o", "ceg": "UFVRSPI037585301", "start": "2022-04-01T00:00:00", "capacity": 43032.0, "lat": -10.10696389, "lon": -45.26997222}, {"name": "S\u00e3o Gon\u00e7alo 19", "state": "PI", "type": "UFV", "phase": "Opera\u00e7\u00e3o", "ceg": "UFVRSPI037586101", "start": "2022-08-03T00:00:00", "capacity": 43032.0, "lat": -10.119, "lon": -45.28104444}, {"name": "S\u00e3o Gon\u00e7alo 21", "state": "PI", "type": "UFV", "phase": "Opera\u00e7\u00e3o", "ceg": "UFVRSPI037588801", "start": "2020-02-22T00:00:00", "capacity": 50000.0, "lat": -10.10576231, "lon": -45.278829}, {"name": "S\u00e3o Gon\u00e7alo 22", "state": "PI", "type": "UFV", "phase": "Opera\u00e7\u00e3o", "ceg": "UFVRSPI037589601", "start": "2020-02-28T00:00:00", "capacity": 50000.0, "lat": -10.09799634, "lon": -45.26391746}, {"name": "AC XV", "state": "MG", "type": "UFV", "phase": "Opera\u00e7\u00e3o", "ceg": "UFVRSMG037626401", "start": "2023-03-11T00:00:00", "capacity": 49370.0, "lat": -15.39809722, "lon": -43.83066111}, {"name": "AC XVI", "state": "MG", "type": "UFV", "phase": "Opera\u00e7\u00e3o", "ceg": "UFVRSMG037627201", "start": "2023-04-20T00:00:00", "capacity": 39496.0, "lat": -15.39641667, "lon": -43.80376944}, {"name": "AC XVII", "state": "MG", "type": "UFV", "phase": "Opera\u00e7\u00e3o", "ceg": "UFVRSMG037628001", "start": "2023-06-06T00:00:00", "capacity": 49370.0, "lat": -15.40055833, "lon": -43.80489167}, {"name": "AC XVIII", "state": "MG", "type": "UFV", "phase": "Opera\u00e7\u00e3o", "ceg": "UFVRSMG037629901", "start": "2023-06-13T00:00:00", "capacity": 39496.0, "lat": -15.40711944, "lon": -43.79896667}, {"name": "AC XIX", "state": "MG", "type": "UFV", "phase": "Opera\u00e7\u00e3o", "ceg": "UFVRSMG037630201", "start": "2023-06-13T00:00:00", "capacity": 39496.0, "lat": -15.40233055, "lon": -43.79130555}, {"name": "AC XX", "state": "MG", "type": "UFV", "phase": "Opera\u00e7\u00e3o", "ceg": "UFVRSMG037631001", "start": "2023-01-07T00:00:00", "capacity": 39496.0, "lat": -15.42549167, "lon": -43.81800833}, {"name": "AC XXI", "state": "MG", "type": "UFV", "phase": "Opera\u00e7\u00e3o", "ceg": "UFVRSMG037632901", "start": "2023-07-18T00:00:00", "capacity": 39496.0, "lat": -15.42923282, "lon": -43.80366912}, {"name": "AC XXII", "state": "MG", "type": "UFV", "phase": "Opera\u00e7\u00e3o", "ceg": "UFVRSMG037633701", "start": "2023-01-03T00:00:00", "capacity": 39496.0, "lat": -15.39840278, "lon": -43.78612778}, {"name": "AC XXIII", "state": "MG", "type": "UFV", "phase": "Opera\u00e7\u00e3o", "ceg": "UFVRSMG037634501", "start": "2023-04-15T00:00:00", "capacity": 39496.0, "lat": -15.41365556, "lon": -43.78753333}, {"name": "Pinc\u00e9is Roma Pe", "state": "PE", "type": "UFV", "phase": "Opera\u00e7\u00e3o", "ceg": "UFVRSPE062074201", "start": "2021-09-07T00:00:00", "capacity": 1160.0, "lat": -7.78322805, "lon": -35.23886}, {"name": "Mendubim XIII", "state": "RN", "type": "UFV", "phase": "Opera\u00e7\u00e3o", "ceg": "UFVRSRN037774001", "start": "2024-02-08T00:00:00", "capacity": 41700.0, "lat": -5.62898056, "lon": -37.04758889}, {"name": "Mendubim I", "state": "RN", "type": "UFV", "phase": "Opera\u00e7\u00e3o", "ceg": "UFVRSRN037749001", "start": "2024-02-08T00:00:00", "capacity": 34500.0, "lat": -5.64584167, "lon": -37.06109722}, {"name": "Mendubim II", "state": "RN", "type": "UFV", "phase": "Opera\u00e7\u00e3o", "ceg": "UFVRSRN037750301", "start": "2024-02-08T00:00:00", "capacity": 46000.0, "lat": -5.64131389, "lon": -37.05913611}, {"name": "Mendubim III", "state": "RN", "type": "UFV", "phase": "Opera\u00e7\u00e3o", "ceg": "UFVRSRN037751101", "start": "2024-02-08T00:00:00", "capacity": 37375.0, "lat": -5.637075, "lon": -37.06234722}, {"name": "Mendubim IV", "state": "RN", "type": "UFV", "phase": "Opera\u00e7\u00e3o", "ceg": "UFVRSRN037752001", "start": "2024-02-08T00:00:00", "capacity": 31625.0, "lat": -5.641875, "lon": -37.04814167}, {"name": "Mendubim V", "state": "RN", "type": "UFV", "phase": "Opera\u00e7\u00e3o", "ceg": "UFVRSRN037753801", "start": "2024-02-08T00:00:00", "capacity": 22240.0, "lat": -5.63299444, "lon": -37.03155}, {"name": "Mendubim VI", "state": "RN", "type": "UFV", "phase": "Opera\u00e7\u00e3o", "ceg": "UFVRSRN037754601", "start": "2024-03-08T00:00:00", "capacity": 30580.0, "lat": -5.62617778, "lon": -37.02864722}, {"name": "Mendubim VII", "state": "RN", "type": "UFV", "phase": "Opera\u00e7\u00e3o", "ceg": "UFVRSRN037755401", "start": "2024-02-08T00:00:00", "capacity": 36140.0, "lat": -5.619025, "lon": -37.02588333}, {"name": "Mendubim VIII", "state": "RN", "type": "UFV", "phase": "Opera\u00e7\u00e3o", "ceg": "UFVRSRN037769401", "start": "2024-02-08T00:00:00", "capacity": 33360.0, "lat": -5.61186667, "lon": -37.02410278}, {"name": "Mendubim IX", "state": "RN", "type": "UFV", "phase": "Opera\u00e7\u00e3o", "ceg": "UFVRSRN037770801", "start": "2024-02-08T00:00:00", "capacity": 40250.0, "lat": -5.62496389, "lon": -37.05547222}, {"name": "Mendubim X", "state": "RN", "type": "UFV", "phase": "Opera\u00e7\u00e3o", "ceg": "UFVRSRN037771601", "start": "2024-02-17T00:00:00", "capacity": 30580.0, "lat": -5.61963333, "lon": -37.06726944}, {"name": "Mendubim XI", "state": "RN", "type": "UFV", "phase": "Opera\u00e7\u00e3o", "ceg": "UFVRSRN037772401", "start": "2024-02-08T00:00:00", "capacity": 46000.0, "lat": -5.63178611, "lon": -37.05666111}, {"name": "Mendubim XII", "state": "RN", "type": "UFV", "phase": "Opera\u00e7\u00e3o", "ceg": "UFVRSRN037773201", "start": "2024-02-08T00:00:00", "capacity": 22240.0, "lat": -5.61817222, "lon": -37.04075833}, {"name": "Marangatu 4", "state": "PI", "type": "UFV", "phase": "Opera\u00e7\u00e3o", "ceg": "UFVRSPI037783001", "start": "2024-04-19T00:00:00", "capacity": 30000.0, "lat": -4.09950278, "lon": -41.48329444}, {"name": "Marangatu 5", "state": "PI", "type": "UFV", "phase": "Opera\u00e7\u00e3o", "ceg": "UFVRSPI037784801", "start": "2024-04-19T00:00:00", "capacity": 30000.0, "lat": -4.11422778, "lon": -41.49757778}, {"name": "Marangatu 6", "state": "PI", "type": "UFV", "phase": "Opera\u00e7\u00e3o", "ceg": "UFVRSPI037785601", "start": "2024-04-19T00:00:00", "capacity": 30000.0, "lat": -4.11773889, "lon": -41.49170278}, {"name": "Marangatu 1", "state": "PI", "type": "UFV", "phase": "Opera\u00e7\u00e3o", "ceg": "UFVRSPI037786401", "start": "2024-04-19T00:00:00", "capacity": 30000.0, "lat": -4.09950278, "lon": -41.48329444}, {"name": "Marangatu 2", "state": "PI", "type": "UFV", "phase": "Opera\u00e7\u00e3o", "ceg": "UFVRSPI037787201", "start": "2024-04-19T00:00:00", "capacity": 30000.0, "lat": -4.10622778, "lon": -41.48427778}, {"name": "Marangatu 3", "state": "PI", "type": "UFV", "phase": "Opera\u00e7\u00e3o", "ceg": "UFVRSPI037788001", "start": "2024-04-19T00:00:00", "capacity": 30000.0, "lat": -4.10980278, "lon": -41.49275833}, {"name": "Serra do Mel I", "state": "RN", "type": "UFV", "phase": "Opera\u00e7\u00e3o", "ceg": "UFVRSRN037811901", "start": "2022-05-25T00:00:00", "capacity": 137480.0, "lat": -5.12155528, "lon": -37.03030611}, {"name": "Serra do Mel II", "state": "RN", "type": "UFV", "phase": "Opera\u00e7\u00e3o", "ceg": "UFVRSRN037812701", "start": "2022-06-10T00:00:00", "capacity": 103110.0, "lat": -5.12182444, "lon": -37.02087333}, {"name": "Lar do Sol 1 (Antiga Leo Silveira 1)", "state": "MG", "type": "UFV", "phase": "Opera\u00e7\u00e3o", "ceg": "UFVRSMG037830501", "start": "2022-09-07T00:00:00", "capacity": 49500.0, "lat": -17.36182778, "lon": -44.88218889}, {"name": "Lar do Sol 2 (Antiga L\u00e9o Silveira 2)", "state": "MG", "type": "UFV", "phase": "Opera\u00e7\u00e3o", "ceg": "UFVRSMG037831301", "start": "2022-10-20T00:00:00", "capacity": 49500.0, "lat": -17.35747777, "lon": -44.87386943}, {"name": "Lar do Sol 3 (Antiga Leo Silveira 3)", "state": "MG", "type": "UFV", "phase": "Opera\u00e7\u00e3o", "ceg": "UFVRSMG037832101", "start": "2023-03-14T00:00:00", "capacity": 49500.0, "lat": -17.37134444, "lon": -44.92365}, {"name": "Lar do Sol 4 (Antiga Leo Silveira 4)", "state": "MG", "type": "UFV", "phase": "Opera\u00e7\u00e3o", "ceg": "UFVRSMG037833001", "start": "2023-03-14T00:00:00", "capacity": 49500.0, "lat": -17.37696944, "lon": -44.91820278}, {"name": "Lar do Sol 5 (Antiga Leo Silveira 5)", "state": "MG", "type": "UFV", "phase": "Opera\u00e7\u00e3o", "ceg": "UFVRSMG037834801", "start": "2023-04-12T00:00:00", "capacity": 49500.0, "lat": -17.37585, "lon": -44.91971666}, {"name": "Lar do Sol 6 (Antiga Leo Silveira 6)", "state": "MG", "type": "UFV", "phase": "Opera\u00e7\u00e3o", "ceg": "UFVRSMG037835601", "start": "2023-04-12T00:00:00", "capacity": 49500.0, "lat": -17.44087778, "lon": -44.92624722}, {"name": "Lar do Sol 7 (Antiga Leo Silveira 7)", "state": "MG", "type": "UFV", "phase": "Opera\u00e7\u00e3o", "ceg": "UFVRSMG037836401", "start": "2022-09-06T00:00:00", "capacity": 49500.0, "lat": -17.34605278, "lon": -44.860625}, {"name": "Lar do Sol 8 (Antiga Leo Silveira 8)", "state": "MG", "type": "UFV", "phase": "Opera\u00e7\u00e3o", "ceg": "UFVRSMG037837201", "start": "2022-11-17T00:00:00", "capacity": 49500.0, "lat": -17.33138889, "lon": -44.86916667}, {"name": "Lar do Sol 9 (Antiga Leo Silveira 9)", "state": "MG", "type": "UFV", "phase": "Opera\u00e7\u00e3o", "ceg": "UFVRSMG037838001", "start": "2022-10-26T00:00:00", "capacity": 49500.0, "lat": -17.34888888, "lon": -44.87805556}, {"name": "Lar do Sol 10 (Antiga Leo Silveira 10)", "state": "MG", "type": "UFV", "phase": "Opera\u00e7\u00e3o", "ceg": "UFVRSMG037839901", "start": "2022-09-28T00:00:00", "capacity": 49500.0, "lat": -17.34277778, "lon": -44.89722222}, {"name": "Lavras 1", "state": "CE", "type": "UFV", "phase": "Opera\u00e7\u00e3o", "ceg": "UFVRSCE037865801", "start": "2022-07-29T00:00:00", "capacity": 27000.0, "lat": -3.792375, "lon": -38.91821865}, {"name": "Lavras 2", "state": "CE", "type": "UFV", "phase": "Opera\u00e7\u00e3o", "ceg": "UFVRSCE037866601", "start": "2022-07-29T00:00:00", "capacity": 27000.0, "lat": -3.79511667, "lon": -38.91820913}, {"name": "Lavras 3", "state": "CE", "type": "UFV", "phase": "Opera\u00e7\u00e3o", "ceg": "UFVRSCE037867401", "start": "2022-07-29T00:00:00", "capacity": 27000.0, "lat": -3.79785833, "lon": -38.91820913}, {"name": "Lavras 4", "state": "CE", "type": "UFV", "phase": "Opera\u00e7\u00e3o", "ceg": "UFVRSCE037868201", "start": "2022-07-29T00:00:00", "capacity": 27000.0, "lat": -3.8006, "lon": -38.91820913}, {"name": "Lavras 5", "state": "CE", "type": "UFV", "phase": "Opera\u00e7\u00e3o", "ceg": "UFVRSCE037869001", "start": "2022-07-29T00:00:00", "capacity": 27000.0, "lat": -3.80332937, "lon": -38.91821587}, {"name": "Lavras 6", "state": "CE", "type": "UFV", "phase": "Opera\u00e7\u00e3o", "ceg": "UFVRSCE037870401", "start": "2022-08-12T00:00:00", "capacity": 26000.0, "lat": -3.80608056, "lon": -38.92007778}, {"name": "Lavras 7", "state": "CE", "type": "UFV", "phase": "Opera\u00e7\u00e3o", "ceg": "UFVRSCE037871201", "start": "2022-08-12T00:00:00", "capacity": 20000.0, "lat": -3.80498889, "lon": -38.93750278}, {"name": "Lavras 8", "state": "CE", "type": "UFV", "phase": "Opera\u00e7\u00e3o", "ceg": "UFVRSCE037872001", "start": "2022-08-12T00:00:00", "capacity": 20000.0, "lat": -3.79939722, "lon": -38.93563889}, {"name": "Coremas VIII", "state": "PB", "type": "UFV", "phase": "Opera\u00e7\u00e3o", "ceg": "UFVRSPB037916601", "start": "2022-08-30T00:00:00", "capacity": 27000.0, "lat": -6.94981222, "lon": -38.00240611}, {"name": "Marangatu 9", "state": "PI", "type": "UFV", "phase": "Opera\u00e7\u00e3o", "ceg": "UFVRSPI038351101", "start": "2024-04-19T00:00:00", "capacity": 30000.0, "lat": -4.12819722, "lon": -41.45427778}, {"name": "Marangatu 10", "state": "PI", "type": "UFV", "phase": "Opera\u00e7\u00e3o", "ceg": "UFVRSPI038352001", "start": "2024-04-19T00:00:00", "capacity": 30000.0, "lat": -4.13429444, "lon": -41.45283889}, {"name": "Marangatu 7", "state": "PI", "type": "UFV", "phase": "Opera\u00e7\u00e3o", "ceg": "UFVRSPI038349001", "start": "2024-04-19T00:00:00", "capacity": 30000.0, "lat": -4.12038333, "lon": -41.43496389}, {"name": "Marangatu 8", "state": "PI", "type": "UFV", "phase": "Opera\u00e7\u00e3o", "ceg": "UFVRSPI038350301", "start": "2024-04-19T00:00:00", "capacity": 30000.0, "lat": -4.12656111, "lon": -41.44551667}, {"name": "Marangatu 11", "state": "PI", "type": "UFV", "phase": "Opera\u00e7\u00e3o", "ceg": "UFVRSPI038353801", "start": "2024-04-19T00:00:00", "capacity": 30000.0, "lat": -4.14443611, "lon": -41.45518333}, {"name": "Marangatu 12", "state": "PI", "type": "UFV", "phase": "Opera\u00e7\u00e3o", "ceg": "UFVRSPI038354601", "start": "2024-04-19T00:00:00", "capacity": 30000.0, "lat": -4.14156667, "lon": -41.44532778}, {"name": "Panat\u00ed 1", "state": "CE", "type": "UFV", "phase": "Opera\u00e7\u00e3o", "ceg": "UFVRSCE038389901", "start": "2024-01-25T00:00:00", "capacity": 30000.0, "lat": -5.32588333, "lon": -38.82318611}, {"name": "Panat\u00ed 2", "state": "CE", "type": "UFV", "phase": "Opera\u00e7\u00e3o", "ceg": "UFVRSCE038390201", "start": "2024-01-25T00:00:00", "capacity": 30000.0, "lat": -5.33226111, "lon": -38.82165277}, {"name": "Panat\u00ed 3", "state": "CE", "type": "UFV", "phase": "Opera\u00e7\u00e3o", "ceg": "UFVRSCE038392901", "start": "2024-01-25T00:00:00", "capacity": 30000.0, "lat": -5.33484444, "lon": -38.81440833}, {"name": "Panat\u00ed 4", "state": "CE", "type": "UFV", "phase": "Opera\u00e7\u00e3o", "ceg": "UFVRSCE038393701", "start": "2024-01-25T00:00:00", "capacity": 30000.0, "lat": -5.33998333, "lon": -38.815875}, {"name": "Panat\u00ed 5", "state": "CE", "type": "UFV", "phase": "Opera\u00e7\u00e3o", "ceg": "UFVRSCE038394501", "start": "2024-01-25T00:00:00", "capacity": 30000.0, "lat": -5.33900834, "lon": -38.807275}, {"name": "Panat\u00ed 6", "state": "CE", "type": "UFV", "phase": "Opera\u00e7\u00e3o", "ceg": "UFVRSCE038395301", "start": "2024-02-02T00:00:00", "capacity": 30000.0, "lat": -5.345675, "lon": -38.80689444}, {"name": "Siti\u00e1 1", "state": "CE", "type": "UFV", "phase": "Opera\u00e7\u00e3o", "ceg": "UFVRSCE038396101", "start": "2024-02-02T00:00:00", "capacity": 25000.0, "lat": -5.34742778, "lon": -38.80109166}, {"name": "Siti\u00e1 2", "state": "CE", "type": "UFV", "phase": "Opera\u00e7\u00e3o", "ceg": "UFVRSCE038397001", "start": "2024-02-02T00:00:00", "capacity": 25000.0, "lat": -5.34935555, "lon": -38.79637777}, {"name": "Belmonte 1-1", "state": "PE", "type": "UFV", "phase": "Opera\u00e7\u00e3o", "ceg": "UFVRSPE040725901", "start": "2023-12-05T00:00:00", "capacity": 50000.0, "lat": -7.85585694, "lon": -38.8278175}, {"name": "Belmonte 1-2", "state": "PE", "type": "UFV", "phase": "Opera\u00e7\u00e3o", "ceg": "UFVRSPE040726701", "start": "2023-12-05T00:00:00", "capacity": 50000.0, "lat": -7.85937694, "lon": -38.81279389}, {"name": "Belmonte 1-3", "state": "PE", "type": "UFV", "phase": "Opera\u00e7\u00e3o", "ceg": "UFVRSPE040727501", "start": "2023-12-05T00:00:00", "capacity": 50000.0, "lat": -7.86359889, "lon": -38.83224111}, {"name": "Belmonte 1-4", "state": "PE", "type": "UFV", "phase": "Opera\u00e7\u00e3o", "ceg": "UFVRSPE040728301", "start": "2023-12-05T00:00:00", "capacity": 5001.0, "lat": -7.864815, "lon": -38.82228028}, {"name": "Belmonte 2-1", "state": "PE", "type": "UFV", "phase": "Opera\u00e7\u00e3o", "ceg": "UFVRSPE040735601", "start": "2023-10-25T00:00:00", "capacity": 50000.0, "lat": -7.84431111, "lon": -38.83301944}, {"name": "Belmonte 2-2", "state": "PE", "type": "UFV", "phase": "Opera\u00e7\u00e3o", "ceg": "UFVRSPE040736401", "start": "2023-10-25T00:00:00", "capacity": 50000.0, "lat": -7.85595279, "lon": -38.84537777}, {"name": "Belmonte 2-3", "state": "PE", "type": "UFV", "phase": "Opera\u00e7\u00e3o", "ceg": "UFVRSPE040737201", "start": "2023-10-26T00:00:00", "capacity": 50000.0, "lat": -7.85174444, "lon": -38.83797778}, {"name": "Belmonte 2-4", "state": "PE", "type": "UFV", "phase": "Opera\u00e7\u00e3o", "ceg": "UFVRSPE040738001", "start": "2023-11-18T00:00:00", "capacity": 50000.0, "lat": -7.85162222, "lon": -38.81721389}, {"name": "Belmonte 2-5", "state": "PE", "type": "UFV", "phase": "Opera\u00e7\u00e3o", "ceg": "UFVRSPE040739901", "start": "2023-11-22T00:00:00", "capacity": 50000.0, "lat": -7.863775, "lon": -38.84473056}, {"name": "Arax\u00e1 1", "state": "MG", "type": "UFV", "phase": "Opera\u00e7\u00e3o", "ceg": "UFVRSMG040851401", "start": "2023-03-01T00:00:00", "capacity": 45000.0, "lat": -19.75731667, "lon": -47.040783}, {"name": "Arax\u00e1 2", "state": "MG", "type": "UFV", "phase": "Opera\u00e7\u00e3o", "ceg": "UFVRSMG040852201", "start": "2023-02-28T00:00:00", "capacity": 45000.0, "lat": -19.77404167, "lon": -47.049075}, {"name": "Jana\u00faba 1", "state": "MG", "type": "UFV", "phase": "Opera\u00e7\u00e3o", "ceg": "UFVRSMG040857301", "start": "2022-07-30T00:00:00", "capacity": 50000.0, "lat": -15.92110556, "lon": -43.476836}, {"name": "Jana\u00faba 2", "state": "MG", "type": "UFV", "phase": "Opera\u00e7\u00e3o", "ceg": "UFVRSMG040858101", "start": "2022-08-10T00:00:00", "capacity": 50000.0, "lat": -15.92482222, "lon": -43.469025}, {"name": "Jana\u00faba 3", "state": "MG", "type": "UFV", "phase": "Opera\u00e7\u00e3o", "ceg": "UFVRSMG040859001", "start": "2022-07-30T00:00:00", "capacity": 50000.0, "lat": -15.93401944, "lon": -43.476719}, {"name": "Jana\u00faba 4", "state": "MG", "type": "UFV", "phase": "Opera\u00e7\u00e3o", "ceg": "UFVRSMG040860301", "start": "2022-07-30T00:00:00", "capacity": 50000.0, "lat": -15.94311667, "lon": -43.491981}, {"name": "Jana\u00faba 5", "state": "MG", "type": "UFV", "phase": "Opera\u00e7\u00e3o", "ceg": "UFVRSMG040861101", "start": "2022-10-04T00:00:00", "capacity": 50000.0, "lat": -15.94876389, "lon": -43.501808}, {"name": "Jana\u00faba 6", "state": "MG", "type": "UFV", "phase": "Opera\u00e7\u00e3o", "ceg": "UFVRSMG040862001", "start": "2022-09-28T00:00:00", "capacity": 50000.0, "lat": -15.95475278, "lon": -43.501103}, {"name": "Jana\u00faba 7", "state": "MG", "type": "UFV", "phase": "Opera\u00e7\u00e3o", "ceg": "UFVRSMG040863801", "start": "2022-09-22T00:00:00", "capacity": 50000.0, "lat": -15.97050278, "lon": -43.505181}, {"name": "Jana\u00faba 8", "state": "MG", "type": "UFV", "phase": "Opera\u00e7\u00e3o", "ceg": "UFVRSMG040864601", "start": "2022-09-06T00:00:00", "capacity": 50000.0, "lat": -15.97275, "lon": -43.514286}, {"name": "Jana\u00faba 9", "state": "MG", "type": "UFV", "phase": "Opera\u00e7\u00e3o", "ceg": "UFVRSMG040865401", "start": "2022-08-23T00:00:00", "capacity": 50000.0, "lat": -15.96121111, "lon": -43.518331}, {"name": "Jana\u00faba 10", "state": "MG", "type": "UFV", "phase": "Opera\u00e7\u00e3o", "ceg": "UFVRSMG040866201", "start": "2022-10-25T00:00:00", "capacity": 50000.0, "lat": -15.96068333, "lon": -43.530942}, {"name": "Jana\u00faba 11", "state": "MG", "type": "UFV", "phase": "Opera\u00e7\u00e3o", "ceg": "UFVRSMG040867001", "start": "2022-10-25T00:00:00", "capacity": 50000.0, "lat": -15.96415, "lon": -43.54688889}, {"name": "Jana\u00faba 12", "state": "MG", "type": "UFV", "phase": "Opera\u00e7\u00e3o", "ceg": "UFVRSMG040868901", "start": "2022-08-26T00:00:00", "capacity": 50000.0, "lat": -15.93676389, "lon": -43.50355555}, {"name": "Jana\u00faba 13", "state": "MG", "type": "UFV", "phase": "Opera\u00e7\u00e3o", "ceg": "UFVRSMG040869701", "start": "2022-09-10T00:00:00", "capacity": 50000.0, "lat": -15.93896389, "lon": -43.52501389}, {"name": "Jana\u00faba 14", "state": "MG", "type": "UFV", "phase": "Opera\u00e7\u00e3o", "ceg": "UFVRSMG040870001", "start": "2022-09-13T00:00:00", "capacity": 50000.0, "lat": -15.94684722, "lon": -43.51805556}, {"name": "Jana\u00faba 15", "state": "MG", "type": "UFV", "phase": "Opera\u00e7\u00e3o", "ceg": "UFVRSMG040871901", "start": "2023-02-28T00:00:00", "capacity": 50000.0, "lat": -15.94928889, "lon": -43.5274}, {"name": "Jana\u00faba 16", "state": "MG", "type": "UFV", "phase": "Opera\u00e7\u00e3o", "ceg": "UFVRSMG040872701", "start": "2023-03-10T00:00:00", "capacity": 50000.0, "lat": -15.941025, "lon": -43.53976666}, {"name": "Jana\u00faba 17", "state": "MG", "type": "UFV", "phase": "Opera\u00e7\u00e3o", "ceg": "UFVRSMG040873501", "start": "2023-02-28T00:00:00", "capacity": 50000.0, "lat": -15.91896944, "lon": -43.54649167}, {"name": "Jana\u00faba 18", "state": "MG", "type": "UFV", "phase": "Opera\u00e7\u00e3o", "ceg": "UFVRSMG040874301", "start": "2023-05-31T00:00:00", "capacity": 50000.0, "lat": -15.92294722, "lon": -43.53449722}, {"name": "Jana\u00faba 19", "state": "MG", "type": "UFV", "phase": "Opera\u00e7\u00e3o", "ceg": "UFVRSMG040875101", "start": "2023-03-24T00:00:00", "capacity": 50000.0, "lat": -15.91762222, "lon": -43.52173333}, {"name": "Jana\u00faba 20", "state": "MG", "type": "UFV", "phase": "Opera\u00e7\u00e3o", "ceg": "UFVRSMG040876001", "start": "2023-04-18T00:00:00", "capacity": 50000.0, "lat": -15.91333056, "lon": -43.50762777}, {"name": "Ribeiro Gon\u00e7alves I", "state": "PI", "type": "UFV", "phase": "Opera\u00e7\u00e3o", "ceg": "UFVRSPI041904401", "start": "2024-05-23T00:00:00", "capacity": 16929.0, "lat": -7.65785556, "lon": -45.18700833}, {"name": "Ribeiro Gon\u00e7alves II", "state": "PI", "type": "UFV", "phase": "Opera\u00e7\u00e3o", "ceg": "UFVRSPI041905201", "start": "2024-05-23T00:00:00", "capacity": 40755.0, "lat": -7.66613611, "lon": -45.17949445}, {"name": "Ribeiro Gon\u00e7alves III", "state": "PI", "type": "UFV", "phase": "Opera\u00e7\u00e3o", "ceg": "UFVRSPI041906001", "start": "2024-05-23T00:00:00", "capacity": 40755.0, "lat": -7.68213889, "lon": -45.17405277}, {"name": "Ribeiro Gon\u00e7alves IV", "state": "PI", "type": "UFV", "phase": "Opera\u00e7\u00e3o", "ceg": "UFVRSPI041907901", "start": "2024-05-23T00:00:00", "capacity": 20691.0, "lat": -7.67577778, "lon": -45.17897222}, {"name": "Ribeiro Gon\u00e7alves VI", "state": "PI", "type": "UFV", "phase": "Opera\u00e7\u00e3o", "ceg": "UFVRSPI041909501", "start": "2024-05-23T00:00:00", "capacity": 36993.0, "lat": -7.66786666, "lon": -45.17254166}, {"name": "Bom Nome 1-5", "state": "PE", "type": "UFV", "phase": "Opera\u00e7\u00e3o", "ceg": "UFVRSPE042927901", "start": "2022-02-03T00:00:00", "capacity": 50000.0, "lat": -7.884, "lon": -38.69473179}, {"name": "Bom Nome 1-6", "state": "PE", "type": "UFV", "phase": "Opera\u00e7\u00e3o", "ceg": "UFVRSPE042928701", "start": "2022-02-03T00:00:00", "capacity": 50000.0, "lat": -7.88532222, "lon": -38.70541389}, {"name": "H\u00e9lio Valgas 1", "state": "MG", "type": "UFV", "phase": "Opera\u00e7\u00e3o", "ceg": "UFVRSMG042991001", "start": "2023-08-19T00:00:00", "capacity": 50000.0, "lat": -17.53559166, "lon": -44.77671389}, {"name": "H\u00e9lio Valgas 2", "state": "MG", "type": "UFV", "phase": "Opera\u00e7\u00e3o", "ceg": "UFVRSMG042992901", "start": "2023-08-19T00:00:00", "capacity": 50000.0, "lat": -17.524, "lon": -44.79363889}, {"name": "H\u00e9lio Valgas 3", "state": "MG", "type": "UFV", "phase": "Opera\u00e7\u00e3o", "ceg": "UFVRSMG042993701", "start": "2023-08-19T00:00:00", "capacity": 50000.0, "lat": -17.54585278, "lon": -44.62861944}, {"name": "H\u00e9lio Valgas 4", "state": "MG", "type": "UFV", "phase": "Opera\u00e7\u00e3o", "ceg": "UFVRSMG042994501", "start": "2023-08-09T00:00:00", "capacity": 50000.0, "lat": -17.52021389, "lon": -44.80493333}, {"name": "H\u00e9lio Valgas 5", "state": "MG", "type": "UFV", "phase": "Opera\u00e7\u00e3o", "ceg": "UFVRSMG042995301", "start": "2023-08-05T00:00:00", "capacity": 50000.0, "lat": -17.51728333, "lon": -44.78419167}, {"name": "H\u00e9lio Valgas 6", "state": "MG", "type": "UFV", "phase": "Opera\u00e7\u00e3o", "ceg": "UFVRSMG042996101", "start": "2023-08-05T00:00:00", "capacity": 50000.0, "lat": -17.50235833, "lon": -44.80338333}, {"name": "H\u00e9lio Valgas 7", "state": "MG", "type": "UFV", "phase": "Opera\u00e7\u00e3o", "ceg": "UFVRSMG042997001", "start": "2023-08-05T00:00:00", "capacity": 50000.0, "lat": -17.49737222, "lon": -44.81794445}, {"name": "H\u00e9lio Valgas 8", "state": "MG", "type": "UFV", "phase": "Opera\u00e7\u00e3o", "ceg": "UFVRSMG042998801", "start": "2023-08-10T00:00:00", "capacity": 50000.0, "lat": -17.49043611, "lon": -44.80840833}, {"name": "H\u00e9lio Valgas 9", "state": "MG", "type": "UFV", "phase": "Opera\u00e7\u00e3o", "ceg": "UFVRSMG042999601", "start": "2023-08-10T00:00:00", "capacity": 50000.0, "lat": -17.494075, "lon": -44.79283889}, {"name": "H\u00e9lio Valgas 10", "state": "MG", "type": "UFV", "phase": "Opera\u00e7\u00e3o", "ceg": "UFVRSMG043001301", "start": "2023-08-04T00:00:00", "capacity": 50000.0, "lat": -17.48416944, "lon": -44.79046944}, {"name": "Ja\u00edba CN", "state": "MG", "type": "UFV", "phase": "Opera\u00e7\u00e3o", "ceg": "UFVRSMG043147801", "start": "2024-04-12T00:00:00", "capacity": 40000.0, "lat": -15.3169388, "lon": -43.62468316}, {"name": "Ja\u00edba CE", "state": "MG", "type": "UFV", "phase": "Opera\u00e7\u00e3o", "ceg": "UFVRSMG043148601", "start": "2024-05-04T00:00:00", "capacity": 40000.0, "lat": -15.31074722, "lon": -43.61703333}, {"name": "Ja\u00edba C", "state": "MG", "type": "UFV", "phase": "Opera\u00e7\u00e3o", "ceg": "UFVRSMG043150801", "start": "2024-03-29T00:00:00", "capacity": 40000.0, "lat": -15.32318885, "lon": -43.62879167}, {"name": "Ja\u00edba CO", "state": "MG", "type": "UFV", "phase": "Opera\u00e7\u00e3o", "ceg": "UFVRSMG043151601", "start": "2024-03-13T00:00:00", "capacity": 40000.0, "lat": -15.31813056, "lon": -43.64209166}, {"name": "Ja\u00edba L2", "state": "MG", "type": "UFV", "phase": "Opera\u00e7\u00e3o", "ceg": "UFVRSMG043152401", "start": "2024-08-06T00:00:00", "capacity": 20000.0, "lat": -15.33213055, "lon": -43.60812509}, {"name": "Ja\u00edba NO2", "state": "MG", "type": "UFV", "phase": "Opera\u00e7\u00e3o", "ceg": "UFVRSMG043153201", "start": "2024-03-02T00:00:00", "capacity": 40000.0, "lat": -15.3083, "lon": -43.6407}, {"name": "Ja\u00edba NE2", "state": "MG", "type": "UFV", "phase": "Opera\u00e7\u00e3o", "ceg": "UFVRSMG043154001", "start": "2024-08-28T00:00:00", "capacity": 40000.0, "lat": -15.30318078, "lon": -43.60960826}, {"name": "Ja\u00edba SE2", "state": "MG", "type": "UFV", "phase": "Opera\u00e7\u00e3o", "ceg": "UFVRSMG043155901", "start": "2024-07-27T00:00:00", "capacity": 40000.0, "lat": -15.34178332, "lon": -43.61339988}, {"name": "Ja\u00edba SO", "state": "MG", "type": "UFV", "phase": "Opera\u00e7\u00e3o", "ceg": "UFVRSMG043156701", "start": "2024-04-03T00:00:00", "capacity": 40000.0, "lat": -15.32845816, "lon": -43.64000292}, {"name": "Ja\u00edba NE3", "state": "MG", "type": "UFV", "phase": "Opera\u00e7\u00e3o", "ceg": "UFVRSMG043157501", "start": "2024-09-20T00:00:00", "capacity": 40000.0, "lat": -15.31122497, "lon": -43.600625}, {"name": "Ja\u00edba S", "state": "MG", "type": "UFV", "phase": "Opera\u00e7\u00e3o", "ceg": "UFVRSMG043158301", "start": "2024-06-27T00:00:00", "capacity": 40000.0, "lat": -15.34073594, "lon": -43.62999971}, {"name": "Ja\u00edba SE1", "state": "MG", "type": "UFV", "phase": "Opera\u00e7\u00e3o", "ceg": "UFVRSMG043162101", "start": "2023-06-02T00:00:00", "capacity": 40000.0, "lat": -15.32997778, "lon": -43.61865278}, {"name": "Ja\u00edba L1", "state": "MG", "type": "UFV", "phase": "Opera\u00e7\u00e3o", "ceg": "UFVRSMG043163001", "start": "2024-08-13T00:00:00", "capacity": 40000.0, "lat": -15.32170554, "lon": -43.60491667}, {"name": "Ja\u00edba CS", "state": "MG", "type": "UFV", "phase": "Opera\u00e7\u00e3o", "ceg": "UFVRSMG043164801", "start": "2024-05-25T00:00:00", "capacity": 40000.0, "lat": -15.33219168, "lon": -43.62942222}, {"name": "Rio do Peixe I", "state": "PB", "type": "UFV", "phase": "Opera\u00e7\u00e3o", "ceg": "UFVRSPB043210501", "start": "2022-08-31T00:00:00", "capacity": 34400.0, "lat": -6.79295852, "lon": -38.48397479}, {"name": "Rio do Peixe II", "state": "PB", "type": "UFV", "phase": "Opera\u00e7\u00e3o", "ceg": "UFVRSPB043215601", "start": "2022-09-01T00:00:00", "capacity": 34400.0, "lat": -6.80147499, "lon": -38.47673611}, {"name": "Advogado Eduardo Soares (Antiga Boa Esperan\u00e7a)", "state": "MG", "type": "UFV", "phase": "Opera\u00e7\u00e3o", "ceg": "UFVRSMG043221001", "start": "2024-07-06T00:00:00", "capacity": 85000.0, "lat": -16.72708889, "lon": -44.05634722}, {"name": "Ita 01", "state": "MG", "type": "UFV", "phase": "Opera\u00e7\u00e3o", "ceg": "UFVRSMG043223701", "start": "2019-03-09T00:00:00", "capacity": 3375.0, "lat": -15.12944444, "lon": -44.13861111}, {"name": "Juazeiro VII", "state": "BA", "type": "UFV", "phase": "Opera\u00e7\u00e3o", "ceg": "UFVRSBA043286501", "start": "2021-11-12T00:00:00", "capacity": 47292.0, "lat": -9.53602222, "lon": -40.486125}, {"name": "Belmonte 2-6", "state": "PE", "type": "UFV", "phase": "Opera\u00e7\u00e3o", "ceg": "UFVRSPE043267901", "start": "2023-11-09T00:00:00", "capacity": 50000.0, "lat": -7.87568611, "lon": -38.84341389}, {"name": "Ita 02", "state": "MG", "type": "UFV", "phase": "Opera\u00e7\u00e3o", "ceg": "UFVRSMG043268701", "start": "2019-03-09T00:00:00", "capacity": 3250.0, "lat": -15.12666667, "lon": -44.13472222}, {"name": "Juazeiro V", "state": "BA", "type": "UFV", "phase": "Opera\u00e7\u00e3o", "ceg": "UFVRSBA043284901", "start": "2021-10-28T00:00:00", "capacity": 47292.0, "lat": -9.52640556, "lon": -40.481136}, {"name": "Juazeiro VI", "state": "BA", "type": "UFV", "phase": "Opera\u00e7\u00e3o", "ceg": "UFVRSBA043285701", "start": "2021-12-23T00:00:00", "capacity": 47292.0, "lat": -9.52155833, "lon": -40.465489}, {"name": "Ribeiro Gon\u00e7alves VII", "state": "PI", "type": "UFV", "phase": "Opera\u00e7\u00e3o", "ceg": "UFVRSPI044295001", "start": "2024-05-23T00:00:00", "capacity": 33545.0, "lat": -7.67597222, "lon": -45.16527222}, {"name": "Ribeiro Gon\u00e7alves VIII", "state": "PI", "type": "UFV", "phase": "Opera\u00e7\u00e3o", "ceg": "UFVRSPI044296801", "start": "2024-05-23T00:00:00", "capacity": 33545.0, "lat": -7.67683888, "lon": -45.17095}, {"name": "Luzia 2", "state": "PB", "type": "UFV", "phase": "Opera\u00e7\u00e3o", "ceg": "UFVRSPB044469301", "start": "2022-09-16T00:00:00", "capacity": 58932.0, "lat": -6.831925, "lon": -36.92888056}, {"name": "Luzia 3", "state": "PB", "type": "UFV", "phase": "Opera\u00e7\u00e3o", "ceg": "UFVRSPB044470701", "start": "2022-07-06T00:00:00", "capacity": 58932.0, "lat": -6.84570555, "lon": -36.92991389}, {"name": "Serra do Mato III", "state": "CE", "type": "UFV", "phase": "Opera\u00e7\u00e3o", "ceg": "UFVRSCE044495201", "start": "2023-05-26T00:00:00", "capacity": 47362.0, "lat": -3.31921389, "lon": -39.37533333}, {"name": "Serra do Mato IV", "state": "CE", "type": "UFV", "phase": "Opera\u00e7\u00e3o", "ceg": "UFVRSCE044496001", "start": "2023-07-06T00:00:00", "capacity": 54128.0, "lat": -3.31471945, "lon": -39.39400278}, {"name": "Sert\u00e3o solar Barreiras XIX", "state": "BA", "type": "UFV", "phase": "Opera\u00e7\u00e3o", "ceg": "UFVRSBA044510001", "start": "2024-07-10T00:00:00", "capacity": 50000.0, "lat": -12.05400833, "lon": -45.0756}, {"name": "Sert\u00e3o Solar Barreiras XV", "state": "BA", "type": "UFV", "phase": "Opera\u00e7\u00e3o", "ceg": "UFVRSBA044511801", "start": "2024-07-27T00:00:00", "capacity": 50000.0, "lat": -12.06099167, "lon": -45.07496666}, {"name": "Sert\u00e3o Solar Barreiras XVI", "state": "BA", "type": "UFV", "phase": "Opera\u00e7\u00e3o", "ceg": "UFVRSBA044512601", "start": "2024-07-06T00:00:00", "capacity": 50000.0, "lat": -12.06323333, "lon": -45.08730555}, {"name": "Sert\u00e3o Solar Barreiras XVII", "state": "BA", "type": "UFV", "phase": "Opera\u00e7\u00e3o", "ceg": "UFVRSBA044513401", "start": "2024-07-10T00:00:00", "capacity": 50000.0, "lat": -12.05740278, "lon": -45.08611389}, {"name": "Sert\u00e3o Solar Barreiras XVIII", "state": "BA", "type": "UFV", "phase": "Opera\u00e7\u00e3o", "ceg": "UFVRSBA044514201", "start": "2024-07-06T00:00:00", "capacity": 50000.0, "lat": -12.05421944, "lon": -45.09344166}, {"name": "Sert\u00e3o Solar Barreiras XX", "state": "BA", "type": "UFV", "phase": "Opera\u00e7\u00e3o", "ceg": "UFVRSBA044515001", "start": "2024-07-10T00:00:00", "capacity": 50000.0, "lat": -12.04749445, "lon": -45.09290833}, {"name": "Milagres I", "state": "CE", "type": "UFV", "phase": "Opera\u00e7\u00e3o", "ceg": "UFVRSCE044573801", "start": "2023-12-19T00:00:00", "capacity": 32740.0, "lat": -7.38182833, "lon": -38.99855028}, {"name": "Milagres II", "state": "CE", "type": "UFV", "phase": "Opera\u00e7\u00e3o", "ceg": "UFVRSCE044574601", "start": "2023-12-19T00:00:00", "capacity": 32740.0, "lat": -7.38591676, "lon": -38.98819302}, {"name": "Milagres III", "state": "CE", "type": "UFV", "phase": "Opera\u00e7\u00e3o", "ceg": "UFVRSCE044575401", "start": "2023-12-20T00:00:00", "capacity": 32740.0, "lat": -7.38904661, "lon": -38.99026794}, {"name": "Milagres V", "state": "CE", "type": "UFV", "phase": "Opera\u00e7\u00e3o", "ceg": "UFVRSCE044576201", "start": "2023-12-20T00:00:00", "capacity": 32740.0, "lat": -7.39059322, "lon": -38.98107952}, {"name": "Milagres IV", "state": "CE", "type": "UFV", "phase": "Opera\u00e7\u00e3o", "ceg": "UFVRSCE044579701", "start": "2023-12-20T00:00:00", "capacity": 32740.0, "lat": -7.38417954, "lon": -38.97683}, {"name": "Juazeiro VIII", "state": "BA", "type": "UFV", "phase": "Opera\u00e7\u00e3o", "ceg": "UFVRSBA044754401", "start": "2021-11-12T00:00:00", "capacity": 15201.0, "lat": -9.545425, "lon": -40.477819}, {"name": "Monte Verde Solar V", "state": "RN", "type": "UFV", "phase": "Opera\u00e7\u00e3o", "ceg": "UFVRSRN045020001", "start": "2024-06-11T00:00:00", "capacity": 42471.13, "lat": -5.41852611, "lon": -36.231125}, {"name": "Monte Verde Solar VII", "state": "RN", "type": "UFV", "phase": "Opera\u00e7\u00e3o", "ceg": "UFVRSRN045021901", "start": "2024-06-22T00:00:00", "capacity": 42471.13, "lat": -5.413825, "lon": -36.20329111}, {"name": "Luiz Gonzaga I", "state": "PE", "type": "UFV", "phase": "Opera\u00e7\u00e3o", "ceg": "UFVRSPE045056101", "start": "2024-11-28T00:00:00", "capacity": 30000.0, "lat": -8.09430556, "lon": -39.33713056}, {"name": "Luiz Gonzaga II", "state": "PE", "type": "UFV", "phase": "Opera\u00e7\u00e3o", "ceg": "UFVRSPE045057001", "start": "2024-11-28T00:00:00", "capacity": 30000.0, "lat": -8.09179972, "lon": -39.33875195}, {"name": "Luiz Gonzaga III", "state": "PE", "type": "UFV", "phase": "Opera\u00e7\u00e3o", "ceg": "UFVRSPE045058801", "start": "2024-11-29T00:00:00", "capacity": 30000.0, "lat": -8.10438889, "lon": -39.34066666}, {"name": "Solatio Varzea 3", "state": "MG", "type": "UFV", "phase": "Opera\u00e7\u00e3o", "ceg": "UFVRSMG045071501", "start": "2024-06-15T00:00:00", "capacity": 45000.0, "lat": -17.62675556, "lon": -44.90769722}, {"name": "Solatio Varzea 4", "state": "MG", "type": "UFV", "phase": "Opera\u00e7\u00e3o", "ceg": "UFVRSMG045072301", "start": "2024-06-15T00:00:00", "capacity": 45000.0, "lat": -17.62303611, "lon": -44.91379722}, {"name": "Monte Verde Solar II", "state": "RN", "type": "UFV", "phase": "Opera\u00e7\u00e3o", "ceg": "UFVRSRN045154101", "start": "2024-03-07T00:00:00", "capacity": 42471.13, "lat": -5.42712889, "lon": -36.218646}, {"name": "Monte Verde Solar III", "state": "RN", "type": "UFV", "phase": "Opera\u00e7\u00e3o", "ceg": "UFVRSRN045155001", "start": "2024-03-07T00:00:00", "capacity": 42471.13, "lat": -5.41675806, "lon": -36.218746}, {"name": "Monte Verde Solar IV", "state": "RN", "type": "UFV", "phase": "Opera\u00e7\u00e3o", "ceg": "UFVRSRN045156801", "start": "2024-06-22T00:00:00", "capacity": 42471.13, "lat": -5.41201111, "lon": -36.231149}, {"name": "Ibimirim 3", "state": "PE", "type": "UFV", "phase": "Opera\u00e7\u00e3o", "ceg": "UFVRSPE057163601", "start": "2023-10-01T00:00:00", "capacity": 4994.0, "lat": -8.58444444, "lon": -37.61666667}, {"name": "Sol do Piau\u00ed", "state": "PI", "type": "UFV", "phase": "Opera\u00e7\u00e3o", "ceg": "UFVRSPI046552601", "start": "2024-01-03T00:00:00", "capacity": 48118.0, "lat": -8.01500833, "lon": -40.61032777}, {"name": "Vista Alegre I", "state": "MG", "type": "UFV", "phase": "Opera\u00e7\u00e3o", "ceg": "UFVRSMG046553401", "start": "2024-11-08T00:00:00", "capacity": 41173.0, "lat": -15.82285694, "lon": -43.42701833}, {"name": "Vista Alegre II", "state": "MG", "type": "UFV", "phase": "Opera\u00e7\u00e3o", "ceg": "UFVRSMG046554201", "start": "2024-11-15T00:00:00", "capacity": 41173.0, "lat": -15.83487584, "lon": -43.432785}, {"name": "Vista Alegre III", "state": "MG", "type": "UFV", "phase": "Opera\u00e7\u00e3o", "ceg": "UFVRSMG046555001", "start": "2024-11-08T00:00:00", "capacity": 41173.0, "lat": -15.8190925, "lon": -43.43400556}, {"name": "Vista Alegre V", "state": "MG", "type": "UFV", "phase": "Opera\u00e7\u00e3o", "ceg": "UFVRSMG046557701", "start": "2024-11-08T00:00:00", "capacity": 41173.0, "lat": -15.83012722, "lon": -43.43814972}, {"name": "Vista Alegre VII", "state": "MG", "type": "UFV", "phase": "Opera\u00e7\u00e3o", "ceg": "UFVRSMG046559301", "start": "2024-11-13T00:00:00", "capacity": 41173.0, "lat": -15.83334389, "lon": -43.45187056}, {"name": "Vista Alegre VIII", "state": "MG", "type": "UFV", "phase": "Opera\u00e7\u00e3o", "ceg": "UFVRSMG046560701", "start": "2024-11-09T00:00:00", "capacity": 41173.0, "lat": -15.82491917, "lon": -43.45344278}, {"name": "Vista Alegre IX", "state": "MG", "type": "UFV", "phase": "Opera\u00e7\u00e3o", "ceg": "UFVRSMG046561501", "start": "2024-11-09T00:00:00", "capacity": 41173.0, "lat": -15.8249675, "lon": -43.46144889}, {"name": "Caxiense", "state": "RS", "type": "UFV", "phase": "Opera\u00e7\u00e3o", "ceg": "UFVRSRS046811801", "start": "2020-01-13T00:00:00", "capacity": 1870.0, "lat": -29.18333333, "lon": -51.283333}, {"name": "S\u00e3o Pedro e Paulo VIII", "state": "PE", "type": "UFV", "phase": "Opera\u00e7\u00e3o", "ceg": "UFVRSPE046834701", "start": "2024-05-18T00:00:00", "capacity": 5800.0, "lat": -7.87869, "lon": -37.9851}, {"name": "Ibimirim 5", "state": "PE", "type": "UFV", "phase": "Opera\u00e7\u00e3o", "ceg": "UFVRSPE060587501", "start": "2023-10-01T00:00:00", "capacity": 4994.0, "lat": -8.58378061, "lon": -37.61242781}, {"name": "Ibimirim 6", "state": "PE", "type": "UFV", "phase": "Opera\u00e7\u00e3o", "ceg": "UFVRSPE060588301", "start": "2023-10-01T00:00:00", "capacity": 4994.0, "lat": -8.58555561, "lon": -37.6125}, {"name": "\u00c1gua Vermelha VII", "state": "SP", "type": "UFV", "phase": "Opera\u00e7\u00e3o", "ceg": "UFVRSSP046922001", "start": "2024-07-30T00:00:00", "capacity": 33210.0, "lat": -19.87399323, "lon": -50.37205555}, {"name": "Ibimirim 7", "state": "PE", "type": "UFV", "phase": "Opera\u00e7\u00e3o", "ceg": "UFVRSPE060589101", "start": "2023-10-01T00:00:00", "capacity": 4994.0, "lat": -8.6, "lon": -37.60777778}, {"name": "Flor de Mandacaru", "state": "CE", "type": "UFV", "phase": "Opera\u00e7\u00e3o", "ceg": "UFVRSCE047255701", "start": "2021-02-01T00:00:00", "capacity": 2045.0, "lat": -4.78638889, "lon": -37.30555556}, {"name": "S\u00e3o Jo\u00e3o 1", "state": "MG", "type": "UFV", "phase": "Opera\u00e7\u00e3o", "ceg": "UFVRSMG047281601", "start": "2023-11-29T00:00:00", "capacity": 30000.0, "lat": -17.23225833, "lon": -47.08553056}, {"name": "S\u00e3o Jo\u00e3o 2", "state": "MG", "type": "UFV", "phase": "Opera\u00e7\u00e3o", "ceg": "UFVRSMG047282401", "start": "2023-11-29T00:00:00", "capacity": 30000.0, "lat": -17.24033611, "lon": -47.07767778}, {"name": "S\u00e3o Jo\u00e3o 3", "state": "MG", "type": "UFV", "phase": "Opera\u00e7\u00e3o", "ceg": "UFVRSMG047283201", "start": "2023-11-29T00:00:00", "capacity": 30000.0, "lat": -17.24388889, "lon": -47.07030833}, {"name": "S\u00e3o Jo\u00e3o 4", "state": "MG", "type": "UFV", "phase": "Opera\u00e7\u00e3o", "ceg": "UFVRSMG047284001", "start": "2023-11-29T00:00:00", "capacity": 30000.0, "lat": -17.24554999, "lon": -47.063575}, {"name": "S\u00e3o Jo\u00e3o 5", "state": "MG", "type": "UFV", "phase": "Opera\u00e7\u00e3o", "ceg": "UFVRSMG047285901", "start": "2023-11-29T00:00:00", "capacity": 30000.0, "lat": -17.245025, "lon": -47.05753333}, {"name": "S\u00e3o Jo\u00e3o 6", "state": "MG", "type": "UFV", "phase": "Opera\u00e7\u00e3o", "ceg": "UFVRSMG047286701", "start": "2023-11-29T00:00:00", "capacity": 30000.0, "lat": -17.24464167, "lon": -47.04981111}, {"name": "S\u00e3o Jo\u00e3o 7", "state": "MG", "type": "UFV", "phase": "Opera\u00e7\u00e3o", "ceg": "UFVRSMG047287501", "start": "2023-11-29T00:00:00", "capacity": 30000.0, "lat": -17.23891667, "lon": -47.04863889}, {"name": "Arinos 3", "state": "MG", "type": "UFV", "phase": "Opera\u00e7\u00e3o", "ceg": "UFVRSMG047299901", "start": "2024-08-29T00:00:00", "capacity": 48118.0, "lat": -15.74476944, "lon": -45.94122778}, {"name": "Arinos 5", "state": "MG", "type": "UFV", "phase": "Opera\u00e7\u00e3o", "ceg": "UFVRSMG047301401", "start": "2024-09-26T00:00:00", "capacity": 48118.0, "lat": -15.75398334, "lon": -45.95222778}, {"name": "Arinos 6", "state": "MG", "type": "UFV", "phase": "Opera\u00e7\u00e3o", "ceg": "UFVRSMG047302201", "start": "2024-10-17T00:00:00", "capacity": 48118.0, "lat": -15.74673056, "lon": -45.95474445}, {"name": "Arinos 7", "state": "MG", "type": "UFV", "phase": "Opera\u00e7\u00e3o", "ceg": "UFVRSMG047303001", "start": "2024-09-10T00:00:00", "capacity": 48118.0, "lat": -15.75041944, "lon": -45.95440833}, {"name": "Arinos 8", "state": "MG", "type": "UFV", "phase": "Opera\u00e7\u00e3o", "ceg": "UFVRSMG047304901", "start": "2024-09-04T00:00:00", "capacity": 48118.0, "lat": -15.74410833, "lon": -45.9618}, {"name": "Arinos 9", "state": "MG", "type": "UFV", "phase": "Opera\u00e7\u00e3o", "ceg": "UFVRSMG047305701", "start": "2024-09-05T00:00:00", "capacity": 48118.0, "lat": -15.73786388, "lon": -45.99496667}, {"name": "Arinos 11", "state": "MG", "type": "UFV", "phase": "Opera\u00e7\u00e3o", "ceg": "UFVRSMG047307301", "start": "2024-04-30T00:00:00", "capacity": 46870.0, "lat": -15.73123889, "lon": -45.942}, {"name": "Arinos 12", "state": "MG", "type": "UFV", "phase": "Opera\u00e7\u00e3o", "ceg": "UFVRSMG047308101", "start": "2024-04-30T00:00:00", "capacity": 46870.0, "lat": -15.72721944, "lon": -45.94725833}, {"name": "Arinos 13", "state": "MG", "type": "UFV", "phase": "Opera\u00e7\u00e3o", "ceg": "UFVRSMG047309001", "start": "2024-06-26T00:00:00", "capacity": 46870.0, "lat": -15.72880834, "lon": -45.96530833}, {"name": "Arinos 14", "state": "MG", "type": "UFV", "phase": "Opera\u00e7\u00e3o", "ceg": "UFVRSMG047310301", "start": "2024-06-26T00:00:00", "capacity": 46870.0, "lat": -15.73168334, "lon": -45.99858055}, {"name": "Arinos 15", "state": "MG", "type": "UFV", "phase": "Opera\u00e7\u00e3o", "ceg": "UFVRSMG047311101", "start": "2024-09-20T00:00:00", "capacity": 47945.0, "lat": -15.73320833, "lon": -45.99284444}, {"name": "Arinos 16", "state": "MG", "type": "UFV", "phase": "Opera\u00e7\u00e3o", "ceg": "UFVRSMG047312001", "start": "2024-09-20T00:00:00", "capacity": 47945.0, "lat": -15.72214445, "lon": -45.99834166}, {"name": "Arinos 17", "state": "MG", "type": "UFV", "phase": "Opera\u00e7\u00e3o", "ceg": "UFVRSMG047313801", "start": "2024-07-23T00:00:00", "capacity": 47945.0, "lat": -15.71130278, "lon": -45.98016944}, {"name": "Arinos 18", "state": "MG", "type": "UFV", "phase": "Opera\u00e7\u00e3o", "ceg": "UFVRSMG047314601", "start": "2024-10-31T00:00:00", "capacity": 48118.0, "lat": -15.75831944, "lon": -45.97994722}, {"name": "Arinos 20", "state": "MG", "type": "UFV", "phase": "Opera\u00e7\u00e3o", "ceg": "UFVRSMG047316201", "start": "2024-11-15T00:00:00", "capacity": 48118.0, "lat": -15.7425, "lon": -45.97214166}, {"name": "Serra do Mel V (Antiga Serra do Mel VII)", "state": "RN", "type": "UFV", "phase": "Opera\u00e7\u00e3o", "ceg": "UFVRSRN047422301", "start": "2023-10-10T00:00:00", "capacity": 48118.0, "lat": -5.25679444, "lon": -37.12639722}, {"name": "Serra do Mel VI (Antiga Serra do Mel VIII)", "state": "RN", "type": "UFV", "phase": "Opera\u00e7\u00e3o", "ceg": "UFVRSRN047423101", "start": "2023-10-11T00:00:00", "capacity": 48118.0, "lat": -5.27795556, "lon": -37.12715278}, {"name": "Serra do Mel III (Antiga Serra do Mel IX)", "state": "RN", "type": "UFV", "phase": "Opera\u00e7\u00e3o", "ceg": "UFVRSRN047424001", "start": "2023-08-15T00:00:00", "capacity": 48118.0, "lat": -5.27884167, "lon": -37.125575}, {"name": "Serra do Mel IV (Antiga Serra do Mel X)", "state": "RN", "type": "UFV", "phase": "Opera\u00e7\u00e3o", "ceg": "UFVRSRN047425801", "start": "2023-08-15T00:00:00", "capacity": 48118.0, "lat": -5.28336111, "lon": -37.11958611}, {"name": "Boa Sorte 1", "state": "MG", "type": "UFV", "phase": "Opera\u00e7\u00e3o", "ceg": "UFVRSMG049183701", "start": "2024-03-07T00:00:00", "capacity": 44100.0, "lat": -17.15153056, "lon": -47.28171}, {"name": "Boa Sorte 2", "state": "MG", "type": "UFV", "phase": "Opera\u00e7\u00e3o", "ceg": "UFVRSMG049185301", "start": "2024-02-27T00:00:00", "capacity": 44100.0, "lat": -17.15929722, "lon": -47.28671111}, {"name": "Boa Sorte 3", "state": "MG", "type": "UFV", "phase": "Opera\u00e7\u00e3o", "ceg": "UFVRSMG049186101", "start": "2024-03-07T00:00:00", "capacity": 44100.0, "lat": -17.16630278, "lon": -47.29238889}, {"name": "Boa Sorte 4", "state": "MG", "type": "UFV", "phase": "Opera\u00e7\u00e3o", "ceg": "UFVRSMG049187001", "start": "2024-03-23T00:00:00", "capacity": 44100.0, "lat": -17.19708611, "lon": -46.60356111}, {"name": "Boa Sorte 5", "state": "MG", "type": "UFV", "phase": "Opera\u00e7\u00e3o", "ceg": "UFVRSMG049188801", "start": "2024-03-01T00:00:00", "capacity": 44100.0, "lat": -17.1853, "lon": -47.2985}, {"name": "Boa Sorte 6", "state": "MG", "type": "UFV", "phase": "Opera\u00e7\u00e3o", "ceg": "UFVRSMG049189601", "start": "2024-03-07T00:00:00", "capacity": 44100.0, "lat": -17.17777778, "lon": -47.28638889}, {"name": "Boa Sorte 7", "state": "MG", "type": "UFV", "phase": "Opera\u00e7\u00e3o", "ceg": "UFVRSMG049190001", "start": "2024-03-13T00:00:00", "capacity": 44100.0, "lat": -17.18430833, "lon": -47.285475}, {"name": "Boa Sorte 8", "state": "MG", "type": "UFV", "phase": "Opera\u00e7\u00e3o", "ceg": "UFVRSMG049191801", "start": "2024-03-16T00:00:00", "capacity": 44100.0, "lat": -17.19586389, "lon": -46.64376667}, {"name": "Intelbras", "state": "SC", "type": "UFV", "phase": "Opera\u00e7\u00e3o", "ceg": "UFVRSSC049225601", "start": "2020-06-01T00:00:00", "capacity": 1245.0, "lat": -27.59222222, "lon": -48.68111111}, {"name": "Aeroporto De Salvador", "state": "BA", "type": "UFV", "phase": "Opera\u00e7\u00e3o", "ceg": "UFVRSBA049251501", "start": "2020-08-20T00:00:00", "capacity": 3300.0, "lat": -12.91366666, "lon": -38.33627778}, {"name": "Novo Oriente I", "state": "SP", "type": "UFV", "phase": "Opera\u00e7\u00e3o", "ceg": "UFVRSSP049335001", "start": "2024-10-08T00:00:00", "capacity": 40600.0, "lat": -20.65223055, "lon": -51.34101944}, {"name": "Novo Oriente III", "state": "SP", "type": "UFV", "phase": "Opera\u00e7\u00e3o", "ceg": "UFVRSSP049337601", "start": "2024-09-03T00:00:00", "capacity": 40600.0, "lat": -20.65610277, "lon": -51.33353889}, {"name": "Novo Oriente V", "state": "SP", "type": "UFV", "phase": "Opera\u00e7\u00e3o", "ceg": "UFVRSSP049339201", "start": "2024-08-29T00:00:00", "capacity": 46052.71, "lat": -20.66767222, "lon": -51.33188889}, {"name": "Ferreira Costa Jo\u00e3o Pessoa", "state": "PB", "type": "UFV", "phase": "Opera\u00e7\u00e3o", "ceg": "UFVRSPB049424001", "start": "2021-08-04T00:00:00", "capacity": 2340.0, "lat": -7.08733333, "lon": -34.84675}, {"name": "Vista Alegre XI", "state": "MG", "type": "UFV", "phase": "Opera\u00e7\u00e3o", "ceg": "UFVRSMG049655301", "start": "2024-11-09T00:00:00", "capacity": 41173.0, "lat": -15.81256944, "lon": -43.4759075}, {"name": "Vista Alegre XIV", "state": "MG", "type": "UFV", "phase": "Opera\u00e7\u00e3o", "ceg": "UFVRSMG049658801", "start": "2024-11-09T00:00:00", "capacity": 41173.0, "lat": -15.80754722, "lon": -43.48323417}, {"name": "Vista Alegre XV", "state": "MG", "type": "UFV", "phase": "Opera\u00e7\u00e3o", "ceg": "UFVRSMG049659601", "start": "2024-11-22T00:00:00", "capacity": 41173.0, "lat": -15.80658305, "lon": -43.49047805}, {"name": "Ebes Solar", "state": "MA", "type": "UFV", "phase": "Opera\u00e7\u00e3o", "ceg": "UFVRSMA049662601", "start": "2020-10-01T00:00:00", "capacity": 1200.0, "lat": -3.58438611, "lon": -43.93377778}, {"name": "Santa Luzia 1", "state": "PB", "type": "UFV", "phase": "Opera\u00e7\u00e3o", "ceg": "UFVRSPB049685501", "start": "2024-09-11T00:00:00", "capacity": 50000.0, "lat": -6.89156944, "lon": -36.9641725}, {"name": "Santa Luzia 4", "state": "PB", "type": "UFV", "phase": "Opera\u00e7\u00e3o", "ceg": "UFVRSPB049688001", "start": "2024-04-02T00:00:00", "capacity": 50000.0, "lat": -6.908827, "lon": -36.95948139}, {"name": "Santa Luzia V", "state": "PB", "type": "UFV", "phase": "Opera\u00e7\u00e3o", "ceg": "UFVRSPB049689801", "start": "2024-04-02T00:00:00", "capacity": 50000.0, "lat": -6.90118394, "lon": -36.96518108}, {"name": "Santa Luzia VII", "state": "PB", "type": "UFV", "phase": "Opera\u00e7\u00e3o", "ceg": "UFVRSPB049691001", "start": "2024-04-02T00:00:00", "capacity": 50000.0, "lat": -6.90529463, "lon": -36.9730339}, {"name": "Santa Luzia IX", "state": "PB", "type": "UFV", "phase": "Opera\u00e7\u00e3o", "ceg": "UFVRSPB049693601", "start": "2024-04-02T00:00:00", "capacity": 50000.0, "lat": -6.91806, "lon": -36.971}, {"name": "Sert\u00e3o Solar Barreiras XXI", "state": "BA", "type": "UFV", "phase": "Opera\u00e7\u00e3o", "ceg": "UFVRSBA049771101", "start": "2024-07-10T00:00:00", "capacity": 50000.0, "lat": -12.04666389, "lon": -45.08191389}, {"name": "Maravilhas I", "state": "PE", "type": "UFV", "phase": "Opera\u00e7\u00e3o", "ceg": "UFVRSPE050605201", "start": "2023-12-09T00:00:00", "capacity": 27000.0, "lat": -7.4875, "lon": -34.99111111}, {"name": "Maravilhas II", "state": "PE", "type": "UFV", "phase": "Opera\u00e7\u00e3o", "ceg": "UFVRSPE050606001", "start": "2023-12-19T00:00:00", "capacity": 27000.0, "lat": -7.4875, "lon": -34.99722222}, {"name": "Ibimirim 9", "state": "PE", "type": "UFV", "phase": "Opera\u00e7\u00e3o", "ceg": "UFVRSPE060590501", "start": "2023-10-01T00:00:00", "capacity": 2951.0, "lat": -8.58444444, "lon": -37.60444444}, {"name": "Jusante 1", "state": "MG", "type": "UFV", "phase": "Opera\u00e7\u00e3o", "ceg": "UFVRSMG050784901", "start": "2024-10-30T00:00:00", "capacity": 10000.0, "lat": -18.20821111, "lon": -45.27010833}, {"name": "Jusante 2", "state": "MG", "type": "UFV", "phase": "Opera\u00e7\u00e3o", "ceg": "UFVRSMG050785701", "start": "2024-10-30T00:00:00", "capacity": 10000.0, "lat": -18.205925, "lon": -45.26920556}, {"name": "Jusante 3", "state": "MG", "type": "UFV", "phase": "Opera\u00e7\u00e3o", "ceg": "UFVRSMG050786501", "start": "2024-10-12T00:00:00", "capacity": 10000.0, "lat": -18.20326111, "lon": -45.26876389}, {"name": "Jusante 5", "state": "MG", "type": "UFV", "phase": "Opera\u00e7\u00e3o", "ceg": "UFVRSMG050788101", "start": "2024-10-30T00:00:00", "capacity": 10000.0, "lat": -18.20476389, "lon": -45.27398889}, {"name": "Jusante 6", "state": "MG", "type": "UFV", "phase": "Opera\u00e7\u00e3o", "ceg": "UFVRSMG050789001", "start": "2024-10-30T00:00:00", "capacity": 10000.0, "lat": -18.20243056, "lon": -45.27402222}, {"name": "Jurema", "state": "PI", "type": "UFV", "phase": "Opera\u00e7\u00e3o", "ceg": "UFVRSPI050791101", "start": "2020-08-01T00:00:00", "capacity": 2500.0, "lat": -7.13621528, "lon": -40.80028139}, {"name": "Arinos 21", "state": "MG", "type": "UFV", "phase": "Opera\u00e7\u00e3o", "ceg": "UFVRSMG050840301", "start": "2024-09-20T00:00:00", "capacity": 47945.0, "lat": -15.728075, "lon": -45.95995278}, {"name": "Arinos 22", "state": "MG", "type": "UFV", "phase": "Opera\u00e7\u00e3o", "ceg": "UFVRSMG050841101", "start": "2024-10-17T00:00:00", "capacity": 47945.0, "lat": -15.73180556, "lon": -45.96905}, {"name": "Arinos 23", "state": "MG", "type": "UFV", "phase": "Opera\u00e7\u00e3o", "ceg": "UFVRSMG050842001", "start": "2024-10-17T00:00:00", "capacity": 47945.0, "lat": -15.7347, "lon": -45.98309167}, {"name": "Arinos 24", "state": "MG", "type": "UFV", "phase": "Opera\u00e7\u00e3o", "ceg": "UFVRSMG050843801", "start": "2024-09-20T00:00:00", "capacity": 41065.0, "lat": -15.72943056, "lon": -45.98812778}, {"name": "Oroyt\u00ea", "state": "MS", "type": "UFV", "phase": "Opera\u00e7\u00e3o", "ceg": "UFVRSMS051962601", "start": "2021-03-30T00:00:00", "capacity": 2000.0, "lat": -22.10156361, "lon": -56.74265306}, {"name": "Usf-bernardo Alimentos", "state": "RO", "type": "UFV", "phase": "Opera\u00e7\u00e3o", "ceg": "UFVRSRO053687301", "start": "2021-01-20T00:00:00", "capacity": 1250.0, "lat": -10.84980556, "lon": -62.00584444}, {"name": "Ibimirim 2", "state": "PE", "type": "UFV", "phase": "Opera\u00e7\u00e3o", "ceg": "UFVRSPE054902901", "start": "2023-10-01T00:00:00", "capacity": 4994.0, "lat": -8.58824444, "lon": -37.62232778}, {"name": "S\u00e3o Francisco I", "state": "MG", "type": "UFV", "phase": "Opera\u00e7\u00e3o", "ceg": "UFVRSMG054447701", "start": "2024-10-09T00:00:00", "capacity": 49993.0, "lat": -15.83083333, "lon": -43.47111111}, {"name": "S\u00e3o Francisco II", "state": "MG", "type": "UFV", "phase": "Opera\u00e7\u00e3o", "ceg": "UFVRSMG054448501", "start": "2024-10-23T00:00:00", "capacity": 49993.0, "lat": -15.83621944, "lon": -43.47129167}, {"name": "S\u00e3o Francisco III", "state": "MG", "type": "UFV", "phase": "Opera\u00e7\u00e3o", "ceg": "UFVRSMG054449301", "start": "2024-10-09T00:00:00", "capacity": 49993.0, "lat": -15.83972222, "lon": -43.46805556}, {"name": "Ibimirim 1", "state": "PE", "type": "UFV", "phase": "Opera\u00e7\u00e3o", "ceg": "UFVRSPE054546501", "start": "2023-10-01T00:00:00", "capacity": 4994.0, "lat": -8.58388889, "lon": -37.62194444}, {"name": "Ferreira Costa Caruaru", "state": "PE", "type": "UFV", "phase": "Opera\u00e7\u00e3o", "ceg": "UFVRSPE055055801", "start": "2021-09-03T00:00:00", "capacity": 1500.0, "lat": -8.26662222, "lon": -35.97903333}, {"name": "Buritis", "state": "RO", "type": "UFV", "phase": "Opera\u00e7\u00e3o", "ceg": "UFVRSRO056129001", "start": "2022-06-16T00:00:00", "capacity": 5200.0, "lat": -10.21153028, "lon": -63.80520528}, {"name": "Machadinho", "state": "RO", "type": "UFV", "phase": "Opera\u00e7\u00e3o", "ceg": "UFVRSRO056130401", "start": "2022-06-14T00:00:00", "capacity": 5300.0, "lat": -9.45465278, "lon": -62.02678444}, {"name": "Gramazini Cdi", "state": "ES", "type": "UFV", "phase": "Opera\u00e7\u00e3o", "ceg": "UFVRSES056606301", "start": "2021-04-01T00:00:00", "capacity": 1328.0, "lat": -20.76666667, "lon": -41.16666667}, {"name": "Ibimirim 8", "state": "PE", "type": "UFV", "phase": "Opera\u00e7\u00e3o", "ceg": "UFVRSPE057165201", "start": "2023-10-01T00:00:00", "capacity": 4994.0, "lat": -8.58472222, "lon": -37.60777778}, {"name": "Dual Cnp", "state": "MT", "type": "UFV", "phase": "Opera\u00e7\u00e3o", "ceg": "UFVRSMT060508501", "start": "2021-08-25T00:00:00", "capacity": 2250.0, "lat": -13.70149722, "lon": -57.91028889}, {"name": "Ibimirim 4", "state": "PE", "type": "UFV", "phase": "Opera\u00e7\u00e3o", "ceg": "UFVRSPE060586701", "start": "2023-10-01T00:00:00", "capacity": 4994.0, "lat": -8.58557219, "lon": -37.61667781}, {"name": "Jacauna I", "state": "CE", "type": "UFV", "phase": "Opera\u00e7\u00e3o", "ceg": "UFVRSCE060592101", "start": "2020-12-15T00:00:00", "capacity": 1800.0, "lat": -3.12766667, "lon": -40.12588889}, {"name": "Maza Produtos Qu\u00edmicos", "state": "SP", "type": "UFV", "phase": "Opera\u00e7\u00e3o", "ceg": "UFVRSSP060654501", "start": "2020-01-01T00:00:00", "capacity": 1400.0, "lat": -21.89956666, "lon": -47.05798222}, {"name": "Dual Pp", "state": "MT", "type": "UFV", "phase": "Opera\u00e7\u00e3o", "ceg": "UFVRSMT060664201", "start": "2021-09-10T00:00:00", "capacity": 1500.0, "lat": -16.60366666, "lon": -54.47832778}, {"name": "Solar Cerro do Sol", "state": "RS", "type": "UFV", "phase": "Opera\u00e7\u00e3o", "ceg": "UFVRSRS060668501", "start": "2022-01-31T00:00:00", "capacity": 3309.93, "lat": -27.60835278, "lon": -53.16201389}, {"name": "Iplac Industria", "state": "AL", "type": "UFV", "phase": "Opera\u00e7\u00e3o", "ceg": "UFVRSAL062906501", "start": "2022-02-20T00:00:00", "capacity": 1980.0, "lat": -9.56444444, "lon": -35.76416667}, {"name": "Plaschio Pl\u00e1sticos Chiacchio", "state": "BA", "type": "UFV", "phase": "Opera\u00e7\u00e3o", "ceg": "UFVRSBA063846301", "start": "2022-04-20T00:00:00", "capacity": 1700.0, "lat": -14.82002777, "lon": -40.80716667}, {"name": "Calc\u00e1rio Tangar\u00e1", "state": "MT", "type": "UFV", "phase": "Opera\u00e7\u00e3o", "ceg": "UFVRSMT064468401", "start": "2022-04-05T00:00:00", "capacity": 1800.0, "lat": -14.73604061, "lon": -57.83420861}, {"name": "Calcario Tangara", "state": "MT", "type": "UFV", "phase": "Opera\u00e7\u00e3o", "ceg": "UFVRSMT064475701", "start": "2022-05-20T00:00:00", "capacity": 1800.0, "lat": -14.72606389, "lon": -57.829325}, {"name": "Sinop - Mato Grosso", "state": "MT", "type": "UFV", "phase": "Opera\u00e7\u00e3o", "ceg": "UFVRSMT064851501", "start": "2022-04-19T00:00:00", "capacity": 5000.0, "lat": -12.01666669, "lon": -55.851944}, {"name": "Marvi Solar", "state": "SP", "type": "UFV", "phase": "Opera\u00e7\u00e3o", "ceg": "UFVRSSP066069801", "start": "2021-12-21T00:00:00", "capacity": 1400.0, "lat": -23.00454, "lon": -49.8773}, {"name": "Inpasa Dourados/ms", "state": "MS", "type": "UFV", "phase": "Opera\u00e7\u00e3o", "ceg": "UFVRSMS066944001", "start": "2022-07-06T00:00:00", "capacity": 5000.0, "lat": -22.36701111, "lon": -54.79857219}, {"name": "Pec\u00e9m H2v", "state": "CE", "type": "UFV", "phase": "Opera\u00e7\u00e3o", "ceg": "UFVRSCE071337601", "start": "2022-12-06T00:00:00", "capacity": 2500.0, "lat": -3.58666669, "lon": -38.87722222}, {"name": "Kapazi", "state": "PR", "type": "UFV", "phase": "Opera\u00e7\u00e3o", "ceg": "UFVRSPR071670701", "start": "2023-01-01T00:00:00", "capacity": 1300.0, "lat": -25.36472222, "lon": -49.295}, {"name": "Cerbras Gera\u00e7\u00e3o Solar", "state": "CE", "type": "UFV", "phase": "Opera\u00e7\u00e3o", "ceg": "UFVRSCE071716901", "start": "2022-10-03T00:00:00", "capacity": 4500.0, "lat": -3.85638889, "lon": -38.54861111}, {"name": "Milanezi 1", "state": "ES", "type": "UFV", "phase": "Opera\u00e7\u00e3o", "ceg": "UFVRSES071733901", "start": "2023-01-20T00:00:00", "capacity": 1100.0, "lat": -20.61024722, "lon": -41.0184}, {"name": "Sab\u00e3o Guarani", "state": "RN", "type": "UFV", "phase": "Opera\u00e7\u00e3o", "ceg": "UFVRSRN071735501", "start": "2021-06-24T00:00:00", "capacity": 1010.0, "lat": -5.22822639, "lon": -37.37039389}, {"name": "UTX Pacaraima", "state": "RR", "type": "UFV", "phase": "Opera\u00e7\u00e3o", "ceg": "UFVRSRR071828901", "start": "2023-12-14T00:00:00", "capacity": 1050.0, "lat": 4.49071066, "lon": -61.12707879}, {"name": "Elgin Mogi Das Cruzes", "state": "SP", "type": "UFV", "phase": "Opera\u00e7\u00e3o", "ceg": "UFVRSSP071971401", "start": "2022-07-08T00:00:00", "capacity": 2130.0, "lat": -23.51083333, "lon": -46.15972222}, {"name": "Kapa Zero", "state": "RO", "type": "UFV", "phase": "Opera\u00e7\u00e3o", "ceg": "UFVRSRO072139501", "start": "2023-11-17T00:00:00", "capacity": 2000.0, "lat": -11.51138889, "lon": -62.16444444}, {"name": "Zucchi", "state": "ES", "type": "UFV", "phase": "Opera\u00e7\u00e3o", "ceg": "UFVRSES072167001", "start": "2022-09-20T00:00:00", "capacity": 2397.6, "lat": -20.11741, "lon": -40.1889}, {"name": "F\u00e1bio Botelho Notini I", "state": "MG", "type": "UFV", "phase": "Opera\u00e7\u00e3o", "ceg": "UFVRSMG072280401", "start": "2022-03-31T00:00:00", "capacity": 4975.0, "lat": -20.55944444, "lon": -44.55888889}, {"name": "Gramazini Granitos e M\u00e1rmores Thomazini", "state": "ES", "type": "UFV", "phase": "Opera\u00e7\u00e3o", "ceg": "UFVRSES072281201", "start": "2021-04-01T00:00:00", "capacity": 1328.0, "lat": -20.76666389, "lon": -41.167425}, {"name": "Palladium Umuarama Administradora De Shopping Centers", "state": "PR", "type": "UFV", "phase": "Opera\u00e7\u00e3o", "ceg": "UFVRSPR072390801", "start": "2021-07-01T00:00:00", "capacity": 1140.0, "lat": -23.74916667, "lon": -53.27027778}, {"name": "Armaz\u00e9m Gerais Morro da Pedra", "state": "TO", "type": "UFV", "phase": "Opera\u00e7\u00e3o", "ceg": "UFVRSTO072841101", "start": "2023-07-10T00:00:00", "capacity": 1125.0, "lat": -10.82504169, "lon": -49.656725}, {"name": "Cotrijal", "state": "RS", "type": "UFV", "phase": "Opera\u00e7\u00e3o", "ceg": "UFVRSRS072842001", "start": "2023-03-16T00:00:00", "capacity": 2500.0, "lat": -28.47906669, "lon": -52.79388611}, {"name": "Proc\u00f3pio Ind\u00fastria E Com\u00e9rcio", "state": "PR", "type": "UFV", "phase": "Opera\u00e7\u00e3o", "ceg": "UFVRSPR072973601", "start": "2023-07-26T00:00:00", "capacity": 1300.0, "lat": -25.47869689, "lon": -49.57264}, {"name": "Sig", "state": "PR", "type": "UFV", "phase": "Opera\u00e7\u00e3o", "ceg": "UFVRSPR072978701", "start": "2022-07-14T00:00:00", "capacity": 2330.0, "lat": -25.44111111, "lon": -49.55194439}, {"name": "Edr Constru\u00e7\u00f5es", "state": "PB", "type": "UFV", "phase": "Opera\u00e7\u00e3o", "ceg": "UFVRSPB073621001", "start": "2023-10-02T00:00:00", "capacity": 1845.0, "lat": -7.70333331, "lon": -36.86361111}, {"name": "Ssa", "state": "GO", "type": "UFV", "phase": "Opera\u00e7\u00e3o", "ceg": "UFVRSGO073629501", "start": "2023-08-01T00:00:00", "capacity": 4000.0, "lat": -16.37702081, "lon": -49.29750169}, {"name": "Parque Solar Potipor\u00e3 - Grupo Samaria", "state": "RN", "type": "UFV", "phase": "Opera\u00e7\u00e3o", "ceg": "UFVRSRN073712701", "start": "2020-04-29T00:00:00", "capacity": 3000.0, "lat": -5.26399169, "lon": -36.71959439}, {"name": "Minusa", "state": "SC", "type": "UFV", "phase": "Opera\u00e7\u00e3o", "ceg": "UFVRSSC074001201", "start": "2024-02-01T00:00:00", "capacity": 1055.0, "lat": -27.80509669, "lon": -50.36372139}, {"name": "Chapemec", "state": "RS", "type": "UFV", "phase": "Opera\u00e7\u00e3o", "ceg": "UFVRSRS074162001", "start": "2024-01-01T00:00:00", "capacity": 1017.36, "lat": -27.90166669, "lon": -54.47361111}, {"name": "Cs3 Marmores", "state": "ES", "type": "UFV", "phase": "Opera\u00e7\u00e3o", "ceg": "UFVRSES074163901", "start": "2023-03-01T00:00:00", "capacity": 1630.0, "lat": -20.75562861, "lon": -41.218045}, {"name": "Mineradora Jp Ii", "state": "SP", "type": "UFV", "phase": "Opera\u00e7\u00e3o", "ceg": "UFVRSSP074166301", "start": "2023-12-01T00:00:00", "capacity": 1075.0, "lat": -22.66831889, "lon": -44.99052611}, {"name": "Ape Clube Dores", "state": "RS", "type": "UFV", "phase": "Opera\u00e7\u00e3o", "ceg": "UFVRSRS074352601", "start": "2024-04-01T00:00:00", "capacity": 1906.0, "lat": -29.72527781, "lon": -53.78805561}]