[{"name": "14 de Julho", "state": "RS", "type": "UHE", "phase": "Opera\u00e7\u00e3o", "ceg": "UHEPHRS000012401", "start": "2008-12-25T00:00:00", "capacity": 100000.0, "lat": -29.06475278, "lon": -51.67494167}, {"name": "\u00c1gua Vermelha (Antiga Jos\u00e9 Erm\u00edrio de Moraes)", "state": "MG", "type": "UHE", "phase": "Opera\u00e7\u00e3o", "ceg": "UHEPHMG000041801", "start": "1978-08-22T00:00:00", "capacity": 1396200.0, "lat": -19.86315702, "lon": -50.34647804}, {"name": "Aimor\u00e9s", "state": "MG", "type": "UHE", "phase": "Opera\u00e7\u00e3o", "ceg": "UHEPHMG000042601", "start": "2005-07-30T00:00:00", "capacity": 330000.0, "lat": -19.45714111, "lon": -41.09797972}, {"name": "Alecrim", "state": "SP", "type": "UHE", "phase": "Opera\u00e7\u00e3o", "ceg": "UHEPHSP000047701", "start": "1974-01-01T00:00:00", "capacity": 72000.0, "lat": -24.08132336, "lon": -47.47732805}, {"name": "Alto Jatapu", "state": "RR", "type": "UHE", "phase": "Opera\u00e7\u00e3o", "ceg": "UHEPHRR000076001", "start": "1992-08-01T00:00:00", "capacity": 10000.0, "lat": 0.8584795, "lon": -59.2946487}, {"name": "Pedro Affonso Junqueira (Antiga Antas I)", "state": "MG", "type": "UHE", "phase": "Opera\u00e7\u00e3o", "ceg": "UHEPHMG000109001", "start": "1911-01-01T00:00:00", "capacity": 8780.0, "lat": -21.76776268, "lon": -46.60781653}, {"name": "Walter Rossi (Antiga Antas II)", "state": "MG", "type": "UHE", "phase": "Opera\u00e7\u00e3o", "ceg": "UHEPHMG000110401", "start": "1998-07-01T00:00:00", "capacity": 16500.0, "lat": -21.76333333, "lon": -46.605}, {"name": "Balbina", "state": "AM", "type": "UHE", "phase": "Opera\u00e7\u00e3o", "ceg": "UHEPHAM000190201", "start": "1989-02-20T00:00:00", "capacity": 249750.0, "lat": -1.91590047, "lon": -59.47337201}, {"name": "Bariri (\u00c1lvaro de Souza Lima)", "state": "SP", "type": "UHE", "phase": "Opera\u00e7\u00e3o", "ceg": "UHEPHSP000203801", "start": "1969-12-26T00:00:00", "capacity": 143100.0, "lat": -22.153333, "lon": -48.7525}, {"name": "Barra", "state": "SP", "type": "UHE", "phase": "Opera\u00e7\u00e3o", "ceg": "UHEPHSP000207001", "start": "1986-01-01T00:00:00", "capacity": 40400.0, "lat": -24.02318908, "lon": -47.35577271}, {"name": "Barra Bonita", "state": "SP", "type": "UHE", "phase": "Opera\u00e7\u00e3o", "ceg": "UHEPHSP000208901", "start": "1963-05-20T00:00:00", "capacity": 140760.0, "lat": -22.519444, "lon": -48.534444}, {"name": "Barra do Bra\u00fana", "state": "MG", "type": "UHE", "phase": "Opera\u00e7\u00e3o", "ceg": "UHEPHMG000215101", "start": "2009-12-25T00:00:00", "capacity": 39000.0, "lat": -21.45014185, "lon": -42.40463836}, {"name": "Boa Esperan\u00e7a (Antiga Castelo Branco)", "state": "PI", "type": "UHE", "phase": "Opera\u00e7\u00e3o", "ceg": "UHEPHPI000267401", "start": "1970-10-02T00:00:00", "capacity": 237300.0, "lat": -6.75349577, "lon": -43.56267317}, {"name": "Bracinho", "state": "SC", "type": "UHE", "phase": "Opera\u00e7\u00e3o", "ceg": "UHEPHSC000302602", "start": "1931-01-01T00:00:00", "capacity": 15000.0, "lat": -26.33001439, "lon": -49.09536556}, {"name": "Brecha", "state": "MG", "type": "UHE", "phase": "Opera\u00e7\u00e3o", "ceg": "UHEPHMG000315801", "start": "1958-01-01T00:00:00", "capacity": 17000.0, "lat": -20.54528268, "lon": -42.95918358}, {"name": "Bugres", "state": "RS", "type": "UHE", "phase": "Opera\u00e7\u00e3o", "ceg": "UHEPHRS000324701", "start": "1952-07-01T00:00:00", "capacity": 17620.0, "lat": -29.31480833, "lon": -50.67983611}, {"name": "Jo\u00e3o Camilo Penna (Antiga Cachoeira do Emboque)", "state": "MG", "type": "UHE", "phase": "Opera\u00e7\u00e3o", "ceg": "UHEPHMG000473101", "start": "1998-01-01T00:00:00", "capacity": 21600.0, "lat": -20.11755554, "lon": -42.3967671}, {"name": "Cachoeira Dourada", "state": "GO", "type": "UHE", "phase": "Opera\u00e7\u00e3o", "ceg": "UHEPHGO000528201", "start": "1959-01-01T00:00:00", "capacity": 658000.0, "lat": -18.50432743, "lon": -49.49021968}, {"name": "Caconde", "state": "SP", "type": "UHE", "phase": "Opera\u00e7\u00e3o", "ceg": "UHEPHSP000588601", "start": "1966-08-22T00:00:00", "capacity": 80400.0, "lat": -21.57666667, "lon": -46.62416667}, {"name": "Cajuru", "state": "MG", "type": "UHE", "phase": "Opera\u00e7\u00e3o", "ceg": "UHEPHMG000597501", "start": "1954-01-01T00:00:00", "capacity": 7200.0, "lat": -20.23865167, "lon": -44.75417872}, {"name": "Camargos", "state": "MG", "type": "UHE", "phase": "Opera\u00e7\u00e3o", "ceg": "UHEPHMG000608401", "start": "1960-01-01T00:00:00", "capacity": 46000.0, "lat": -21.32534753, "lon": -44.61588358}, {"name": "Cana Brava", "state": "GO", "type": "UHE", "phase": "Opera\u00e7\u00e3o", "ceg": "UHEPHGO000630001", "start": "2002-05-22T00:00:00", "capacity": 450000.0, "lat": -13.40238714, "lon": -48.14332931}, {"name": "Canastra", "state": "RS", "type": "UHE", "phase": "Opera\u00e7\u00e3o", "ceg": "UHEPHRS000635101", "start": "1905-05-09T00:00:00", "capacity": 44800.0, "lat": -29.34664117, "lon": -50.70205611}, {"name": "Risoleta Neves (Antiga Candonga)", "state": "MG", "type": "UHE", "phase": "Opera\u00e7\u00e3o", "ceg": "UHEPHMG000641601", "start": "2004-09-07T00:00:00", "capacity": 140000.0, "lat": -20.20742219, "lon": -42.85499938}, {"name": "Canoas I", "state": "SP", "type": "UHE", "phase": "Opera\u00e7\u00e3o", "ceg": "UHEPHSP000647501", "start": "1999-05-09T00:00:00", "capacity": 82500.0, "lat": -22.94111111, "lon": -50.51722222}, {"name": "Capivara (Escola de Engenharia Mackenzie)", "state": "SP", "type": "UHE", "phase": "Opera\u00e7\u00e3o", "ceg": "UHEPHSP000657201", "start": "1977-03-10T00:00:00", "capacity": 643000.0, "lat": -22.65468656, "lon": -51.35708795}, {"name": "Castro Alves", "state": "RS", "type": "UHE", "phase": "Opera\u00e7\u00e3o", "ceg": "UHEPHRS000718801", "start": "2008-03-04T00:00:00", "capacity": 130000.0, "lat": -29.00529866, "lon": -51.3844177}, {"name": "Cedros (Rio dos Cedros)", "state": "SC", "type": "UHE", "phase": "Opera\u00e7\u00e3o", "ceg": "UHEPHSC000737402", "start": "1949-01-01T00:00:00", "capacity": 8400.0, "lat": -26.645, "lon": -49.35694444}, {"name": "Chavantes", "state": "SP", "type": "UHE", "phase": "Opera\u00e7\u00e3o", "ceg": "UHEPHSP000764101", "start": "1970-11-30T00:00:00", "capacity": 414000.0, "lat": -23.12795665, "lon": -49.73295944}, {"name": "Coaracy Nunes", "state": "AP", "type": "UHE", "phase": "Opera\u00e7\u00e3o", "ceg": "UHEPHAP000783801", "start": "1975-12-30T00:00:00", "capacity": 78000.0, "lat": 0.90322114, "lon": -51.25985226}, {"name": "Coronel Domiciano", "state": "MG", "type": "UHE", "phase": "Opera\u00e7\u00e3o", "ceg": "UHEPHMG000838902", "start": "1994-07-01T00:00:00", "capacity": 5040.0, "lat": -21.01346386, "lon": -42.44805612}, {"name": "Corumb\u00e1 I", "state": "GO", "type": "UHE", "phase": "Opera\u00e7\u00e3o", "ceg": "UHEPHGO000866401", "start": "1996-10-31T00:00:00", "capacity": 375000.0, "lat": -17.98786025, "lon": -48.53231848}, {"name": "Espora", "state": "GO", "type": "UHE", "phase": "Opera\u00e7\u00e3o", "ceg": "UHEPHGO000908301", "start": "2006-09-07T00:00:00", "capacity": 32000.0, "lat": -18.67583333, "lon": -51.86555556}, {"name": "Estreito (Luiz Carlos Barreto de Carvalho)", "state": "SP", "type": "UHE", "phase": "Opera\u00e7\u00e3o", "ceg": "UHEPHSP000917201", "start": "1969-03-16T00:00:00", "capacity": 1050000.0, "lat": -20.1508584, "lon": -47.27979292}, {"name": "Euclides da Cunha", "state": "SP", "type": "UHE", "phase": "Opera\u00e7\u00e3o", "ceg": "UHEPHSP000923701", "start": "1960-12-07T00:00:00", "capacity": 108800.0, "lat": -21.603056, "lon": -46.949167}, {"name": "Fontes Nova", "state": "RJ", "type": "UHE", "phase": "Opera\u00e7\u00e3o", "ceg": "UHEPHRJ000973301", "start": "1940-01-01T00:00:00", "capacity": 131988.0, "lat": -22.69138889, "lon": -43.86444444}, {"name": "Governador Bento Munhoz da Rocha Netto (Foz do Areia)", "state": "PR", "type": "UHE", "phase": "Opera\u00e7\u00e3o", "ceg": "UHEPHPR000984901", "start": "1980-10-01T00:00:00", "capacity": 1676000.0, "lat": -26.00977231, "lon": -51.66597303}, {"name": "Fran\u00e7a", "state": "SP", "type": "UHE", "phase": "Opera\u00e7\u00e3o", "ceg": "UHEPHSP000990301", "start": "1958-01-01T00:00:00", "capacity": 29500.0, "lat": -23.94131743, "lon": -47.19505314}, {"name": "Fuma\u00e7a", "state": "SP", "type": "UHE", "phase": "Opera\u00e7\u00e3o", "ceg": "UHEPHSP001000601", "start": "1964-01-01T00:00:00", "capacity": 36400.0, "lat": -24.00875028, "lon": -47.26445434}, {"name": "Funil", "state": "MG", "type": "UHE", "phase": "Opera\u00e7\u00e3o", "ceg": "UHEPHMG001006501", "start": "2002-12-30T00:00:00", "capacity": 180000.0, "lat": -21.14294206, "lon": -45.03614405}, {"name": "Furnas", "state": "MG", "type": "UHE", "phase": "Opera\u00e7\u00e3o", "ceg": "UHEPHMG001007301", "start": "1963-09-04T00:00:00", "capacity": 1216000.0, "lat": -20.66920345, "lon": -46.31825382}, {"name": "Gafanhoto", "state": "MG", "type": "UHE", "phase": "Opera\u00e7\u00e3o", "ceg": "UHEPHMG001011102", "start": "1946-01-01T00:00:00", "capacity": 14000.0, "lat": -20.10388889, "lon": -44.84305556}, {"name": "Garcia", "state": "SC", "type": "UHE", "phase": "Opera\u00e7\u00e3o", "ceg": "UHEPHSC001019702", "start": "1964-01-01T00:00:00", "capacity": 8920.0, "lat": -27.54863068, "lon": -49.00626343}, {"name": "Gl\u00f3ria", "state": "MG", "type": "UHE", "phase": "Opera\u00e7\u00e3o", "ceg": "UHEPHMG001034001", "start": "1983-01-01T00:00:00", "capacity": 13800.0, "lat": -21.03986922, "lon": -42.32900336}, {"name": "Governador Pedro Viriato Parigot de Souza (Capivari/Cachoeira)", "state": "PR", "type": "UHE", "phase": "Opera\u00e7\u00e3o", "ceg": "UHEPHPR001042101", "start": "1971-09-03T00:00:00", "capacity": 260000.0, "lat": -25.13833333, "lon": -48.87444444}, {"name": "Guapor\u00e9", "state": "MT", "type": "UHE", "phase": "Opera\u00e7\u00e3o", "ceg": "UHEPHMT001066901", "start": "2003-04-08T00:00:00", "capacity": 120000.0, "lat": -15.123889, "lon": -58.964722}, {"name": "Guaricana", "state": "PR", "type": "UHE", "phase": "Opera\u00e7\u00e3o", "ceg": "UHEPHPR001075801", "start": "1957-05-01T00:00:00", "capacity": 36000.0, "lat": -25.71494042, "lon": -48.97296714}, {"name": "Guilman Amorim", "state": "MG", "type": "UHE", "phase": "Opera\u00e7\u00e3o", "ceg": "UHEPHMG001079001", "start": "1997-11-02T00:00:00", "capacity": 140000.0, "lat": -19.70833333, "lon": -42.96}, {"name": "Henry Borden", "state": "SP", "type": "UHE", "phase": "Opera\u00e7\u00e3o", "ceg": "UHEPHSP001084701", "start": "1926-01-01T00:00:00", "capacity": 889000.0, "lat": -23.86191495, "lon": -46.46208827}, {"name": "Ibitinga", "state": "SP", "type": "UHE", "phase": "Opera\u00e7\u00e3o", "ceg": "UHEPHSP001097901", "start": "1969-04-20T00:00:00", "capacity": 131490.0, "lat": -21.759167, "lon": -48.990556}, {"name": "Igarapava", "state": "SP", "type": "UHE", "phase": "Opera\u00e7\u00e3o", "ceg": "UHEPHSP001098701", "start": "1998-12-31T00:00:00", "capacity": 210000.0, "lat": -19.98907385, "lon": -47.7559932}, {"name": "Ilha dos Pombos", "state": "RJ", "type": "UHE", "phase": "Opera\u00e7\u00e3o", "ceg": "UHEPHRJ001113401", "start": "1924-01-01T00:00:00", "capacity": 187169.0, "lat": -21.84333333, "lon": -42.57944444}, {"name": "Ilha Solteira", "state": "SP", "type": "UHE", "phase": "Opera\u00e7\u00e3o", "ceg": "UHEPHSP001120701", "start": "1973-07-18T00:00:00", "capacity": 3444000.0, "lat": -20.38333333, "lon": -51.36653361}, {"name": "Irap\u00e9", "state": "MG", "type": "UHE", "phase": "Opera\u00e7\u00e3o", "ceg": "UHEPHMG001146001", "start": "2006-07-20T00:00:00", "capacity": 399000.0, "lat": -16.73805556, "lon": -42.57472222}, {"name": "It\u00e1", "state": "RS", "type": "UHE", "phase": "Opera\u00e7\u00e3o", "ceg": "UHEPHRS001152501", "start": "2000-06-15T00:00:00", "capacity": 1450000.0, "lat": -27.27671111, "lon": -52.38216111}, {"name": "Itaipu (Parte Brasileira)", "state": "PR", "type": "UHE", "phase": "Opera\u00e7\u00e3o", "ceg": "UHEPHPR001161401", "start": "1989-04-01T00:00:00", "capacity": 7000000.0, "lat": -25.40831282, "lon": -54.58741668}, {"name": "Luiz Gonzaga (Itaparica)", "state": "PE", "type": "UHE", "phase": "Opera\u00e7\u00e3o", "ceg": "UHEPHPE001174601", "start": "1988-01-31T00:00:00", "capacity": 1479600.0, "lat": -9.14352303, "lon": -38.31240468}, {"name": "Itapebi", "state": "BA", "type": "UHE", "phase": "Opera\u00e7\u00e3o", "ceg": "UHEPHBA001175401", "start": "2003-02-18T00:00:00", "capacity": 462011.0, "lat": -15.96564305, "lon": -39.59263939}, {"name": "Itumbiara", "state": "MG", "type": "UHE", "phase": "Opera\u00e7\u00e3o", "ceg": "UHEPHMG001194001", "start": "1980-04-24T00:00:00", "capacity": 2082000.0, "lat": -18.42361111, "lon": -49.11833333}, {"name": "Itupararanga", "state": "SP", "type": "UHE", "phase": "Opera\u00e7\u00e3o", "ceg": "UHEPHSP001196701", "start": "1914-01-01T00:00:00", "capacity": 55000.0, "lat": -23.61203363, "lon": -47.39716291}, {"name": "Itutinga", "state": "MG", "type": "UHE", "phase": "Opera\u00e7\u00e3o", "ceg": "UHEPHMG001197501", "start": "1955-01-01T00:00:00", "capacity": 52000.0, "lat": -21.29211111, "lon": -44.62533333}, {"name": "Jacu\u00ed", "state": "RS", "type": "UHE", "phase": "Opera\u00e7\u00e3o", "ceg": "UHEPHRS001217301", "start": "1962-01-01T00:00:00", "capacity": 180000.0, "lat": -29.07277778, "lon": -53.20805556}, {"name": "Jaguara", "state": "SP", "type": "UHE", "phase": "Opera\u00e7\u00e3o", "ceg": "UHEPHSP001225401", "start": "1971-01-01T00:00:00", "capacity": 424000.0, "lat": -20.02273195, "lon": -47.43389241}, {"name": "Jauru", "state": "MT", "type": "UHE", "phase": "Opera\u00e7\u00e3o", "ceg": "UHEPHMT001245901", "start": "2003-06-06T00:00:00", "capacity": 121500.0, "lat": -15.23555556, "lon": -58.72777778}, {"name": "Joasal", "state": "MG", "type": "UHE", "phase": "Opera\u00e7\u00e3o", "ceg": "UHEPHMG001255602", "start": "1950-05-01T00:00:00", "capacity": 8400.0, "lat": -21.79656083, "lon": -43.29685975}, {"name": "Juba I", "state": "MT", "type": "UHE", "phase": "Opera\u00e7\u00e3o", "ceg": "UHEPHMT001268801", "start": "1995-11-10T00:00:00", "capacity": 42000.0, "lat": -14.74020417, "lon": -58.10324806}, {"name": "Juba II", "state": "MT", "type": "UHE", "phase": "Opera\u00e7\u00e3o", "ceg": "UHEPHMT001269601", "start": "1995-08-16T00:00:00", "capacity": 42000.0, "lat": -14.755685, "lon": -58.04621167}, {"name": "Jupi\u00e1 (Eng\u00b0 Souza Dias)", "state": "SP", "type": "UHE", "phase": "Opera\u00e7\u00e3o", "ceg": "UHEPHSP001282301", "start": "1969-04-14T00:00:00", "capacity": 1551200.0, "lat": -20.775833, "lon": -51.626667}, {"name": "Jurumirim (Armando Avellanal Laydner)", "state": "SP", "type": "UHE", "phase": "Opera\u00e7\u00e3o", "ceg": "UHEPHSP001285801", "start": "1962-09-21T00:00:00", "capacity": 100956.0, "lat": -23.21020543, "lon": -49.23040451}, {"name": "Lu\u00eds Eduardo Magalh\u00e3es (Lajeado)", "state": "TO", "type": "UHE", "phase": "Opera\u00e7\u00e3o", "ceg": "UHEPHTO001304801", "start": "2001-12-01T00:00:00", "capacity": 902500.0, "lat": -9.75735525, "lon": -48.37196007}, {"name": "Limoeiro (Armando Salles de Oliveira)", "state": "SP", "type": "UHE", "phase": "Opera\u00e7\u00e3o", "ceg": "UHEPHSP001328501", "start": "1958-12-17T00:00:00", "capacity": 32000.0, "lat": -21.625278, "lon": -47.009444}, {"name": "Machadinho", "state": "SC", "type": "UHE", "phase": "Opera\u00e7\u00e3o", "ceg": "UHEPHSC001356001", "start": "2002-02-16T00:00:00", "capacity": 1140000.0, "lat": -27.52706416, "lon": -51.78968313}, {"name": "Manso", "state": "MT", "type": "UHE", "phase": "Opera\u00e7\u00e3o", "ceg": "UHEPHMT001401001", "start": "2000-11-29T00:00:00", "capacity": 210000.0, "lat": -14.87117506, "lon": -55.78527654}, {"name": "Marimbondo", "state": "MG", "type": "UHE", "phase": "Opera\u00e7\u00e3o", "ceg": "UHEPHMG001417601", "start": "1975-10-25T00:00:00", "capacity": 1440000.0, "lat": -20.30295508, "lon": -49.19767827}, {"name": "Marmelos", "state": "MG", "type": "UHE", "phase": "Opera\u00e7\u00e3o", "ceg": "UHEPHMG001420602", "start": "1915-01-01T00:00:00", "capacity": 4000.0, "lat": -21.78704914, "lon": -43.31050464}, {"name": "Martins", "state": "MG", "type": "UHE", "phase": "Opera\u00e7\u00e3o", "ceg": "UHEPHMG001427302", "start": "1950-11-01T00:00:00", "capacity": 7700.0, "lat": -18.81085276, "lon": -48.38717444}, {"name": "Mascarenhas", "state": "ES", "type": "UHE", "phase": "Opera\u00e7\u00e3o", "ceg": "UHEPHES001432001", "start": "1973-09-21T00:00:00", "capacity": 198000.0, "lat": -19.50048333, "lon": -40.91846389}, {"name": "Miranda", "state": "MG", "type": "UHE", "phase": "Opera\u00e7\u00e3o", "ceg": "UHEPHMG001469901", "start": "1998-05-30T00:00:00", "capacity": 408000.0, "lat": -18.91040777, "lon": -48.04090734}, {"name": "Monte Alto", "state": "MG", "type": "UHE", "phase": "Opera\u00e7\u00e3o", "ceg": "UHEPHMG001489301", "start": "1952-02-27T00:00:00", "capacity": 7360.0, "lat": -20.78236443, "lon": -46.72243018}, {"name": "Mour\u00e3o I", "state": "PR", "type": "UHE", "phase": "Opera\u00e7\u00e3o", "ceg": "UHEPHPR001509102", "start": "1964-06-01T00:00:00", "capacity": 8200.0, "lat": -24.10501667, "lon": -52.33005833}, {"name": "Apol\u00f4nio Sales (Antiga Moxot\u00f3)", "state": "AL", "type": "UHE", "phase": "Opera\u00e7\u00e3o", "ceg": "UHEPHAL001510501", "start": "1977-04-15T00:00:00", "capacity": 400000.0, "lat": -9.35811016, "lon": -38.20849092}, {"name": "Muniz Freire", "state": "ES", "type": "UHE", "phase": "Opera\u00e7\u00e3o", "ceg": "UHEPHES001518001", "start": "1997-01-01T00:00:00", "capacity": 25000.0, "lat": -20.45688002, "lon": -41.47934699}, {"name": "Neblina", "state": "MG", "type": "UHE", "phase": "Opera\u00e7\u00e3o", "ceg": "UHEPHMG001533402", "start": "1948-11-01T00:00:00", "capacity": 6468.0, "lat": -19.83280985, "lon": -41.80073073}, {"name": "Nilo Pe\u00e7anha", "state": "RJ", "type": "UHE", "phase": "Opera\u00e7\u00e3o", "ceg": "UHEPHRJ001536901", "start": "1953-01-01T00:00:00", "capacity": 380030.0, "lat": -22.68330445, "lon": -43.8732751}, {"name": "Nova Avanhandava (Rui Barbosa)", "state": "SP", "type": "UHE", "phase": "Opera\u00e7\u00e3o", "ceg": "UHEPHSP001552001", "start": "1982-12-19T00:00:00", "capacity": 347400.0, "lat": -21.118889, "lon": -50.201111}, {"name": "Nova Ponte", "state": "MG", "type": "UHE", "phase": "Opera\u00e7\u00e3o", "ceg": "UHEPHMG001574101", "start": "1994-01-01T00:00:00", "capacity": 510000.0, "lat": -19.12958199, "lon": -47.69696604}, {"name": "Paci\u00eancia", "state": "MG", "type": "UHE", "phase": "Opera\u00e7\u00e3o", "ceg": "UHEPHMG001927502", "start": "1930-05-27T00:00:00", "capacity": 4080.0, "lat": -21.84467144, "lon": -43.33947619}, {"name": "Palmeiras", "state": "SC", "type": "UHE", "phase": "Opera\u00e7\u00e3o", "ceg": "UHEPHSC001945301", "start": "1963-01-01T00:00:00", "capacity": 24602.0, "lat": -26.64886836, "lon": -49.33853806}, {"name": "Paranapanema", "state": "SP", "type": "UHE", "phase": "Opera\u00e7\u00e3o", "ceg": "UHEPHSP001972001", "start": "1957-01-01T00:00:00", "capacity": 31500.0, "lat": -23.18769353, "lon": -49.38446602}, {"name": "Parano\u00e1", "state": "DF", "type": "UHE", "phase": "Opera\u00e7\u00e3o", "ceg": "UHEPHDF001975503", "start": "1962-01-01T00:00:00", "capacity": 30000.0, "lat": -15.79781389, "lon": -47.78395833}, {"name": "Passo de Ajuricaba", "state": "RS", "type": "UHE", "phase": "Opera\u00e7\u00e3o", "ceg": "UHEPHRS001997602", "start": "1959-10-19T00:00:00", "capacity": 6200.0, "lat": -28.28298278, "lon": -53.81025306}, {"name": "Passo Fundo", "state": "RS", "type": "UHE", "phase": "Opera\u00e7\u00e3o", "ceg": "UHEPHRS002001001", "start": "1973-03-30T00:00:00", "capacity": 226000.0, "lat": -27.55318839, "lon": -52.74140696}, {"name": "Passo Real", "state": "RS", "type": "UHE", "phase": "Opera\u00e7\u00e3o", "ceg": "UHEPHRS002003601", "start": "1973-01-01T00:00:00", "capacity": 158000.0, "lat": -29.01700012, "lon": -53.19004308}, {"name": "Paulo Afonso I", "state": "BA", "type": "UHE", "phase": "Opera\u00e7\u00e3o", "ceg": "UHEPHBA002012501", "start": "1964-12-30T00:00:00", "capacity": 180001.0, "lat": -9.39810378, "lon": -38.20287244}, {"name": "Marechal Mascarenhas de Moraes (Antiga Peixoto)", "state": "MG", "type": "UHE", "phase": "Opera\u00e7\u00e3o", "ceg": "UHEPHMG002038901", "start": "1957-04-01T00:00:00", "capacity": 476000.0, "lat": -20.28626109, "lon": -47.06438589}, {"name": "Pereira Passos", "state": "RJ", "type": "UHE", "phase": "Opera\u00e7\u00e3o", "ceg": "UHEPHRJ002043501", "start": "1962-01-01T00:00:00", "capacity": 99900.0, "lat": -22.68666667, "lon": -43.82361111}, {"name": "Pery", "state": "SC", "type": "UHE", "phase": "Opera\u00e7\u00e3o", "ceg": "UHEPHSC002045102", "start": "2013-10-24T00:00:00", "capacity": 30000.0, "lat": -27.45775289, "lon": -50.63972378}, {"name": "Peti", "state": "MG", "type": "UHE", "phase": "Opera\u00e7\u00e3o", "ceg": "UHEPHMG002047801", "start": "1946-05-19T00:00:00", "capacity": 9400.0, "lat": -19.89353366, "lon": -43.36655949}, {"name": "Piau", "state": "MG", "type": "UHE", "phase": "Opera\u00e7\u00e3o", "ceg": "UHEPHMG002052402", "start": "1955-01-01T00:00:00", "capacity": 18012.0, "lat": -21.48916667, "lon": -43.40222222}, {"name": "Picada", "state": "MG", "type": "UHE", "phase": "Opera\u00e7\u00e3o", "ceg": "UHEPHMG002053201", "start": "2006-07-01T00:00:00", "capacity": 50000.0, "lat": -21.88485833, "lon": -43.54083611}, {"name": "Piraj\u00fa", "state": "SP", "type": "UHE", "phase": "Opera\u00e7\u00e3o", "ceg": "UHEPHSP002077001", "start": "2002-09-12T00:00:00", "capacity": 70000.0, "lat": -23.15423721, "lon": -49.37997117}, {"name": "Ponte de Pedra", "state": "MT", "type": "UHE", "phase": "Opera\u00e7\u00e3o", "ceg": "UHEPHMT002103201", "start": "2005-07-19T00:00:00", "capacity": 176100.0, "lat": -17.60779146, "lon": -54.82731282}, {"name": "Porto Col\u00f4mbia", "state": "MG", "type": "UHE", "phase": "Opera\u00e7\u00e3o", "ceg": "UHEPHMG002117201", "start": "1973-06-29T00:00:00", "capacity": 320000.0, "lat": -20.124167, "lon": -48.571944}, {"name": "Porto G\u00f3es", "state": "SP", "type": "UHE", "phase": "Opera\u00e7\u00e3o", "ceg": "UHEPHSP002123701", "start": "1928-11-04T00:00:00", "capacity": 24800.0, "lat": -23.20940495, "lon": -47.29940616}, {"name": "Porto Primavera (Eng\u00b0 S\u00e9rgio Motta)", "state": "SP", "type": "UHE", "phase": "Opera\u00e7\u00e3o", "ceg": "UHEPHSP002127001", "start": "1999-01-22T00:00:00", "capacity": 1540000.0, "lat": -22.47567361, "lon": -52.958685}, {"name": "Porto Raso", "state": "SP", "type": "UHE", "phase": "Opera\u00e7\u00e3o", "ceg": "UHEPHSP002128801", "start": "1982-01-01T00:00:00", "capacity": 28400.0, "lat": -24.06183613, "lon": -47.4163541}, {"name": "Promiss\u00e3o (M\u00e1rio Lopes Le\u00e3o)", "state": "SP", "type": "UHE", "phase": "Opera\u00e7\u00e3o", "ceg": "UHEPHSP002158001", "start": "1975-07-28T00:00:00", "capacity": 264000.0, "lat": -21.296111, "lon": -49.783056}, {"name": "Quebra Queixo", "state": "SC", "type": "UHE", "phase": "Opera\u00e7\u00e3o", "ceg": "UHEPHSC002167901", "start": "2003-12-31T00:00:00", "capacity": 120000.0, "lat": -26.65774515, "lon": -52.54486182}, {"name": "Queimado", "state": "MG", "type": "UHE", "phase": "Opera\u00e7\u00e3o", "ceg": "UHEPHMG002176801", "start": "2004-06-16T00:00:00", "capacity": 105000.0, "lat": -16.21072107, "lon": -47.32333229}, {"name": "Rasg\u00e3o", "state": "SP", "type": "UHE", "phase": "Opera\u00e7\u00e3o", "ceg": "UHEPHSP002187301", "start": "1925-09-06T00:00:00", "capacity": 22000.0, "lat": -23.3830933, "lon": -47.02960459}, {"name": "Rio do Peixe (Casa de For\u00e7a I e II)", "state": "SP", "type": "UHE", "phase": "Opera\u00e7\u00e3o", "ceg": "UHEPHSP002353101", "start": "1925-01-01T00:00:00", "capacity": 18060.0, "lat": -21.62708478, "lon": -46.79044079}, {"name": "Rochedo", "state": "GO", "type": "UHE", "phase": "Opera\u00e7\u00e3o", "ceg": "UHEPHGO002537202", "start": "1956-01-01T00:00:00", "capacity": 4000.0, "lat": -17.38821667, "lon": -49.21722222}, {"name": "Rosal", "state": "ES", "type": "UHE", "phase": "Opera\u00e7\u00e3o", "ceg": "UHEPHES002553401", "start": "2000-01-18T00:00:00", "capacity": 55000.0, "lat": -20.91713546, "lon": -41.72192365}, {"name": "Rosana", "state": "SP", "type": "UHE", "phase": "Opera\u00e7\u00e3o", "ceg": "UHEPHSP002555001", "start": "1987-05-20T00:00:00", "capacity": 354000.0, "lat": -22.6, "lon": -52.869444}, {"name": "S\u00e1 Carvalho", "state": "MG", "type": "UHE", "phase": "Opera\u00e7\u00e3o", "ceg": "UHEPHMG002563101", "start": "1951-01-01T00:00:00", "capacity": 78000.0, "lat": -19.64622125, "lon": -42.85018157}, {"name": "Governador Jos\u00e9 Richa (Salto Caxias)", "state": "PR", "type": "UHE", "phase": "Opera\u00e7\u00e3o", "ceg": "UHEPHPR002591701", "start": "1999-02-18T00:00:00", "capacity": 1240000.0, "lat": -25.54305498, "lon": -53.49805503}, {"name": "Salto do Iporanga", "state": "SP", "type": "UHE", "phase": "Opera\u00e7\u00e3o", "ceg": "UHEPHSP002626301", "start": "1989-12-31T00:00:00", "capacity": 36870.0, "lat": -24.10040253, "lon": -47.71986873}, {"name": "Salto Grande (Lucas Nogueira Garcez)", "state": "SP", "type": "UHE", "phase": "Opera\u00e7\u00e3o", "ceg": "UHEPHSP002648401", "start": "1958-05-31T00:00:00", "capacity": 73800.0, "lat": -22.90389936, "lon": -49.99798631}, {"name": "Salto Os\u00f3rio", "state": "PR", "type": "UHE", "phase": "Opera\u00e7\u00e3o", "ceg": "UHEPHPR002659001", "start": "1975-01-01T00:00:00", "capacity": 1103670.0, "lat": -25.53756844, "lon": -53.00896732}, {"name": "Salto Santiago", "state": "PR", "type": "UHE", "phase": "Opera\u00e7\u00e3o", "ceg": "UHEPHPR002672701", "start": "1980-01-01T00:00:00", "capacity": 1420000.0, "lat": -25.62876331, "lon": -52.61452548}, {"name": "Salto (Salto Weissbach)", "state": "SC", "type": "UHE", "phase": "Opera\u00e7\u00e3o", "ceg": "UHEPHSC002682402", "start": "1914-01-01T00:00:00", "capacity": 6280.0, "lat": -26.87972222, "lon": -49.11}, {"name": "Samuel", "state": "RO", "type": "UHE", "phase": "Opera\u00e7\u00e3o", "ceg": "UHEPHRO002687501", "start": "1989-07-17T00:00:00", "capacity": 216750.0, "lat": -8.75098097, "lon": -63.45423064}, {"name": "Santa Branca", "state": "SP", "type": "UHE", "phase": "Opera\u00e7\u00e3o", "ceg": "UHEPHSP002696401", "start": "1999-05-21T00:00:00", "capacity": 56050.0, "lat": -23.37350015, "lon": -45.87151388}, {"name": "Santa Clara", "state": "MG", "type": "UHE", "phase": "Opera\u00e7\u00e3o", "ceg": "UHEPHMG002699901", "start": "2002-02-20T00:00:00", "capacity": 60000.0, "lat": -17.89615334, "lon": -40.20182371}, {"name": "S\u00e3o Sim\u00e3o", "state": "GO", "type": "UHE", "phase": "Opera\u00e7\u00e3o", "ceg": "UHEPHGO002704901", "start": "1978-01-01T00:00:00", "capacity": 1710000.0, "lat": -19.01833333, "lon": -50.49861111}, {"name": "Governador Ney Aminthas de Barros Braga (Segredo)", "state": "PR", "type": "UHE", "phase": "Opera\u00e7\u00e3o", "ceg": "UHEPHPR002715401", "start": "1992-09-29T00:00:00", "capacity": 1260000.0, "lat": -25.79045354, "lon": -52.11231046}, {"name": "Serra da Mesa", "state": "GO", "type": "UHE", "phase": "Opera\u00e7\u00e3o", "ceg": "UHEPHGO002731601", "start": "1998-04-30T00:00:00", "capacity": 1275000.0, "lat": -13.83386362, "lon": -48.30485761}, {"name": "Serraria", "state": "SP", "type": "UHE", "phase": "Opera\u00e7\u00e3o", "ceg": "UHEPHSP002740501", "start": "1978-01-01T00:00:00", "capacity": 24000.0, "lat": -24.151944, "lon": -47.548056}, {"name": "Sinceridade", "state": "MG", "type": "UHE", "phase": "Opera\u00e7\u00e3o", "ceg": "UHEPHMG002751002", "start": "1963-03-01T00:00:00", "capacity": 1416.0, "lat": -20.22738265, "lon": -41.99555804}, {"name": "Sobradinho", "state": "BA", "type": "UHE", "phase": "Opera\u00e7\u00e3o", "ceg": "UHEPHBA002755301", "start": "1982-03-03T00:00:00", "capacity": 1050300.0, "lat": -9.43023841, "lon": -40.82719916}, {"name": "Sobragi", "state": "MG", "type": "UHE", "phase": "Opera\u00e7\u00e3o", "ceg": "UHEPHMG002757001", "start": "1998-07-01T00:00:00", "capacity": 60000.0, "lat": -21.9792544, "lon": -43.36307658}, {"name": "Su\u00ed\u00e7a", "state": "ES", "type": "UHE", "phase": "Opera\u00e7\u00e3o", "ceg": "UHEPHES002781201", "start": "1965-01-01T00:00:00", "capacity": 35337.0, "lat": -20.08315133, "lon": -40.57701158}, {"name": "Taquaru\u00e7u (Escola Polit\u00e9cnica)", "state": "SP", "type": "UHE", "phase": "Opera\u00e7\u00e3o", "ceg": "UHEPHSP002821501", "start": "1992-11-12T00:00:00", "capacity": 525000.0, "lat": -22.54366911, "lon": -52.00024984}, {"name": "Tr\u00eas Irm\u00e3os", "state": "SP", "type": "UHE", "phase": "Opera\u00e7\u00e3o", "ceg": "UHEPHSP002873801", "start": "1993-11-28T00:00:00", "capacity": 807500.0, "lat": -20.66867696, "lon": -51.29977116}, {"name": "Tronqueiras", "state": "MG", "type": "UHE", "phase": "Opera\u00e7\u00e3o", "ceg": "UHEPHMG002886002", "start": "1954-10-01T00:00:00", "capacity": 8500.0, "lat": -18.71899192, "lon": -42.26287429}, {"name": "Tucuru\u00ed", "state": "PA", "type": "UHE", "phase": "Opera\u00e7\u00e3o", "ceg": "UHEPHPA002889401", "start": "1984-12-30T00:00:00", "capacity": 8535000.0, "lat": -3.83159761, "lon": -49.64312078}, {"name": "Volta Grande", "state": "SP", "type": "UHE", "phase": "Opera\u00e7\u00e3o", "ceg": "UHEPHSP003045701", "start": "1974-04-22T00:00:00", "capacity": 380000.0, "lat": -20.03326721, "lon": -48.22184427}, {"name": "Santo Ant\u00f4nio do Jari", "state": "AP", "type": "UHE", "phase": "Opera\u00e7\u00e3o", "ceg": "UHEPHAP026792901", "start": "2014-09-17T00:00:00", "capacity": 392950.0, "lat": -0.65, "lon": -52.51666667}, {"name": "Dona Francisca", "state": "RS", "type": "UHE", "phase": "Opera\u00e7\u00e3o", "ceg": "UHEPHRS027012101", "start": "2001-02-05T00:00:00", "capacity": 125000.0, "lat": -29.4490883, "lon": -53.28500397}, {"name": "Ita\u00faba", "state": "RS", "type": "UHE", "phase": "Opera\u00e7\u00e3o", "ceg": "UHEPHRS027019901", "start": "1979-01-01T00:00:00", "capacity": 500400.0, "lat": -29.26071944, "lon": -53.23588333}, {"name": "Erv\u00e1lia", "state": "MG", "type": "UHE", "phase": "Opera\u00e7\u00e3o", "ceg": "UHEPHMG027034202", "start": "1999-01-01T00:00:00", "capacity": 6970.0, "lat": -20.90705556, "lon": -42.66161111}, {"name": "Funil", "state": "BA", "type": "UHE", "phase": "Opera\u00e7\u00e3o", "ceg": "UHEPHBA027046601", "start": "1970-02-13T00:00:00", "capacity": 30000.0, "lat": -14.22905584, "lon": -39.46204685}, {"name": "Paulo Afonso II", "state": "BA", "type": "UHE", "phase": "Opera\u00e7\u00e3o", "ceg": "UHEPHBA027048201", "start": "1961-10-24T00:00:00", "capacity": 443000.0, "lat": -9.39688312, "lon": -38.20266305}, {"name": "Paulo Afonso III", "state": "BA", "type": "UHE", "phase": "Opera\u00e7\u00e3o", "ceg": "UHEPHBA027049001", "start": "1971-10-21T00:00:00", "capacity": 794200.0, "lat": -9.39605031, "lon": -38.20193731}, {"name": "Paulo Afonso IV", "state": "BA", "type": "UHE", "phase": "Opera\u00e7\u00e3o", "ceg": "UHEPHBA027050401", "start": "1979-12-01T00:00:00", "capacity": 2462400.0, "lat": -9.41564531, "lon": -38.20767127}, {"name": "Pedra", "state": "BA", "type": "UHE", "phase": "Opera\u00e7\u00e3o", "ceg": "UHEPHBA027052001", "start": "1978-11-13T00:00:00", "capacity": 20007.0, "lat": -13.86834951, "lon": -40.23575873}, {"name": "Xing\u00f3", "state": "SE", "type": "UHE", "phase": "Opera\u00e7\u00e3o", "ceg": "UHEPHSE027053901", "start": "1994-12-16T00:00:00", "capacity": 3162000.0, "lat": -9.61958018, "lon": -37.7925598}, {"name": "Canoas II", "state": "SP", "type": "UHE", "phase": "Opera\u00e7\u00e3o", "ceg": "UHEPHSP027092001", "start": "1999-07-13T00:00:00", "capacity": 72000.0, "lat": -22.93833333, "lon": -50.25083333}, {"name": "Tr\u00eas Marias", "state": "MG", "type": "UHE", "phase": "Opera\u00e7\u00e3o", "ceg": "UHEPHMG027113601", "start": "1962-01-01T00:00:00", "capacity": 396000.0, "lat": -18.215, "lon": -45.25916666}, {"name": "Theodomiro Carneiro Santiago ( Antiga Emborca\u00e7\u00e3o)", "state": "MG", "type": "UHE", "phase": "Opera\u00e7\u00e3o", "ceg": "UHEPHMG027115201", "start": "1982-08-02T00:00:00", "capacity": 1192000.0, "lat": -18.45234934, "lon": -47.98477771}, {"name": "Funil", "state": "RJ", "type": "UHE", "phase": "Opera\u00e7\u00e3o", "ceg": "UHEPHRJ027118701", "start": "1970-03-20T00:00:00", "capacity": 216000.0, "lat": -22.52881287, "lon": -44.56793131}, {"name": "Paraibuna", "state": "SP", "type": "UHE", "phase": "Opera\u00e7\u00e3o", "ceg": "UHEPHSP027122501", "start": "1978-04-20T00:00:00", "capacity": 87020.0, "lat": -23.41, "lon": -45.600556}, {"name": "Curu\u00e1-Una", "state": "PA", "type": "UHE", "phase": "Opera\u00e7\u00e3o", "ceg": "UHEPHPA027130601", "start": "1977-01-01T00:00:00", "capacity": 42800.0, "lat": -2.81805556, "lon": -54.29994444}, {"name": "Jaguari", "state": "SP", "type": "UHE", "phase": "Opera\u00e7\u00e3o", "ceg": "UHEPHSP027131401", "start": "1973-12-11T00:00:00", "capacity": 27600.0, "lat": -23.19298222, "lon": -46.02131538}, {"name": "S\u00e3o Jo\u00e3o", "state": "MG", "type": "UHE", "phase": "Opera\u00e7\u00e3o", "ceg": "UHEPHMG027195001", "start": "1943-08-06T00:00:00", "capacity": 3200.0, "lat": -20.80722222, "lon": -46.70888889}, {"name": "Porto Estrela", "state": "MG", "type": "UHE", "phase": "Opera\u00e7\u00e3o", "ceg": "UHEPHMG027196901", "start": "2001-09-04T00:00:00", "capacity": 112240.0, "lat": -19.11590557, "lon": -42.66251728}, {"name": "Salto Grande", "state": "MG", "type": "UHE", "phase": "Opera\u00e7\u00e3o", "ceg": "UHEPHMG027210801", "start": "1956-01-01T00:00:00", "capacity": 102000.0, "lat": -19.16527776, "lon": -42.77504028}, {"name": "Itiquira (Casas de For\u00e7as  I e  II)", "state": "MT", "type": "UHE", "phase": "Opera\u00e7\u00e3o", "ceg": "UHEPHMT027244201", "start": "2002-11-06T00:00:00", "capacity": 157370.0, "lat": -17.09064722, "lon": -54.83073611}, {"name": "Campos Novos", "state": "SC", "type": "UHE", "phase": "Opera\u00e7\u00e3o", "ceg": "UHEPHSC027401101", "start": "2007-02-03T00:00:00", "capacity": 880000.0, "lat": -27.6041189, "lon": -51.32711724}, {"name": "Alto F\u00eameas I", "state": "BA", "type": "UHE", "phase": "Opera\u00e7\u00e3o", "ceg": "UHEPHBA027414301", "start": "1992-01-01T00:00:00", "capacity": 10650.0, "lat": -12.4523775, "lon": -45.19069222}, {"name": "Rondon II", "state": "RO", "type": "UHE", "phase": "Opera\u00e7\u00e3o", "ceg": "UHEPHRO027448801", "start": "2011-03-31T00:00:00", "capacity": 73500.0, "lat": -11.99569161, "lon": -60.69684151}, {"name": "Amador Aguiar I (Antiga Capim Branco I)", "state": "MG", "type": "UHE", "phase": "Opera\u00e7\u00e3o", "ceg": "UHEPHMG027483601", "start": "2006-02-21T00:00:00", "capacity": 243090.0, "lat": -18.78913732, "lon": -48.14859863}, {"name": "Amador Aguiar II (Antiga Capim Branco II)", "state": "MG", "type": "UHE", "phase": "Opera\u00e7\u00e3o", "ceg": "UHEPHMG027484401", "start": "2007-03-09T00:00:00", "capacity": 211470.0, "lat": -18.65915555, "lon": -48.43677}, {"name": "Barra Grande", "state": "RS", "type": "UHE", "phase": "Opera\u00e7\u00e3o", "ceg": "UHEPHRS027556501", "start": "2005-11-01T00:00:00", "capacity": 690000.0, "lat": -27.78026185, "lon": -51.19189954}, {"name": "S\u00e3o Domingos", "state": "GO", "type": "UHE", "phase": "Opera\u00e7\u00e3o", "ceg": "UHEPHGO027665001", "start": "1990-06-19T00:00:00", "capacity": 12000.0, "lat": -13.40603921, "lon": -46.3425652}, {"name": "Corumb\u00e1 IV", "state": "GO", "type": "UHE", "phase": "Opera\u00e7\u00e3o", "ceg": "UHEPHGO027795901", "start": "2006-04-01T00:00:00", "capacity": 129200.0, "lat": -16.32273448, "lon": -48.18748167}, {"name": "Ourinhos", "state": "SP", "type": "UHE", "phase": "Opera\u00e7\u00e3o", "ceg": "UHEPHSP027872601", "start": "2005-12-07T00:00:00", "capacity": 44000.0, "lat": -23.06825556, "lon": -49.83797778}, {"name": "Monte Claro", "state": "RS", "type": "UHE", "phase": "Opera\u00e7\u00e3o", "ceg": "UHEPHRS027968401", "start": "2004-12-29T00:00:00", "capacity": 130000.0, "lat": -29.03083717, "lon": -51.52125794}, {"name": "Pitinga", "state": "AM", "type": "UHE", "phase": "Opera\u00e7\u00e3o", "ceg": "UHEPHAM028009701", "start": "1986-01-01T00:00:00", "capacity": 24960.0, "lat": -0.8659369, "lon": -59.60498374}, {"name": "Assis Chateaubriand(Antiga Salto Mimoso)", "state": "MS", "type": "UHE", "phase": "Opera\u00e7\u00e3o", "ceg": "UHEPHMS028012701", "start": "1969-10-01T00:00:00", "capacity": 29500.0, "lat": -20.675275, "lon": -53.56756111}, {"name": "Dona Rita", "state": "MG", "type": "UHE", "phase": "Opera\u00e7\u00e3o", "ceg": "UHEPHMG028084402", "start": "1959-01-01T00:00:00", "capacity": 2408.0, "lat": -19.42333333, "lon": -43.20083333}, {"name": "Corumb\u00e1 III", "state": "GO", "type": "UHE", "phase": "Opera\u00e7\u00e3o", "ceg": "UHEPHGO028352501", "start": "2009-10-24T00:00:00", "capacity": 96447.0, "lat": -16.78820051, "lon": -47.93461949}, {"name": "Peixe Angical", "state": "TO", "type": "UHE", "phase": "Opera\u00e7\u00e3o", "ceg": "UHEPHTO028353301", "start": "2006-06-27T00:00:00", "capacity": 498750.0, "lat": -12.23546655, "lon": -48.38636694}, {"name": "Foz do Chapec\u00f3", "state": "RS", "type": "UHE", "phase": "Opera\u00e7\u00e3o", "ceg": "UHEPHRS028354101", "start": "2010-10-14T00:00:00", "capacity": 855000.0, "lat": -27.14, "lon": -53.04333333}, {"name": "Serra do Fac\u00e3o", "state": "GO", "type": "UHE", "phase": "Opera\u00e7\u00e3o", "ceg": "UHEPHGO028355001", "start": "2010-07-13T00:00:00", "capacity": 212580.0, "lat": -18.04597521, "lon": -47.67489042}, {"name": "Fund\u00e3o", "state": "PR", "type": "UHE", "phase": "Opera\u00e7\u00e3o", "ceg": "UHEPHPR028360601", "start": "2006-06-23T00:00:00", "capacity": 120168.0, "lat": -25.70344814, "lon": -52.00202223}, {"name": "Santa Clara", "state": "PR", "type": "UHE", "phase": "Opera\u00e7\u00e3o", "ceg": "UHEPHPR028361401", "start": "2005-07-31T00:00:00", "capacity": 120168.0, "lat": -25.64561896, "lon": -51.95688159}, {"name": "Monjolinho (Antiga Alzir dos Santos Antunes)", "state": "RS", "type": "UHE", "phase": "Opera\u00e7\u00e3o", "ceg": "UHEPHRS028562501", "start": "2009-09-01T00:00:00", "capacity": 74000.0, "lat": -27.34603944, "lon": -52.73162917}, {"name": "Salto Pil\u00e3o", "state": "SC", "type": "UHE", "phase": "Opera\u00e7\u00e3o", "ceg": "UHEPHSC028564101", "start": "2009-12-11T00:00:00", "capacity": 191890.0, "lat": -27.13589075, "lon": -49.5182639}, {"name": "Pedra do Cavalo", "state": "BA", "type": "UHE", "phase": "Opera\u00e7\u00e3o", "ceg": "UHEPHBA028565001", "start": "2004-12-16T00:00:00", "capacity": 160000.0, "lat": -12.58353873, "lon": -38.9980234}, {"name": "S\u00e3o Salvador", "state": "TO", "type": "UHE", "phase": "Opera\u00e7\u00e3o", "ceg": "UHEPHTO028567601", "start": "2009-08-06T00:00:00", "capacity": 243200.0, "lat": -12.80843539, "lon": -48.23817967}, {"name": "Ca\u00e7u", "state": "GO", "type": "UHE", "phase": "Opera\u00e7\u00e3o", "ceg": "UHEPHGO028756301", "start": "2010-07-24T00:00:00", "capacity": 65000.0, "lat": -18.53055556, "lon": -51.14777778}, {"name": "Barra dos Coqueiros", "state": "GO", "type": "UHE", "phase": "Opera\u00e7\u00e3o", "ceg": "UHEPHGO028757101", "start": "2010-06-19T00:00:00", "capacity": 90000.0, "lat": -18.72172588, "lon": -51.00279929}, {"name": "Salto", "state": "GO", "type": "UHE", "phase": "Opera\u00e7\u00e3o", "ceg": "UHEPHGO028758001", "start": "2010-05-25T00:00:00", "capacity": 116000.0, "lat": -18.80818105, "lon": -51.17098633}, {"name": "Salto do Rio Verdinho", "state": "GO", "type": "UHE", "phase": "Opera\u00e7\u00e3o", "ceg": "UHEPHGO028760101", "start": "2010-07-06T00:00:00", "capacity": 93000.0, "lat": -19.1427002, "lon": -50.75394483}, {"name": "S\u00e3o Domingos", "state": "MS", "type": "UHE", "phase": "Opera\u00e7\u00e3o", "ceg": "UHEPHMS028761001", "start": "2013-06-14T00:00:00", "capacity": 48000.0, "lat": -20.05975395, "lon": -53.18037107}, {"name": "Estreito", "state": "MA", "type": "UHE", "phase": "Opera\u00e7\u00e3o", "ceg": "UHEPHMA028863201", "start": "2011-04-29T00:00:00", "capacity": 1087000.0, "lat": -6.58909741, "lon": -47.46648003}, {"name": "Salto Curucaca (Antiga Salto Curucaca II)", "state": "PR", "type": "UHE", "phase": "Opera\u00e7\u00e3o", "ceg": "UHEPHPR028994901", "start": "2016-09-03T00:00:00", "capacity": 37042.0, "lat": -25.53277778, "lon": -51.81555556}, {"name": "Baguari", "state": "MG", "type": "UHE", "phase": "Opera\u00e7\u00e3o", "ceg": "UHEPHMG029453501", "start": "2009-09-09T00:00:00", "capacity": 140000.0, "lat": -19.02156872, "lon": -42.12489562}, {"name": "Batalha (Antiga Paulista)", "state": "MG", "type": "UHE", "phase": "Opera\u00e7\u00e3o", "ceg": "UHEPHMG029454301", "start": "2014-05-17T00:00:00", "capacity": 52500.0, "lat": -17.34555556, "lon": -47.48944444}, {"name": "Engenheiro Jos\u00e9 Luiz Muller de Godoy Pereira (Antiga Foz do Rio Claro)", "state": "GO", "type": "UHE", "phase": "Opera\u00e7\u00e3o", "ceg": "UHEPHGO029455101", "start": "2010-08-05T00:00:00", "capacity": 68400.0, "lat": -19.11711153, "lon": -50.64569832}, {"name": "Passo S\u00e3o Jo\u00e3o", "state": "RS", "type": "UHE", "phase": "Opera\u00e7\u00e3o", "ceg": "UHEPHRS029456001", "start": "2012-03-24T00:00:00", "capacity": 77000.0, "lat": -28.14111111, "lon": -55.05194444}, {"name": "Retiro Baixo", "state": "MG", "type": "UHE", "phase": "Opera\u00e7\u00e3o", "ceg": "UHEPHMG029457801", "start": "2010-03-03T00:00:00", "capacity": 83657.0, "lat": -18.87941162, "lon": -44.77613074}, {"name": "Simpl\u00edcio", "state": "MG", "type": "UHE", "phase": "Opera\u00e7\u00e3o", "ceg": "UHEPHMG029458601", "start": "2013-06-05T00:00:00", "capacity": 333700.0, "lat": -21.92074371, "lon": -42.79314838}, {"name": "S\u00e3o Jos\u00e9", "state": "RS", "type": "UHE", "phase": "Opera\u00e7\u00e3o", "ceg": "UHEPHRS029459401", "start": "2011-03-29T00:00:00", "capacity": 51000.0, "lat": -28.17736604, "lon": -54.81463675}, {"name": "Dardanelos", "state": "MT", "type": "UHE", "phase": "Opera\u00e7\u00e3o", "ceg": "UHEPHMT029597301", "start": "2011-08-09T00:00:00", "capacity": 261000.0, "lat": -10.16333333, "lon": -59.46416667}, {"name": "Governador Jayme Canet Junior (Antiga MAU\u00c1)", "state": "PR", "type": "UHE", "phase": "Opera\u00e7\u00e3o", "ceg": "UHEPHPR029598101", "start": "2012-11-23T00:00:00", "capacity": 361000.0, "lat": -24.06211584, "lon": -50.70715699}, {"name": "Santo Ant\u00f4nio", "state": "RO", "type": "UHE", "phase": "Opera\u00e7\u00e3o", "ceg": "UHEPHRO029707001", "start": "2012-03-30T00:00:00", "capacity": 3568000.0, "lat": -8.79668531, "lon": -63.95218496}, {"name": "Jirau", "state": "RO", "type": "UHE", "phase": "Opera\u00e7\u00e3o", "ceg": "UHEPHRO029736401", "start": "2013-09-06T00:00:00", "capacity": 3750000.0, "lat": -9.26750812, "lon": -64.64614265}, {"name": "Belo Monte", "state": "PA", "type": "UHE", "phase": "Opera\u00e7\u00e3o", "ceg": "UHEPHPA030354201", "start": "2016-04-20T00:00:00", "capacity": 11233100.0, "lat": -3.12676409, "lon": -51.775}, {"name": "Ferreira Gomes", "state": "AP", "type": "UHE", "phase": "Opera\u00e7\u00e3o", "ceg": "UHEPHAP030385201", "start": "2014-11-04T00:00:00", "capacity": 252000.0, "lat": 0.85565556, "lon": -51.19683333}, {"name": "Garibaldi", "state": "SC", "type": "UHE", "phase": "Opera\u00e7\u00e3o", "ceg": "UHEPHSC030415801", "start": "2013-09-24T00:00:00", "capacity": 191900.0, "lat": -27.62472222, "lon": -50.98388889}, {"name": "Col\u00edder", "state": "MT", "type": "UHE", "phase": "Opera\u00e7\u00e3o", "ceg": "UHEPHMT030422001", "start": "2019-03-09T00:00:00", "capacity": 300000.0, "lat": -10.98480528, "lon": -55.766005}, {"name": "Teles Pires", "state": "PA", "type": "UHE", "phase": "Opera\u00e7\u00e3o", "ceg": "UHEPHPA030557001", "start": "2015-11-07T00:00:00", "capacity": 1819800.0, "lat": -9.35150944, "lon": -56.77799361}, {"name": "Baixo Igua\u00e7u", "state": "PR", "type": "UHE", "phase": "Opera\u00e7\u00e3o", "ceg": "UHEPHPR030923001", "start": "2019-02-08T00:00:00", "capacity": 350200.0, "lat": -25.50333, "lon": -53.671666}, {"name": "S\u00e3o Roque", "state": "SC", "type": "UHE", "phase": "Opera\u00e7\u00e3o", "ceg": "UHEPHSC030938901", "start": "2022-07-21T00:00:00", "capacity": 141900.0, "lat": -27.49777778, "lon": -50.80463889}, {"name": "Cachoeira Caldeir\u00e3o", "state": "AP", "type": "UHE", "phase": "Opera\u00e7\u00e3o", "ceg": "UHEPHAP031186301", "start": "2016-05-05T00:00:00", "capacity": 219000.0, "lat": 0.85277778, "lon": -51.29666667}, {"name": "Salto Apiac\u00e1s", "state": "MT", "type": "UHE", "phase": "Opera\u00e7\u00e3o", "ceg": "UHEPHMT031401301", "start": "2016-09-17T00:00:00", "capacity": 45000.0, "lat": -10.33861108, "lon": -56.98277784}, {"name": "Sinop", "state": "MT", "type": "UHE", "phase": "Opera\u00e7\u00e3o", "ceg": "UHEPHMT031428501", "start": "2019-09-17T00:00:00", "capacity": 401880.0, "lat": -11.26666667, "lon": -55.45}, {"name": "S\u00e3o Manoel", "state": "PA", "type": "UHE", "phase": "Opera\u00e7\u00e3o", "ceg": "UHEPHPA031444701", "start": "2017-12-28T00:00:00", "capacity": 700000.0, "lat": -9.19027541, "lon": -57.05222718}, {"name": "Tibagi Montante", "state": "PR", "type": "UHE", "phase": "Opera\u00e7\u00e3o", "ceg": "UHEPHPR032923101", "start": "2019-10-05T00:00:00", "capacity": 36018.0, "lat": -24.53416662, "lon": -50.40638876}]