[{"name": "A\u00e7ominas", "state": "MG", "type": "UTE", "phase": "Opera\u00e7\u00e3o", "ceg": "UTECMMG000019101", "start": "2002-08-01T00:00:00", "capacity": 102890.0, "lat": -20.5246084, "lon": -43.67546915}, {"name": "Alta Mogiana", "state": "SP", "type": "UTE", "phase": "Opera\u00e7\u00e3o", "ceg": "UTEAISP000060401", "start": "1994-04-19T00:00:00", "capacity": 71000.0, "lat": -20.48184967, "lon": -47.86622455}, {"name": "Anam\u00e3", "state": "AM", "type": "UTE", "phase": "Opera\u00e7\u00e3o", "ceg": "UTEGNAM000092202", "start": "2013-11-29T00:00:00", "capacity": 2165.0, "lat": -3.57916666, "lon": -61.40555555}, {"name": "Anori / Am", "state": "AM", "type": "UTE", "phase": "Opera\u00e7\u00e3o", "ceg": "UTEGNAM000105802", "start": "2013-12-20T00:00:00", "capacity": 4570.0, "lat": -3.71027778, "lon": -61.66305555}, {"name": "Aracruz", "state": "ES", "type": "UTE", "phase": "Opera\u00e7\u00e3o", "ceg": "UTEFLES000127901", "start": "2002-05-01T00:00:00", "capacity": 238000.0, "lat": -19.84295367, "lon": -40.07470155}, {"name": "Novo Aripuan\u00e3", "state": "AM", "type": "UTE", "phase": "Opera\u00e7\u00e3o", "ceg": "UTEPEAM000145701", "start": "2005-10-01T00:00:00", "capacity": 7670.0, "lat": -5.12066596, "lon": -60.38043633}, {"name": "Asfor", "state": "CE", "type": "UTE", "phase": "Opera\u00e7\u00e3o", "ceg": "UTEGNCE000162701", "start": "1996-08-15T00:00:00", "capacity": 3350.0, "lat": -3.71666053, "lon": -38.47283271}, {"name": "Bahia Pulp (Antiga Bacell)", "state": "BA", "type": "UTE", "phase": "Opera\u00e7\u00e3o", "ceg": "UTEFLBA000182101", "start": "1900-01-03T00:00:00", "capacity": 108600.0, "lat": -12.64308242, "lon": -38.33717137}, {"name": "Suzano Mucuri (Antiga Bahia Sul)", "state": "BA", "type": "UTE", "phase": "Opera\u00e7\u00e3o", "ceg": "UTEFLBA000187201", "start": "1992-03-01T00:00:00", "capacity": 214080.0, "lat": -18.04246214, "lon": -39.91966083}, {"name": "Barralcool", "state": "MT", "type": "UTE", "phase": "Opera\u00e7\u00e3o", "ceg": "UTEAIMT000227501", "start": "2002-10-01T00:00:00", "capacity": 30000.0, "lat": -15.03297384, "lon": -57.21052538}, {"name": "Batatais", "state": "SP", "type": "UTE", "phase": "Opera\u00e7\u00e3o", "ceg": "UTEAISP000236401", "start": "1990-05-01T00:00:00", "capacity": 8400.0, "lat": -20.74957275, "lon": -47.5686176}, {"name": "Caapiranga / Am / Am", "state": "AM", "type": "UTE", "phase": "Opera\u00e7\u00e3o", "ceg": "UTEGNAM000340902", "start": "2013-11-28T00:00:00", "capacity": 2165.0, "lat": -3.29527778, "lon": -61.21583333}, {"name": "Cama\u00e7ari", "state": "BA", "type": "UTE", "phase": "Opera\u00e7\u00e3o", "ceg": "UTEGNBA000602501", "start": "1996-01-01T00:00:00", "capacity": 130710.0, "lat": -12.68722652, "lon": -38.35256934}, {"name": "Campina Grande", "state": "PB", "type": "UTE", "phase": "Opera\u00e7\u00e3o", "ceg": "UTEPEPB000612201", "start": "2011-02-08T00:00:00", "capacity": 169080.0, "lat": -7.23073189, "lon": -35.889979}, {"name": "Caracara\u00ed", "state": "RR", "type": "UTE", "phase": "Opera\u00e7\u00e3o", "ceg": "UTEPERR000666101", "start": "1975-07-01T00:00:00", "capacity": 6272.0, "lat": 1.82649034, "lon": -61.11359011}, {"name": "Celpav II", "state": "SP", "type": "UTE", "phase": "Opera\u00e7\u00e3o", "ceg": "UTEPESP000740401", "start": "1900-01-03T00:00:00", "capacity": 32600.0, "lat": -21.54869966, "lon": -47.77251455}, {"name": "Celulose Irani", "state": "SC", "type": "UTE", "phase": "Opera\u00e7\u00e3o", "ceg": "UTEFLSC000744701", "start": "1998-12-03T00:00:00", "capacity": 4900.0, "lat": -26.94160966, "lon": -51.74662455}, {"name": "Cogera\u00e7\u00e3o International Paper - Fases I e II", "state": "SP", "type": "UTE", "phase": "Opera\u00e7\u00e3o", "ceg": "UTEPESP000754401", "start": "1976-08-01T00:00:00", "capacity": 138172.0, "lat": -22.35628767, "lon": -46.96053455}, {"name": "Codaj\u00e1s / Am", "state": "AM", "type": "UTE", "phase": "Opera\u00e7\u00e3o", "ceg": "UTEGNAM000788902", "start": "2013-11-29T00:00:00", "capacity": 4570.0, "lat": -3.78305559, "lon": -62.03444445}, {"name": "Colombo Ariranha", "state": "SP", "type": "UTE", "phase": "Opera\u00e7\u00e3o", "ceg": "UTEAISP000796001", "start": "1994-05-01T00:00:00", "capacity": 96795.0, "lat": -21.21160967, "lon": -48.82963455}, {"name": "Colorado do Oeste", "state": "RO", "type": "UTE", "phase": "Opera\u00e7\u00e3o", "ceg": "UTEPERO000798601", "start": "1984-01-01T00:00:00", "capacity": 10946.0, "lat": -13.11489866, "lon": -60.51859055}, {"name": "Negro de Fumo", "state": "SP", "type": "UTE", "phase": "Opera\u00e7\u00e3o", "ceg": "UTECMSP000825701", "start": "1996-12-23T00:00:00", "capacity": 24400.0, "lat": -23.88383889, "lon": -46.42003194}, {"name": "Copesul", "state": "RS", "type": "UTE", "phase": "Opera\u00e7\u00e3o", "ceg": "UTEPERS000827301", "start": "1999-03-01T00:00:00", "capacity": 74400.0, "lat": -29.93900967, "lon": -51.70853455}, {"name": "Ester", "state": "SP", "type": "UTE", "phase": "Opera\u00e7\u00e3o", "ceg": "UTEAISP000912101", "start": "1954-01-01T00:00:00", "capacity": 40000.0, "lat": -22.65729996, "lon": -47.21090003}, {"name": "Figueira", "state": "PR", "type": "UTE", "phase": "Opera\u00e7\u00e3o", "ceg": "UTECMPR000955501", "start": "1963-01-01T00:00:00", "capacity": 20000.0, "lat": -23.85222205, "lon": -50.3902778}, {"name": "Globo", "state": "RJ", "type": "UTE", "phase": "Opera\u00e7\u00e3o", "ceg": "UTEGNRJ001033201", "start": "1998-06-01T00:00:00", "capacity": 5160.0, "lat": -22.786, "lon": -43.312}, {"name": "Senador Arnon Afonso  Farias de Mello - Floresta", "state": "RR", "type": "UTE", "phase": "Opera\u00e7\u00e3o", "ceg": "UTEPERR000961001", "start": "1990-01-01T00:00:00", "capacity": 85992.0, "lat": 2.82886478, "lon": -60.71189999}, {"name": "Florevale", "state": "MG", "type": "UTE", "phase": "Opera\u00e7\u00e3o", "ceg": "UTEFLMG000962801", "start": "1900-01-03T00:00:00", "capacity": 2520.0, "lat": -16.29930532, "lon": -42.67888223}, {"name": "Central Energ\u00e9tica Ribeir\u00e3o Preto (Antiga Galo Bravo)", "state": "SP", "type": "UTE", "phase": "Opera\u00e7\u00e3o", "ceg": "UTEAISP001016201", "start": "1986-01-01T00:00:00", "capacity": 9000.0, "lat": -21.11118967, "lon": -47.81657455}, {"name": "Galvani", "state": "SP", "type": "UTE", "phase": "Opera\u00e7\u00e3o", "ceg": "UTEAISP001017001", "start": "1996-09-01T00:00:00", "capacity": 11500.0, "lat": -22.79900328, "lon": -47.12506283}, {"name": "Rical", "state": "RO", "type": "UTE", "phase": "Opera\u00e7\u00e3o", "ceg": "UTEAIRO029747001", "start": "2008-08-28T00:00:00", "capacity": 2288.0, "lat": -12.72759578, "lon": -60.12825122}, {"name": "Iauaret\u00ea", "state": "AM", "type": "UTE", "phase": "Opera\u00e7\u00e3o", "ceg": "UTEPEAM001093601", "start": "2011-03-19T00:00:00", "capacity": 1110.0, "lat": -0.12600966, "lon": -67.07953455}, {"name": "Ibirit\u00e9 (Aureliano Chaves)", "state": "MG", "type": "UTE", "phase": "Opera\u00e7\u00e3o", "ceg": "UTEGNMG001096001", "start": "2002-07-08T00:00:00", "capacity": 235000.0, "lat": -19.99055687, "lon": -44.09838989}, {"name": "Juiz de Fora", "state": "MG", "type": "UTE", "phase": "Opera\u00e7\u00e3o", "ceg": "UTEGNMG001276901", "start": "2002-02-01T00:00:00", "capacity": 87048.0, "lat": -21.68545367, "lon": -43.44747855}, {"name": "Klabin Otac\u00edlio Costa (Antiga Igaras)", "state": "SC", "type": "UTE", "phase": "Opera\u00e7\u00e3o", "ceg": "UTEFLSC001103701", "start": "1955-01-01T00:00:00", "capacity": 33745.0, "lat": -27.51049059, "lon": -50.10109055}, {"name": "Ipatinga", "state": "MG", "type": "UTE", "phase": "Opera\u00e7\u00e3o", "ceg": "UTEGNMG001137101", "start": "1986-01-01T00:00:00", "capacity": 40000.0, "lat": -19.46400967, "lon": -42.52753455}, {"name": "Iracema", "state": "SP", "type": "UTE", "phase": "Opera\u00e7\u00e3o", "ceg": "UTEAISP001142801", "start": "1905-05-30T00:00:00", "capacity": 14000.0, "lat": -22.58236967, "lon": -47.52161455}, {"name": "Itacoatiara", "state": "AM", "type": "UTE", "phase": "Opera\u00e7\u00e3o", "ceg": "UTEPEAM001157601", "start": "1978-01-01T00:00:00", "capacity": 29700.0, "lat": -3.13416702, "lon": -58.44610748}, {"name": "Virgolino de Oliveira - Itapira", "state": "SP", "type": "UTE", "phase": "Opera\u00e7\u00e3o", "ceg": "UTEAISP001181901", "start": "1975-01-01T00:00:00", "capacity": 5800.0, "lat": -22.41211192, "lon": -46.80530719}, {"name": "Jari Celulose", "state": "PA", "type": "UTE", "phase": "Opera\u00e7\u00e3o", "ceg": "UTEFLPA001240801", "start": "1976-01-01T00:00:00", "capacity": 55000.0, "lat": -1.52733889, "lon": -52.576835}, {"name": "Jorge Lacerda I e II", "state": "SC", "type": "UTE", "phase": "Opera\u00e7\u00e3o", "ceg": "UTECMSC001260201", "start": "1965-03-01T00:00:00", "capacity": 190000.0, "lat": -28.45423334, "lon": -48.96906967}, {"name": "Junqueira", "state": "SP", "type": "UTE", "phase": "Opera\u00e7\u00e3o", "ceg": "UTEAISP001281501", "start": "1900-01-03T00:00:00", "capacity": 14700.0, "lat": -19.9881, "lon": -47.79816}, {"name": "CINDACTA IV", "state": "AM", "type": "UTE", "phase": "Opera\u00e7\u00e3o", "ceg": "UTEPEAM029857301", "start": "2008-09-16T00:00:00", "capacity": 2500.0, "lat": -3.05738744, "lon": -60.07695955}, {"name": "Maraca\u00ed", "state": "SP", "type": "UTE", "phase": "Opera\u00e7\u00e3o", "ceg": "UTEAISP001405201", "start": "2000-06-13T00:00:00", "capacity": 51000.0, "lat": -22.57108967, "lon": -50.64415455}, {"name": "MB", "state": "SP", "type": "UTE", "phase": "Opera\u00e7\u00e3o", "ceg": "UTEAISP001449401", "start": "1980-01-01T00:00:00", "capacity": 16400.0, "lat": -20.77865967, "lon": -48.19187455}, {"name": "Mercoc\u00edtrico", "state": "SP", "type": "UTE", "phase": "Opera\u00e7\u00e3o", "ceg": "UTEPESP001458301", "start": "1999-03-08T00:00:00", "capacity": 1825.0, "lat": -21.43982535, "lon": -47.34580139}, {"name": "Munguba", "state": "PA", "type": "UTE", "phase": "Opera\u00e7\u00e3o", "ceg": "UTEPEPA001517201", "start": "1900-01-03T00:00:00", "capacity": 8000.0, "lat": -0.92305556, "lon": -52.43305556}, {"name": "Nardini", "state": "SP", "type": "UTE", "phase": "Opera\u00e7\u00e3o", "ceg": "UTEAISP001528801", "start": "1994-01-01T00:00:00", "capacity": 54000.0, "lat": -21.18146967, "lon": -48.64470455}, {"name": "Norm\u00e2ndia", "state": "RR", "type": "UTE", "phase": "Opera\u00e7\u00e3o", "ceg": "UTEPERR001543101", "start": "2001-10-01T00:00:00", "capacity": 1220.0, "lat": 3.88023141, "lon": -59.61353455}, {"name": "Norte Fluminense", "state": "RJ", "type": "UTE", "phase": "Opera\u00e7\u00e3o", "ceg": "UTEGNRJ001544001", "start": "2004-03-06T00:00:00", "capacity": 826780.0, "lat": -22.30277806, "lon": -41.87303455}, {"name": "Nova Mamor\u00e9", "state": "RO", "type": "UTE", "phase": "Opera\u00e7\u00e3o", "ceg": "UTEPERO001565201", "start": "1900-01-03T00:00:00", "capacity": 3200.0, "lat": -10.41010773, "lon": -65.33184863}, {"name": "Santa Cruz AB (Antiga Ometto)", "state": "SP", "type": "UTE", "phase": "Opera\u00e7\u00e3o", "ceg": "UTEAISP001609801", "start": "2009-05-22T00:00:00", "capacity": 84000.0, "lat": -21.76277778, "lon": -48.08388889}, {"name": "Palmeiras de Goi\u00e1s", "state": "GO", "type": "UTE", "phase": "Opera\u00e7\u00e3o", "ceg": "UTEPEGO001946101", "start": "2012-07-17T00:00:00", "capacity": 175560.0, "lat": -16.80600967, "lon": -49.914979}, {"name": "Parintins", "state": "AM", "type": "UTE", "phase": "Opera\u00e7\u00e3o", "ceg": "UTEPEAM001989501", "start": "1983-03-01T00:00:00", "capacity": 29550.0, "lat": -2.63292277, "lon": -56.74383495}, {"name": "Usina da Pedra", "state": "SP", "type": "UTE", "phase": "Opera\u00e7\u00e3o", "ceg": "UTEAISP002019201", "start": "2003-05-31T00:00:00", "capacity": 45000.0, "lat": -21.17198178, "lon": -47.61886799}, {"name": "Pimenta Bueno", "state": "RO", "type": "UTE", "phase": "Opera\u00e7\u00e3o", "ceg": "UTEPERO002060501", "start": "1981-04-01T00:00:00", "capacity": 13000.0, "lat": -11.68323166, "lon": -61.17497855}, {"name": "Piratininga", "state": "SP", "type": "UTE", "phase": "Opera\u00e7\u00e3o", "ceg": "UTEPESP002082601", "start": "1954-01-01T00:00:00", "capacity": 390000.0, "lat": -23.69628767, "lon": -46.66859055}, {"name": "MRN UG I (Antiga Porto Trombetas)", "state": "PA", "type": "UTE", "phase": "Opera\u00e7\u00e3o", "ceg": "UTEPEPA002130001", "start": "1978-05-01T00:00:00", "capacity": 15300.0, "lat": -1.76200966, "lon": -55.85653455}, {"name": "REFAP", "state": "RS", "type": "UTE", "phase": "Opera\u00e7\u00e3o", "ceg": "UTEPERS002192001", "start": "2009-07-07T00:00:00", "capacity": 71900.0, "lat": -29.8698262, "lon": -51.17719592}, {"name": "Refinaria Presidente Get\u00falio Vargas (REPAR)", "state": "PR", "type": "UTE", "phase": "Opera\u00e7\u00e3o", "ceg": "UTEPEPR002195401", "start": "1976-01-01T00:00:00", "capacity": 52000.0, "lat": -25.56722222, "lon": -49.36666666}, {"name": "Refinaria Henrique Lages (REVAP)", "state": "SP", "type": "UTE", "phase": "Opera\u00e7\u00e3o", "ceg": "UTEPESP002196201", "start": "1980-03-20T00:00:00", "capacity": 75560.0, "lat": -23.181093, "lon": -45.818979}, {"name": "Refinaria Landulpho Alves (RLAM)", "state": "BA", "type": "UTE", "phase": "Opera\u00e7\u00e3o", "ceg": "UTEPEBA002197001", "start": "2001-08-01T00:00:00", "capacity": 62500.0, "lat": -12.62400966, "lon": -38.67053455}, {"name": "Refinaria de Paul\u00ednea - REPLAN", "state": "SP", "type": "UTE", "phase": "Opera\u00e7\u00e3o", "ceg": "UTEPESP002200401", "start": "1976-01-01T00:00:00", "capacity": 106670.0, "lat": -22.72462067, "lon": -47.11886755}, {"name": "Ripasa", "state": "SP", "type": "UTE", "phase": "Opera\u00e7\u00e3o", "ceg": "UTEFLSP002534801", "start": "1974-06-01T00:00:00", "capacity": 53480.0, "lat": -22.59451966, "lon": -47.35424455}, {"name": "Rorain\u00f3polis", "state": "RR", "type": "UTE", "phase": "Opera\u00e7\u00e3o", "ceg": "UTEPERR002552601", "start": "2002-10-10T00:00:00", "capacity": 2600.0, "lat": 0.94999034, "lon": -60.40853455}, {"name": "Gedore", "state": "RS", "type": "UTE", "phase": "Opera\u00e7\u00e3o", "ceg": "UTEPERS026863101", "start": "2009-11-01T00:00:00", "capacity": 2200.0, "lat": -29.75628744, "lon": -51.13775678}, {"name": "Salvador", "state": "BA", "type": "UTE", "phase": "Opera\u00e7\u00e3o", "ceg": "UTERUBA002683201", "start": "2010-12-22T00:00:00", "capacity": 19730.0, "lat": -12.86033744, "lon": -38.352079}, {"name": "Indupa (Antiga Solvay)", "state": "SP", "type": "UTE", "phase": "Opera\u00e7\u00e3o", "ceg": "UTEGNSP002767701", "start": "1971-01-01T00:00:00", "capacity": 11000.0, "lat": -23.76464186, "lon": -46.3745248}, {"name": "Suzano", "state": "SP", "type": "UTE", "phase": "Opera\u00e7\u00e3o", "ceg": "UTEGNSP002787101", "start": "1973-08-01T00:00:00", "capacity": 39900.0, "lat": -23.54243609, "lon": -46.27854896}, {"name": "3M Itapetininga", "state": "SP", "type": "UTE", "phase": "Opera\u00e7\u00e3o", "ceg": "UTEPESP028642701", "start": "2002-06-12T00:00:00", "capacity": 3840.0, "lat": -23.60087338, "lon": -48.09491741}, {"name": "S\u00e3o Jos\u00e9", "state": "SP", "type": "UTE", "phase": "Opera\u00e7\u00e3o", "ceg": "UTEAISP026851801", "start": "2011-09-28T00:00:00", "capacity": 4800.0, "lat": -22.81638889, "lon": -47.56805556}, {"name": "Tramontina", "state": "PA", "type": "UTE", "phase": "Opera\u00e7\u00e3o", "ceg": "UTEFLPA002867301", "start": "1998-03-01T00:00:00", "capacity": 1500.0, "lat": -1.45200966, "lon": -48.49453455}, {"name": "Tubar\u00e3o", "state": "PE", "type": "UTE", "phase": "Opera\u00e7\u00e3o", "ceg": "UTEPEPE002887801", "start": "2007-07-15T00:00:00", "capacity": 4759.2, "lat": -3.84993525, "lon": -32.41720121}, {"name": "Rafard", "state": "SP", "type": "UTE", "phase": "Opera\u00e7\u00e3o", "ceg": "UTEAISP002903301", "start": "1941-01-01T00:00:00", "capacity": 50000.0, "lat": -22.99734967, "lon": -47.52019455}, {"name": "Celpav IV", "state": "SP", "type": "UTE", "phase": "Opera\u00e7\u00e3o", "ceg": "UTEGNSP002904101", "start": "1994-07-15T00:00:00", "capacity": 126702.0, "lat": -23.29488966, "lon": -45.98104455}, {"name": "Univalem", "state": "SP", "type": "UTE", "phase": "Opera\u00e7\u00e3o", "ceg": "UTEAISP002906801", "start": "1995-05-01T00:00:00", "capacity": 8000.0, "lat": -21.32896867, "lon": -50.95548817}, {"name": "Uruguaiana", "state": "RS", "type": "UTE", "phase": "Opera\u00e7\u00e3o", "ceg": "UTEGNRS002913001", "start": "2000-12-01T00:00:00", "capacity": 639900.0, "lat": -29.75989867, "lon": -56.99053455}, {"name": "Pumaty", "state": "PE", "type": "UTE", "phase": "Opera\u00e7\u00e3o", "ceg": "UTEAIPE002946701", "start": "1900-01-03T00:00:00", "capacity": 8000.0, "lat": -8.55789966, "lon": -35.53499455}, {"name": "Vale do Ros\u00e1rio", "state": "SP", "type": "UTE", "phase": "Opera\u00e7\u00e3o", "ceg": "UTEAISP002958001", "start": "1994-06-01T00:00:00", "capacity": 97000.0, "lat": -20.61331879, "lon": -48.00080787}, {"name": "Vila Brasil", "state": "RR", "type": "UTE", "phase": "Opera\u00e7\u00e3o", "ceg": "UTEPERR002992001", "start": "2001-07-31T00:00:00", "capacity": 2459.2, "lat": 3.65361111, "lon": -61.41972222}, {"name": "Viralcool", "state": "SP", "type": "UTE", "phase": "Opera\u00e7\u00e3o", "ceg": "UTEAISP003035001", "start": "1983-01-01T00:00:00", "capacity": 43000.0, "lat": -20.93854716, "lon": -48.250265}, {"name": "S\u00e3o Jo\u00e3o", "state": "SP", "type": "UTE", "phase": "Opera\u00e7\u00e3o", "ceg": "UTEAISP026832101", "start": "1975-01-01T00:00:00", "capacity": 40750.0, "lat": -22.4264, "lon": -47.3575}, {"name": "S\u00e3o Jos\u00e9", "state": "SP", "type": "UTE", "phase": "Opera\u00e7\u00e3o", "ceg": "UTEAISP026847001", "start": "1988-05-01T00:00:00", "capacity": 80300.0, "lat": -22.48351967, "lon": -48.77101455}, {"name": "S\u00e3o Luiz", "state": "SP", "type": "UTE", "phase": "Opera\u00e7\u00e3o", "ceg": "UTEAISP026869001", "start": "1999-08-15T00:00:00", "capacity": 70000.0, "lat": -21.88559823, "lon": -47.30533168}, {"name": "S\u00e3o Martinho", "state": "SP", "type": "UTE", "phase": "Opera\u00e7\u00e3o", "ceg": "UTEAISP026874701", "start": "1975-01-01T00:00:00", "capacity": 73000.0, "lat": -21.35804889, "lon": -48.06558306}, {"name": "Cuiab\u00e1 (Antiga M\u00e1rio Covas)", "state": "MT", "type": "UTE", "phase": "Opera\u00e7\u00e3o", "ceg": "UTEGNMT027003201", "start": "2001-01-01T00:00:00", "capacity": 529200.0, "lat": -15.596, "lon": -56.097}, {"name": "CST", "state": "ES", "type": "UTE", "phase": "Opera\u00e7\u00e3o", "ceg": "UTEPEES027054701", "start": "2003-04-01T00:00:00", "capacity": 225100.0, "lat": -20.12500967, "lon": -40.29853455}, {"name": "Barra Grande Len\u00e7\u00f3is", "state": "SP", "type": "UTE", "phase": "Opera\u00e7\u00e3o", "ceg": "UTEAISP027055501", "start": "2003-05-14T00:00:00", "capacity": 62900.0, "lat": -22.62529358, "lon": -48.75681592}, {"name": "Santa Rosa", "state": "SP", "type": "UTE", "phase": "Opera\u00e7\u00e3o", "ceg": "UTEAISP027920001", "start": "1987-01-01T00:00:00", "capacity": 2760.0, "lat": -23.23833333, "lon": -47.613}, {"name": "Elekeiroz", "state": "SP", "type": "UTE", "phase": "Opera\u00e7\u00e3o", "ceg": "UTEPESP027057101", "start": "1998-10-20T00:00:00", "capacity": 8988.0, "lat": -23.20766388, "lon": -46.82340351}, {"name": "Itapiranga", "state": "AM", "type": "UTE", "phase": "Opera\u00e7\u00e3o", "ceg": "UTEPEAM027058001", "start": "2009-08-21T00:00:00", "capacity": 5100.0, "lat": -2.74968043, "lon": -58.02233714}, {"name": "LDC Bioenergia Leme (Antiga Coinbra - Cresciumal)", "state": "SP", "type": "UTE", "phase": "Opera\u00e7\u00e3o", "ceg": "UTEAISP027059801", "start": "1986-05-01T00:00:00", "capacity": 39600.0, "lat": -22.17216, "lon": -47.33762}, {"name": "CTE II", "state": "RJ", "type": "UTE", "phase": "Opera\u00e7\u00e3o", "ceg": "UTEGNRJ027061001", "start": "2003-04-01T00:00:00", "capacity": 177970.0, "lat": -22.51539722, "lon": -44.12456944}, {"name": "William Arjona", "state": "MS", "type": "UTE", "phase": "Opera\u00e7\u00e3o", "ceg": "UTEGNMS027075001", "start": "2021-07-10T00:00:00", "capacity": 177116.0, "lat": -20.54722222, "lon": -54.74972222}, {"name": "Jorge Lacerda III", "state": "SC", "type": "UTE", "phase": "Opera\u00e7\u00e3o", "ceg": "UTECMSC027093801", "start": "1979-02-01T00:00:00", "capacity": 220000.0, "lat": -28.45423333, "lon": -48.96906967}, {"name": "Jorge Lacerda IV", "state": "SC", "type": "UTE", "phase": "Opera\u00e7\u00e3o", "ceg": "UTECMSC027094601", "start": "1997-02-01T00:00:00", "capacity": 330000.0, "lat": -28.45423334, "lon": -48.96906967}, {"name": "Pacaraima", "state": "RR", "type": "UTE", "phase": "Opera\u00e7\u00e3o", "ceg": "UTEPERR027146201", "start": "1999-02-01T00:00:00", "capacity": 2408.0, "lat": 4.16794141, "lon": -60.82997455}, {"name": "Trombini", "state": "SC", "type": "UTE", "phase": "Opera\u00e7\u00e3o", "ceg": "UTEAISC027901301", "start": "2000-02-01T00:00:00", "capacity": 4870.0, "lat": -27.02344695, "lon": -50.92507889}, {"name": "Silves", "state": "AM", "type": "UTE", "phase": "Opera\u00e7\u00e3o", "ceg": "UTEPEAM027132201", "start": "2006-10-01T00:00:00", "capacity": 2680.0, "lat": -2.83777326, "lon": -58.20971967}, {"name": "Itaiquara", "state": "SP", "type": "UTE", "phase": "Opera\u00e7\u00e3o", "ceg": "UTEAISP027918801", "start": "2014-06-02T00:00:00", "capacity": 3200.0, "lat": -21.47666667, "lon": -46.80583333}, {"name": "Santa Cruz", "state": "RJ", "type": "UTE", "phase": "Opera\u00e7\u00e3o", "ceg": "UTEGNRJ027243401", "start": "1967-07-01T00:00:00", "capacity": 1000000.0, "lat": -22.91426934, "lon": -43.76529191}, {"name": "Nitro Qu\u00edmica", "state": "SP", "type": "UTE", "phase": "Opera\u00e7\u00e3o", "ceg": "UTEPESP027248501", "start": "1952-01-01T00:00:00", "capacity": 5000.0, "lat": -23.48914378, "lon": -46.43968359}, {"name": "Aparecida Parte I", "state": "AM", "type": "UTE", "phase": "Opera\u00e7\u00e3o", "ceg": "UTEGNAM027250702", "start": "1997-08-01T00:00:00", "capacity": 166000.0, "lat": -3.12977675, "lon": -60.03278281}, {"name": "Termobahia (Antiga Celso Furtado)", "state": "BA", "type": "UTE", "phase": "Opera\u00e7\u00e3o", "ceg": "UTEGNBA027263901", "start": "2004-02-09T00:00:00", "capacity": 185891.0, "lat": -12.70378766, "lon": -38.56692355}, {"name": "Boituva", "state": "SP", "type": "UTE", "phase": "Opera\u00e7\u00e3o", "ceg": "UTEAISP027320101", "start": "1900-01-03T00:00:00", "capacity": 1380.0, "lat": -23.23834547, "lon": -47.61332578}, {"name": "J. Pilon", "state": "SP", "type": "UTE", "phase": "Opera\u00e7\u00e3o", "ceg": "UTEAISP027333301", "start": "1996-03-25T00:00:00", "capacity": 3800.0, "lat": -23.1615, "lon": -47.7832}, {"name": "S\u00e3o Francisco", "state": "SP", "type": "UTE", "phase": "Opera\u00e7\u00e3o", "ceg": "UTEAISP027335001", "start": "1987-01-01T00:00:00", "capacity": 25200.0, "lat": -21.1234645, "lon": -48.00937689}, {"name": "Luc\u00e9lia", "state": "SP", "type": "UTE", "phase": "Opera\u00e7\u00e3o", "ceg": "UTEAISP027338401", "start": "2002-06-01T00:00:00", "capacity": 12000.0, "lat": -21.56486967, "lon": -50.95939455}, {"name": "Bortolo Carolo", "state": "SP", "type": "UTE", "phase": "Opera\u00e7\u00e3o", "ceg": "UTEAISP027339201", "start": "1994-01-01T00:00:00", "capacity": 11000.0, "lat": -21.00071945, "lon": -48.02481713}, {"name": "Furlan", "state": "SP", "type": "UTE", "phase": "Opera\u00e7\u00e3o", "ceg": "UTEAISP027342201", "start": "1976-05-01T00:00:00", "capacity": 3600.0, "lat": -22.76160992, "lon": -47.47835995}, {"name": "Santa Ad\u00e9lia", "state": "SP", "type": "UTE", "phase": "Opera\u00e7\u00e3o", "ceg": "UTEAISP027343001", "start": "2002-08-01T00:00:00", "capacity": 42000.0, "lat": -21.33718967, "lon": -48.29298455}, {"name": "Ruette", "state": "SP", "type": "UTE", "phase": "Opera\u00e7\u00e3o", "ceg": "UTEAISP027345701", "start": "2006-06-02T00:00:00", "capacity": 28000.0, "lat": -21.04088967, "lon": -48.71079455}, {"name": "Brahma", "state": "RJ", "type": "UTE", "phase": "Opera\u00e7\u00e3o", "ceg": "UTEGNRJ027352001", "start": "1996-01-01T00:00:00", "capacity": 13080.0, "lat": -22.86527778, "lon": -43.61194444}, {"name": "Refinaria Duque de Caxias - REDUC", "state": "RJ", "type": "UTE", "phase": "Opera\u00e7\u00e3o", "ceg": "UTEGNRJ027354601", "start": "1976-01-01T00:00:00", "capacity": 63300.0, "lat": -22.71444389, "lon": -43.26805611}, {"name": "Ipiranga Descalvado", "state": "SP", "type": "UTE", "phase": "Opera\u00e7\u00e3o", "ceg": "UTEAISP027367801", "start": "2010-12-01T00:00:00", "capacity": 4000.0, "lat": -21.8318, "lon": -47.7505}, {"name": "Hermasa", "state": "AM", "type": "UTE", "phase": "Opera\u00e7\u00e3o", "ceg": "UTEPEAM027377501", "start": "1900-01-03T00:00:00", "capacity": 7590.0, "lat": -3.13359877, "lon": -58.48522924}, {"name": "Sonora", "state": "MS", "type": "UTE", "phase": "Opera\u00e7\u00e3o", "ceg": "UTEAIMS027385601", "start": "1984-11-05T00:00:00", "capacity": 35000.0, "lat": -17.61731817, "lon": -54.76151625}, {"name": "Albr\u00e1s", "state": "PA", "type": "UTE", "phase": "Opera\u00e7\u00e3o", "ceg": "UTEPEPA027387201", "start": "1900-01-03T00:00:00", "capacity": 4850.0, "lat": -1.50598776, "lon": -48.62601361}, {"name": "Basf Guaratinguet\u00e1", "state": "SP", "type": "UTE", "phase": "Opera\u00e7\u00e3o", "ceg": "UTEPESP027388001", "start": "2012-01-25T00:00:00", "capacity": 3050.0, "lat": -22.78079297, "lon": -45.16880095}, {"name": "UGPU", "state": "SP", "type": "UTE", "phase": "Opera\u00e7\u00e3o", "ceg": "UTEGNSP027391001", "start": "2000-01-01T00:00:00", "capacity": 7700.0, "lat": -23.18200967, "lon": -46.87453455}, {"name": "Rigesa", "state": "SC", "type": "UTE", "phase": "Opera\u00e7\u00e3o", "ceg": "UTEFLSC027395301", "start": "2009-08-14T00:00:00", "capacity": 79193.0, "lat": -26.10200967, "lon": -50.31253455}, {"name": "S\u00e3o Manoel", "state": "SP", "type": "UTE", "phase": "Opera\u00e7\u00e3o", "ceg": "UTEAISP027535201", "start": "2001-04-01T00:00:00", "capacity": 14800.0, "lat": -22.67166667, "lon": -48.5425}, {"name": "Albertina", "state": "SP", "type": "UTE", "phase": "Opera\u00e7\u00e3o", "ceg": "UTEAISP027536001", "start": "1992-01-01T00:00:00", "capacity": 4000.0, "lat": -21.03749824, "lon": -47.96999857}, {"name": "Santa Elisa - Unidade II", "state": "SP", "type": "UTE", "phase": "Opera\u00e7\u00e3o", "ceg": "UTEAISP027537901", "start": "2002-08-28T00:00:00", "capacity": 4000.0, "lat": -21.11899966, "lon": -47.99945455}, {"name": "\u00c1gua Limpa", "state": "SP", "type": "UTE", "phase": "Opera\u00e7\u00e3o", "ceg": "UTEAISP027919601", "start": "2000-01-01T00:00:00", "capacity": 2760.0, "lat": -20.74808175, "lon": -49.71901433}, {"name": "Paineiras", "state": "ES", "type": "UTE", "phase": "Opera\u00e7\u00e3o", "ceg": "UTEAIES027687101", "start": "1974-09-01T00:00:00", "capacity": 3200.0, "lat": -20.96691, "lon": -40.9468}, {"name": "Capuava", "state": "SP", "type": "UTE", "phase": "Opera\u00e7\u00e3o", "ceg": "UTEPESP027689801", "start": "1999-01-01T00:00:00", "capacity": 18020.0, "lat": -23.66000967, "lon": -46.52853455}, {"name": "S\u00e3o Jo\u00e3o da Boa Vista", "state": "SP", "type": "UTE", "phase": "Opera\u00e7\u00e3o", "ceg": "UTEAISP027709601", "start": "1997-01-01T00:00:00", "capacity": 70000.0, "lat": -21.972011, "lon": -46.796351}, {"name": "Arauc\u00e1ria", "state": "PR", "type": "UTE", "phase": "Opera\u00e7\u00e3o", "ceg": "UTEGNPR027733901", "start": "2002-09-27T00:00:00", "capacity": 484150.0, "lat": -25.58830447, "lon": -49.3558616}, {"name": "Unialco", "state": "SP", "type": "UTE", "phase": "Opera\u00e7\u00e3o", "ceg": "UTEAISP027750901", "start": "1982-04-01T00:00:00", "capacity": 6800.0, "lat": -21.45893584, "lon": -50.79378571}, {"name": "Mosaic Uberaba (Antiga Vale Fertilizantes Uberaba)", "state": "MG", "type": "UTE", "phase": "Opera\u00e7\u00e3o", "ceg": "UTEPEMG027766501", "start": "1900-01-03T00:00:00", "capacity": 24400.0, "lat": -19.74400967, "lon": -47.92253455}, {"name": "Santa C\u00e2ndida I", "state": "SP", "type": "UTE", "phase": "Opera\u00e7\u00e3o", "ceg": "UTEAISP027767301", "start": "2002-05-01T00:00:00", "capacity": 30000.0, "lat": -22.1056, "lon": -48.4817}, {"name": "Ibiti\u00fava Bioenerg\u00e9tica (Antiga Destilaria Andrade)", "state": "SP", "type": "UTE", "phase": "Opera\u00e7\u00e3o", "ceg": "UTEAISP027768101", "start": "1987-01-01T00:00:00", "capacity": 33000.0, "lat": -21.00128744, "lon": -48.27609011}, {"name": "Klabin", "state": "PR", "type": "UTE", "phase": "Opera\u00e7\u00e3o", "ceg": "UTEFLPR027769001", "start": "1961-01-01T00:00:00", "capacity": 113250.0, "lat": -24.30906522, "lon": -50.59942344}, {"name": "Mandu", "state": "SP", "type": "UTE", "phase": "Opera\u00e7\u00e3o", "ceg": "UTEAISP027787801", "start": "2006-06-19T00:00:00", "capacity": 90000.0, "lat": -20.47900967, "lon": -48.40153455}, {"name": "Central Termel\u00e9trica de Gera\u00e7\u00e3o (Antiga Forjasul)", "state": "RS", "type": "UTE", "phase": "Opera\u00e7\u00e3o", "ceg": "UTEFLRS027794001", "start": "2000-03-09T00:00:00", "capacity": 1800.0, "lat": -30.54000967, "lon": -52.51253455}, {"name": "Guarani Cruz Alta", "state": "SP", "type": "UTE", "phase": "Opera\u00e7\u00e3o", "ceg": "UTEAISP027796701", "start": "1982-02-18T00:00:00", "capacity": 64800.0, "lat": -20.68838, "lon": -49.11125}, {"name": "Reman", "state": "AM", "type": "UTE", "phase": "Opera\u00e7\u00e3o", "ceg": "UTEPEAM027804101", "start": "1900-01-03T00:00:00", "capacity": 6400.0, "lat": -3.14777805, "lon": -59.95305611}, {"name": "S\u00e3o Jos\u00e9 da Estiva", "state": "SP", "type": "UTE", "phase": "Opera\u00e7\u00e3o", "ceg": "UTEAISP027814901", "start": "1900-01-03T00:00:00", "capacity": 42500.0, "lat": -21.48722222, "lon": -49.18583333}, {"name": "Pantanal", "state": "MT", "type": "UTE", "phase": "Opera\u00e7\u00e3o", "ceg": "UTEAIMT027828901", "start": "2000-04-18T00:00:00", "capacity": 5000.0, "lat": -15.92128966, "lon": -55.21499455}, {"name": "Jaciara", "state": "MT", "type": "UTE", "phase": "Opera\u00e7\u00e3o", "ceg": "UTEAIMT027829701", "start": "2000-04-18T00:00:00", "capacity": 2800.0, "lat": -15.96483818, "lon": -54.96418817}, {"name": "Bazan", "state": "SP", "type": "UTE", "phase": "Opera\u00e7\u00e3o", "ceg": "UTEAISP027835101", "start": "2001-05-20T00:00:00", "capacity": 75000.0, "lat": -21.0096722, "lon": -47.99237481}, {"name": "Orsa", "state": "SP", "type": "UTE", "phase": "Opera\u00e7\u00e3o", "ceg": "UTEFLSP027846702", "start": "1987-09-01T00:00:00", "capacity": 13100.0, "lat": -24.21308428, "lon": -48.93110036}, {"name": "Vilhena", "state": "RO", "type": "UTE", "phase": "Opera\u00e7\u00e3o", "ceg": "UTEPERO027862901", "start": "1984-06-01T00:00:00", "capacity": 23750.0, "lat": -12.76607635, "lon": -60.13894002}, {"name": "S\u00e3o Domingos", "state": "SP", "type": "UTE", "phase": "Opera\u00e7\u00e3o", "ceg": "UTEAISP027867001", "start": "1990-01-01T00:00:00", "capacity": 12000.0, "lat": -21.09830805, "lon": -49.02051194}, {"name": "PROJAC Central Globo de Produ\u00e7\u00e3o", "state": "RJ", "type": "UTE", "phase": "Opera\u00e7\u00e3o", "ceg": "UTEGNRJ027875001", "start": "2000-05-10T00:00:00", "capacity": 4950.0, "lat": -22.87665194, "lon": -43.227875}, {"name": "Mosaic Cajati (antiga Vale Vertilizantes Cajati)", "state": "SP", "type": "UTE", "phase": "Opera\u00e7\u00e3o", "ceg": "UTEPESP027881501", "start": "1975-01-01T00:00:00", "capacity": 10700.0, "lat": -24.72636111, "lon": -48.105}, {"name": "Moema", "state": "SP", "type": "UTE", "phase": "Opera\u00e7\u00e3o", "ceg": "UTEAISP027886601", "start": "1994-01-01T00:00:00", "capacity": 89000.0, "lat": -20.20183, "lon": -49.35565}, {"name": "Termo Norte I", "state": "RO", "type": "UTE", "phase": "Opera\u00e7\u00e3o", "ceg": "UTEPERO027887403", "start": "2023-10-16T00:00:00", "capacity": 64000.0, "lat": -8.79444444, "lon": -63.81555556}, {"name": "Termorio (Antiga Governador Leonel Brizola)", "state": "RJ", "type": "UTE", "phase": "Opera\u00e7\u00e3o", "ceg": "UTEGNRJ027888201", "start": "2004-11-05T00:00:00", "capacity": 989200.0, "lat": -22.70962067, "lon": -43.24581255}, {"name": "Diana", "state": "SP", "type": "UTE", "phase": "Opera\u00e7\u00e3o", "ceg": "UTEAISP027890401", "start": "2000-06-28T00:00:00", "capacity": 6000.0, "lat": -21.40130021, "lon": -49.89350002}, {"name": "\u00c1gua Bonita", "state": "SP", "type": "UTE", "phase": "Opera\u00e7\u00e3o", "ceg": "UTEAISP027891201", "start": "2006-06-02T00:00:00", "capacity": 17000.0, "lat": -22.74073355, "lon": -50.598509}, {"name": "Destilaria Guaricanga", "state": "SP", "type": "UTE", "phase": "Opera\u00e7\u00e3o", "ceg": "UTEAISP027894701", "start": "2000-07-07T00:00:00", "capacity": 1600.0, "lat": -22.05632484, "lon": -49.32094528}, {"name": "Destilaria Malosso", "state": "SP", "type": "UTE", "phase": "Opera\u00e7\u00e3o", "ceg": "UTEAISP027895501", "start": "2008-09-22T00:00:00", "capacity": 4000.0, "lat": -21.62772593, "lon": -48.83048282}, {"name": "Coraci", "state": "SP", "type": "UTE", "phase": "Opera\u00e7\u00e3o", "ceg": "UTEAISP027896301", "start": "2000-07-07T00:00:00", "capacity": 1384.0, "lat": -22.67514966, "lon": -49.76271455}, {"name": "Sistema de Cogera\u00e7\u00e3o da  RECAP", "state": "SP", "type": "UTE", "phase": "Opera\u00e7\u00e3o", "ceg": "UTEPESP027902101", "start": "1900-01-03T00:00:00", "capacity": 22500.0, "lat": -23.63878767, "lon": -46.46664555}, {"name": "Ben\u00e1lcool", "state": "SP", "type": "UTE", "phase": "Opera\u00e7\u00e3o", "ceg": "UTEAISP027906401", "start": "2008-08-28T00:00:00", "capacity": 4200.0, "lat": -21.23071457, "lon": -50.77811977}, {"name": "Santa L\u00facia", "state": "SP", "type": "UTE", "phase": "Opera\u00e7\u00e3o", "ceg": "UTEAISP027912901", "start": "1999-10-11T00:00:00", "capacity": 4968.0, "lat": -22.33555556, "lon": -47.40833333}, {"name": "Alc\u00eddia", "state": "SP", "type": "UTE", "phase": "Opera\u00e7\u00e3o", "ceg": "UTEAISP027913701", "start": "2010-12-24T00:00:00", "capacity": 38100.0, "lat": -22.34972019, "lon": -52.52397291}, {"name": "Bela Vista", "state": "SP", "type": "UTE", "phase": "Opera\u00e7\u00e3o", "ceg": "UTEAISP027917001", "start": "1977-01-01T00:00:00", "capacity": 75000.0, "lat": -20.94366271, "lon": -48.08338624}, {"name": "Santa F\u00e9", "state": "SP", "type": "UTE", "phase": "Opera\u00e7\u00e3o", "ceg": "UTEAISP027922601", "start": "1976-05-01T00:00:00", "capacity": 22000.0, "lat": -21.81781325, "lon": -48.61221331}, {"name": "Lwarcel", "state": "SP", "type": "UTE", "phase": "Opera\u00e7\u00e3o", "ceg": "UTEAISP027923401", "start": "1900-01-03T00:00:00", "capacity": 4000.0, "lat": -22.67212966, "lon": -48.81557455}, {"name": "Santo Ant\u00f4nio", "state": "SP", "type": "UTE", "phase": "Opera\u00e7\u00e3o", "ceg": "UTEAISP027924201", "start": "1999-11-26T00:00:00", "capacity": 1160.0, "lat": -22.72372194, "lon": -47.64684611}, {"name": "Floraplac", "state": "PA", "type": "UTE", "phase": "Opera\u00e7\u00e3o", "ceg": "UTEAIPA027926901", "start": "2000-01-20T00:00:00", "capacity": 1250.0, "lat": -3.01823309, "lon": -47.37136676}, {"name": "Della Coletta", "state": "SP", "type": "UTE", "phase": "Opera\u00e7\u00e3o", "ceg": "UTEAISP027929301", "start": "2023-08-05T00:00:00", "capacity": 8600.0, "lat": -22.05759934, "lon": -48.71159955}, {"name": "Campos (Antiga Roberto Silveira)", "state": "RJ", "type": "UTE", "phase": "Opera\u00e7\u00e3o", "ceg": "UTEGNRJ027935801", "start": "1968-12-01T00:00:00", "capacity": 25000.0, "lat": -21.71554367, "lon": -41.32853455}, {"name": "Cenibra", "state": "MG", "type": "UTE", "phase": "Opera\u00e7\u00e3o", "ceg": "UTEFLMG027941201", "start": "1976-01-01T00:00:00", "capacity": 100000.0, "lat": -19.21600967, "lon": -42.47453455}, {"name": "Branco Peres", "state": "SP", "type": "UTE", "phase": "Opera\u00e7\u00e3o", "ceg": "UTEAISP027947101", "start": "2020-10-30T00:00:00", "capacity": 15000.0, "lat": -21.48777778, "lon": -51.02833333}, {"name": "Itaqui", "state": "RS", "type": "UTE", "phase": "Opera\u00e7\u00e3o", "ceg": "UTEAIRS027948001", "start": "2001-03-08T00:00:00", "capacity": 4200.0, "lat": -29.12576859, "lon": -56.54353455}, {"name": "Pederneiras", "state": "SP", "type": "UTE", "phase": "Opera\u00e7\u00e3o", "ceg": "UTEAISP027949801", "start": "2000-06-06T00:00:00", "capacity": 2400.0, "lat": -23.04944, "lon": -47.70765}, {"name": "Gasa", "state": "SP", "type": "UTE", "phase": "Opera\u00e7\u00e3o", "ceg": "UTEAISP027950101", "start": "1996-01-01T00:00:00", "capacity": 78000.0, "lat": -20.76989996, "lon": -51.25869989}, {"name": "Urbano Jaragu\u00e1", "state": "SC", "type": "UTE", "phase": "Opera\u00e7\u00e3o", "ceg": "UTEAISC027951001", "start": "2000-08-29T00:00:00", "capacity": 3000.0, "lat": -26.47727966, "lon": -49.15049455}, {"name": "Serop\u00e9dica (Antiga Barbosa Lima Sobrinho)", "state": "RJ", "type": "UTE", "phase": "Opera\u00e7\u00e3o", "ceg": "UTEGNRJ027952801", "start": "2001-10-01T00:00:00", "capacity": 360000.0, "lat": -22.72004303, "lon": -43.64687353}, {"name": "Rhodia Paul\u00ednia", "state": "SP", "type": "UTE", "phase": "Opera\u00e7\u00e3o", "ceg": "UTEGNSP027956001", "start": "1957-01-01T00:00:00", "capacity": 13898.0, "lat": -22.75700967, "lon": -47.14453455}, {"name": "Cubat\u00e3o (Euz\u00e9bio Rocha)", "state": "SP", "type": "UTE", "phase": "Opera\u00e7\u00e3o", "ceg": "UTEGNSP028014301", "start": "2009-11-17T00:00:00", "capacity": 249900.0, "lat": -23.87553052, "lon": -46.43182548}, {"name": "Cocal", "state": "SP", "type": "UTE", "phase": "Opera\u00e7\u00e3o", "ceg": "UTEAISP027974901", "start": "1900-01-03T00:00:00", "capacity": 25000.0, "lat": -22.46995967, "lon": -50.77933455}, {"name": "Tr\u00eas Lagoas (Antiga Luiz Carlos Prestes)", "state": "MS", "type": "UTE", "phase": "Opera\u00e7\u00e3o", "ceg": "UTEGNMS027975701", "start": "2004-01-08T00:00:00", "capacity": 385819.0, "lat": -20.74100967, "lon": -51.65414555}, {"name": "Dulcini", "state": "SP", "type": "UTE", "phase": "Opera\u00e7\u00e3o", "ceg": "UTEAISP027977301", "start": "2004-09-15T00:00:00", "capacity": 1851.2, "lat": -22.60321398, "lon": -46.92949216}, {"name": "Canoas (Antiga Sep\u00e9 Tiaraju)", "state": "RS", "type": "UTE", "phase": "Opera\u00e7\u00e3o", "ceg": "UTEGNRS028038001", "start": "2001-03-29T00:00:00", "capacity": 248573.0, "lat": -29.87637109, "lon": -51.14692756}, {"name": "Iguatemi Fortaleza", "state": "CE", "type": "UTE", "phase": "Opera\u00e7\u00e3o", "ceg": "UTEGNCE027993501", "start": "2000-11-01T00:00:00", "capacity": 4794.0, "lat": -3.723805, "lon": -38.58992806}, {"name": "Vit\u00f3ria Apart Hospital", "state": "ES", "type": "UTE", "phase": "Opera\u00e7\u00e3o", "ceg": "UTEGNES027995101", "start": "2000-11-07T00:00:00", "capacity": 2100.0, "lat": -20.23669133, "lon": -40.27884324}, {"name": "Cesar Park Business Hotel/Globenergy", "state": "SP", "type": "UTE", "phase": "Opera\u00e7\u00e3o", "ceg": "UTEGNSP027996001", "start": "2000-11-07T00:00:00", "capacity": 2100.0, "lat": -23.45900967, "lon": -46.52353455}, {"name": "Dacal", "state": "SP", "type": "UTE", "phase": "Opera\u00e7\u00e3o", "ceg": "UTEAISP027999401", "start": "2010-04-01T00:00:00", "capacity": 4400.0, "lat": -21.91459057, "lon": -50.86549965}, {"name": "Bayer", "state": "SP", "type": "UTE", "phase": "Opera\u00e7\u00e3o", "ceg": "UTEGNSP028004601", "start": "2000-11-22T00:00:00", "capacity": 3840.0, "lat": -23.65894302, "lon": -46.72094438}, {"name": "S. A. V. - Unisinos", "state": "RS", "type": "UTE", "phase": "Opera\u00e7\u00e3o", "ceg": "UTEGNRS028005401", "start": "1900-01-03T00:00:00", "capacity": 4600.0, "lat": -29.79530569, "lon": -51.14926167}, {"name": "Oiapoque", "state": "AP", "type": "UTE", "phase": "Opera\u00e7\u00e3o", "ceg": "UTEPEAP028008901", "start": "1998-09-01T00:00:00", "capacity": 8250.0, "lat": 3.83843478, "lon": -51.82664566}, {"name": "Londra", "state": "SP", "type": "UTE", "phase": "Opera\u00e7\u00e3o", "ceg": "UTEAISP028050001", "start": "2006-04-01T00:00:00", "capacity": 3880.0, "lat": -23.52433367, "lon": -48.92872555}, {"name": "Guarani", "state": "SP", "type": "UTE", "phase": "Opera\u00e7\u00e3o", "ceg": "UTEAISP028028301", "start": "1980-01-01T00:00:00", "capacity": 9400.0, "lat": -20.82110014, "lon": -48.82270001}, {"name": "Termomaca\u00e9 (Antiga M\u00e1rio Lago)", "state": "RJ", "type": "UTE", "phase": "Opera\u00e7\u00e3o", "ceg": "UTEGNRJ028029101", "start": "2001-12-01T00:00:00", "capacity": 922615.0, "lat": -22.30591667, "lon": -41.86581255}, {"name": "Termopernambuco", "state": "PE", "type": "UTE", "phase": "Opera\u00e7\u00e3o", "ceg": "UTEGNPE028031301", "start": "2004-05-15T00:00:00", "capacity": 550000.0, "lat": -8.39906566, "lon": -34.95692355}, {"name": "Termo Norte II", "state": "RO", "type": "UTE", "phase": "Opera\u00e7\u00e3o", "ceg": "UTEGNRO028033001", "start": "2001-12-01T00:00:00", "capacity": 349000.0, "lat": -8.76889194, "lon": -63.83144611}, {"name": "Tivit Transam\u00e9rica  (Antiga Optiglobe S\u00e3o Paulo)", "state": "SP", "type": "UTE", "phase": "Opera\u00e7\u00e3o", "ceg": "UTEPESP028034801", "start": "2000-01-01T00:00:00", "capacity": 9624.0, "lat": -23.64600967, "lon": -46.71025655}, {"name": "Uruba", "state": "AL", "type": "UTE", "phase": "Opera\u00e7\u00e3o", "ceg": "UTEAIAL028037201", "start": "2000-09-01T00:00:00", "capacity": 10000.0, "lat": -9.50138694, "lon": -36.02142694}, {"name": "Coocarol", "state": "PR", "type": "UTE", "phase": "Opera\u00e7\u00e3o", "ceg": "UTEAIPR028041001", "start": "1995-01-01T00:00:00", "capacity": 10000.0, "lat": -23.37083709, "lon": -52.70887682}, {"name": "Catanduva I (Antiga Cerradinho)", "state": "SP", "type": "UTE", "phase": "Opera\u00e7\u00e3o", "ceg": "UTEAISP028042901", "start": "2001-10-01T00:00:00", "capacity": 75000.0, "lat": -21.09656522, "lon": -48.93353455}, {"name": "Bom Retiro", "state": "SP", "type": "UTE", "phase": "Opera\u00e7\u00e3o", "ceg": "UTEAISP028043701", "start": "2013-06-10T00:00:00", "capacity": 3600.0, "lat": -22.87330621, "lon": -47.45355109}, {"name": "Destil", "state": "SP", "type": "UTE", "phase": "Opera\u00e7\u00e3o", "ceg": "UTEAISP028045301", "start": "1981-12-01T00:00:00", "capacity": 8949.0, "lat": -21.19320283, "lon": -49.13722129}, {"name": "Fany", "state": "SP", "type": "UTE", "phase": "Opera\u00e7\u00e3o", "ceg": "UTEAISP028046101", "start": "2001-02-07T00:00:00", "capacity": 1200.0, "lat": -22.30909996, "lon": -51.2209999}, {"name": "Pioneiros", "state": "SP", "type": "UTE", "phase": "Opera\u00e7\u00e3o", "ceg": "UTEAISP028047001", "start": "2006-07-01T00:00:00", "capacity": 32000.0, "lat": -20.72833333, "lon": -50.95972222}, {"name": "Sobar", "state": "SP", "type": "UTE", "phase": "Opera\u00e7\u00e3o", "ceg": "UTEAISP028048801", "start": "2001-02-07T00:00:00", "capacity": 3864.0, "lat": -22.6777, "lon": -49.4202}, {"name": "Alcomira", "state": "SP", "type": "UTE", "phase": "Opera\u00e7\u00e3o", "ceg": "UTEAISP028049601", "start": "2001-02-07T00:00:00", "capacity": 2400.0, "lat": -21.19895932, "lon": -51.21635575}, {"name": "Decasa", "state": "SP", "type": "UTE", "phase": "Opera\u00e7\u00e3o", "ceg": "UTEAISP028051801", "start": "2004-01-01T00:00:00", "capacity": 33000.0, "lat": -22.7673489, "lon": -50.11279597}, {"name": "Guaxuma", "state": "AL", "type": "UTE", "phase": "Opera\u00e7\u00e3o", "ceg": "UTEAIAL028052601", "start": "1900-01-03T00:00:00", "capacity": 14312.0, "lat": -9.98331876, "lon": -36.22781949}, {"name": "Ferrari", "state": "SP", "type": "UTE", "phase": "Opera\u00e7\u00e3o", "ceg": "UTEAISP028058501", "start": "1982-01-01T00:00:00", "capacity": 72500.0, "lat": -21.84494932, "lon": -47.3602798}, {"name": "Generalco", "state": "SP", "type": "UTE", "phase": "Opera\u00e7\u00e3o", "ceg": "UTEAISP028059301", "start": "2001-02-19T00:00:00", "capacity": 3800.0, "lat": -20.57509978, "lon": -50.38439989}, {"name": "S\u00e3o Luiz", "state": "SP", "type": "UTE", "phase": "Opera\u00e7\u00e3o", "ceg": "UTEAISP028060701", "start": "2001-05-01T00:00:00", "capacity": 20000.0, "lat": -22.94083333, "lon": -49.77}, {"name": "Panor\u00e2mica", "state": "SP", "type": "UTE", "phase": "Opera\u00e7\u00e3o", "ceg": "UTEAISP028062301", "start": "1995-01-01T00:00:00", "capacity": 3700.0, "lat": -23.50046108, "lon": -49.03805856}, {"name": "Piratini", "state": "RS", "type": "UTE", "phase": "Opera\u00e7\u00e3o", "ceg": "UTEFLRS028239101", "start": "2003-01-26T00:00:00", "capacity": 10000.0, "lat": -31.41267667, "lon": -53.07386755}, {"name": "Casa de For\u00e7a", "state": "SP", "type": "UTE", "phase": "Opera\u00e7\u00e3o", "ceg": "UTEAISP028063101", "start": "2014-05-01T00:00:00", "capacity": 16400.0, "lat": -20.23456566, "lon": -50.34386732}, {"name": "Nova Tamoio", "state": "SP", "type": "UTE", "phase": "Opera\u00e7\u00e3o", "ceg": "UTEAISP028065801", "start": "2010-09-22T00:00:00", "capacity": 6600.0, "lat": -21.9130997, "lon": -48.11468741}, {"name": "Iguatemi Bahia", "state": "BA", "type": "UTE", "phase": "Opera\u00e7\u00e3o", "ceg": "UTEGNBA028067401", "start": "2004-12-30T00:00:00", "capacity": 8316.0, "lat": -12.89600966, "lon": -38.29053455}, {"name": "Dois C\u00f3rregos", "state": "SP", "type": "UTE", "phase": "Opera\u00e7\u00e3o", "ceg": "UTEAISP028072001", "start": "2001-03-07T00:00:00", "capacity": 6500.0, "lat": -22.33879999, "lon": -48.40660002}, {"name": "Sgu\u00e1rio Itapeva", "state": "SP", "type": "UTE", "phase": "Opera\u00e7\u00e3o", "ceg": "UTEFLSP028073901", "start": "2008-10-15T00:00:00", "capacity": 2708.0, "lat": -24.18662966, "lon": -48.96344455}, {"name": "Destilaria Melhoramentos", "state": "PR", "type": "UTE", "phase": "Opera\u00e7\u00e3o", "ceg": "UTEAIPR028074701", "start": "2002-05-15T00:00:00", "capacity": 40000.0, "lat": -23.56777222, "lon": -52.42850236}, {"name": "Ra\u00edzen Paragua\u00e7u", "state": "SP", "type": "UTE", "phase": "Opera\u00e7\u00e3o", "ceg": "UTEAISP028078001", "start": "2001-03-13T00:00:00", "capacity": 14000.0, "lat": -22.46577992, "lon": -50.49197002}, {"name": "Catanduva", "state": "SP", "type": "UTE", "phase": "Opera\u00e7\u00e3o", "ceg": "UTEAISP028093301", "start": "1900-01-03T00:00:00", "capacity": 12000.0, "lat": -21.12949076, "lon": -48.835848}, {"name": "Colorado", "state": "SP", "type": "UTE", "phase": "Opera\u00e7\u00e3o", "ceg": "UTEAISP028094101", "start": "1981-08-01T00:00:00", "capacity": 56715.0, "lat": -20.27920967, "lon": -48.17553455}, {"name": "Tarum\u00e3 (Antiga Nova Am\u00e9rica)", "state": "SP", "type": "UTE", "phase": "Opera\u00e7\u00e3o", "ceg": "UTEAISP028096801", "start": "2001-05-20T00:00:00", "capacity": 27500.0, "lat": -22.78500529, "lon": -50.54834123}, {"name": "Equipav", "state": "SP", "type": "UTE", "phase": "Opera\u00e7\u00e3o", "ceg": "UTEAISP028101801", "start": "2002-10-01T00:00:00", "capacity": 58400.0, "lat": -21.56073371, "lon": -49.86998663}, {"name": "Coopernavi", "state": "MS", "type": "UTE", "phase": "Opera\u00e7\u00e3o", "ceg": "UTEAIMS028107701", "start": "1900-01-03T00:00:00", "capacity": 12000.0, "lat": -23.12600967, "lon": -54.19243455}, {"name": "Passa Tempo", "state": "MS", "type": "UTE", "phase": "Opera\u00e7\u00e3o", "ceg": "UTEAIMS028111501", "start": "2001-05-01T00:00:00", "capacity": 73800.0, "lat": -21.6962, "lon": -54.55733}, {"name": "Esplanada (Antiga Jalles Machado)", "state": "GO", "type": "UTE", "phase": "Opera\u00e7\u00e3o", "ceg": "UTEAIGO028112301", "start": "2003-07-01T00:00:00", "capacity": 65000.0, "lat": -15.21700236, "lon": -48.98868983}, {"name": "Goian\u00e9sia", "state": "GO", "type": "UTE", "phase": "Opera\u00e7\u00e3o", "ceg": "UTEAIGO028113101", "start": "1900-01-03T00:00:00", "capacity": 7300.0, "lat": -15.21519999, "lon": -49.09690008}, {"name": "Santa Helena A\u00e7\u00facar e \u00c1lcool", "state": "GO", "type": "UTE", "phase": "Opera\u00e7\u00e3o", "ceg": "UTEAIGO028115801", "start": "2001-05-15T00:00:00", "capacity": 4400.0, "lat": -17.8225, "lon": -50.5393}, {"name": "Vale do Verd\u00e3o", "state": "GO", "type": "UTE", "phase": "Opera\u00e7\u00e3o", "ceg": "UTEAIGO028116601", "start": "2002-03-19T00:00:00", "capacity": 15000.0, "lat": -17.96928201, "lon": -50.3169228}, {"name": "Goiasa", "state": "GO", "type": "UTE", "phase": "Opera\u00e7\u00e3o", "ceg": "UTEAIGO028118201", "start": "2005-09-30T00:00:00", "capacity": 46520.0, "lat": -18.07075777, "lon": -49.67077183}, {"name": "Coprodia", "state": "MT", "type": "UTE", "phase": "Opera\u00e7\u00e3o", "ceg": "UTEAIMT028120401", "start": "1994-08-05T00:00:00", "capacity": 27200.0, "lat": -13.78094966, "lon": -57.84057455}, {"name": "Itamarati", "state": "MT", "type": "UTE", "phase": "Opera\u00e7\u00e3o", "ceg": "UTEAIMT028121201", "start": "2001-05-21T00:00:00", "capacity": 40500.0, "lat": -14.75879801, "lon": -57.19577445}, {"name": "Miguel Forte", "state": "PR", "type": "UTE", "phase": "Opera\u00e7\u00e3o", "ceg": "UTEFLPR028137901", "start": "1998-04-18T00:00:00", "capacity": 16000.0, "lat": -26.25295367, "lon": -51.09025655}, {"name": "Santa Terezinha Paranacity", "state": "PR", "type": "UTE", "phase": "Opera\u00e7\u00e3o", "ceg": "UTEAIPR028139501", "start": "2009-08-22T00:00:00", "capacity": 36000.0, "lat": -22.87555556, "lon": -52.18083333}, {"name": "Energia Madeiras", "state": "SC", "type": "UTE", "phase": "Opera\u00e7\u00e3o", "ceg": "UTEFLSC028140901", "start": "2008-12-04T00:00:00", "capacity": 4000.0, "lat": -26.18917383, "lon": -50.36919527}, {"name": "Santa Terezinha (Ivat\u00e9)", "state": "PR", "type": "UTE", "phase": "Opera\u00e7\u00e3o", "ceg": "UTEAIPR028143301", "start": "2009-09-02T00:00:00", "capacity": 9000.0, "lat": -23.40958889, "lon": -53.37387889}, {"name": "Perob\u00e1lcool", "state": "PR", "type": "UTE", "phase": "Opera\u00e7\u00e3o", "ceg": "UTEAIPR028144101", "start": "2001-05-31T00:00:00", "capacity": 2400.0, "lat": -23.90916666, "lon": -53.47242222}, {"name": "Vale do Iva\u00ed", "state": "PR", "type": "UTE", "phase": "Opera\u00e7\u00e3o", "ceg": "UTEAIPR028146801", "start": "2001-05-02T00:00:00", "capacity": 18400.0, "lat": -23.87400967, "lon": -51.83653455}, {"name": "Bio Coopcana", "state": "PR", "type": "UTE", "phase": "Opera\u00e7\u00e3o", "ceg": "UTEAIPR028148401", "start": "2013-08-28T00:00:00", "capacity": 50000.0, "lat": -23.27075655, "lon": -52.48755193}, {"name": "Santa Terezinha", "state": "PR", "type": "UTE", "phase": "Opera\u00e7\u00e3o", "ceg": "UTEAIPR028149201", "start": "2006-05-31T00:00:00", "capacity": 50500.0, "lat": -23.74800967, "lon": -52.87333455}, {"name": "Goioer\u00ea", "state": "PR", "type": "UTE", "phase": "Opera\u00e7\u00e3o", "ceg": "UTEAIPR028150601", "start": "1978-09-05T00:00:00", "capacity": 15000.0, "lat": -23.9396111, "lon": -53.08800001}, {"name": "Sabar\u00e1lcool", "state": "PR", "type": "UTE", "phase": "Opera\u00e7\u00e3o", "ceg": "UTEAIPR028151401", "start": "2001-04-01T00:00:00", "capacity": 4365.0, "lat": -23.69424444, "lon": -52.20846944}, {"name": "Iguatemi (Antiga Santa Terezinha - Iguatemi)", "state": "PR", "type": "UTE", "phase": "Opera\u00e7\u00e3o", "ceg": "UTEAIPR028152201", "start": "1990-06-01T00:00:00", "capacity": 3400.0, "lat": -23.39527666, "lon": -52.08389855}, {"name": "Jacarezinho", "state": "PR", "type": "UTE", "phase": "Opera\u00e7\u00e3o", "ceg": "UTEAIPR028153001", "start": "1977-09-01T00:00:00", "capacity": 20000.0, "lat": -23.09315441, "lon": -49.94125682}, {"name": "Destilaria de \u00c1lcool Ibaiti", "state": "PR", "type": "UTE", "phase": "Opera\u00e7\u00e3o", "ceg": "UTEAIPR028154901", "start": "2001-05-07T00:00:00", "capacity": 3600.0, "lat": -23.68217301, "lon": -50.41424937}, {"name": "Dacalda", "state": "PR", "type": "UTE", "phase": "Opera\u00e7\u00e3o", "ceg": "UTEAIPR028155701", "start": "2010-09-01T00:00:00", "capacity": 6000.0, "lat": -23.15999345, "lon": -50.10409942}, {"name": "Cofercatu", "state": "PR", "type": "UTE", "phase": "Opera\u00e7\u00e3o", "ceg": "UTEAIPR028159001", "start": "2001-06-13T00:00:00", "capacity": 4000.0, "lat": -22.88915966, "lon": -51.39313455}, {"name": "Cooperval", "state": "PR", "type": "UTE", "phase": "Opera\u00e7\u00e3o", "ceg": "UTEAIPR028162001", "start": "2022-06-01T00:00:00", "capacity": 4000.0, "lat": -23.68190967, "lon": -51.68313455}, {"name": "Shopping Tabo\u00e3o", "state": "SP", "type": "UTE", "phase": "Opera\u00e7\u00e3o", "ceg": "UTEGNSP028177801", "start": "2004-12-05T00:00:00", "capacity": 3355.0, "lat": -23.59800967, "lon": -46.74353455}, {"name": "S\u00e3o Francisco", "state": "SP", "type": "UTE", "phase": "Opera\u00e7\u00e3o", "ceg": "UTEAISP028178601", "start": "1986-01-01T00:00:00", "capacity": 4200.0, "lat": -23.07075, "lon": -47.37063}, {"name": "Jatiboca", "state": "MG", "type": "UTE", "phase": "Opera\u00e7\u00e3o", "ceg": "UTEAIMG028179401", "start": "1900-01-03T00:00:00", "capacity": 3800.0, "lat": -20.30130878, "lon": -42.69056232}, {"name": "Nova Piratininga (Antiga Fernando Gasparian)", "state": "SP", "type": "UTE", "phase": "Opera\u00e7\u00e3o", "ceg": "UTEGNSP028191301", "start": "2004-12-31T00:00:00", "capacity": 386080.0, "lat": -23.69888869, "lon": -46.678611}, {"name": "Santa Rita", "state": "SP", "type": "UTE", "phase": "Opera\u00e7\u00e3o", "ceg": "UTEAISP028189101", "start": "1978-01-01T00:00:00", "capacity": 6400.0, "lat": -21.72036753, "lon": -47.64046316}, {"name": "Ponta do Costa", "state": "RJ", "type": "UTE", "phase": "Opera\u00e7\u00e3o", "ceg": "UTEGNRJ028199901", "start": "2001-05-30T00:00:00", "capacity": 4000.0, "lat": -22.880765, "lon": -42.020075}, {"name": "Urbano S\u00e3o Gabriel", "state": "RS", "type": "UTE", "phase": "Opera\u00e7\u00e3o", "ceg": "UTEAIRS028200601", "start": "1995-11-04T00:00:00", "capacity": 2220.0, "lat": -30.33200967, "lon": -54.31053455}, {"name": "Tri\u00e1lcool", "state": "MG", "type": "UTE", "phase": "Opera\u00e7\u00e3o", "ceg": "UTEAIMG028202201", "start": "2003-05-01T00:00:00", "capacity": 15000.0, "lat": -18.87200967, "lon": -49.25243455}, {"name": "Usina da Serra", "state": "SP", "type": "UTE", "phase": "Opera\u00e7\u00e3o", "ceg": "UTEAISP028209001", "start": "2002-05-20T00:00:00", "capacity": 16200.0, "lat": -22.00950967, "lon": -47.99263455}, {"name": "Dori Alimentos", "state": "SP", "type": "UTE", "phase": "Opera\u00e7\u00e3o", "ceg": "UTEPESP028210301", "start": "2001-06-13T00:00:00", "capacity": 3750.0, "lat": -22.16474423, "lon": -49.95874051}, {"name": "Santa Helena", "state": "SP", "type": "UTE", "phase": "Opera\u00e7\u00e3o", "ceg": "UTEAISP028213801", "start": "1990-01-01T00:00:00", "capacity": 4800.0, "lat": -22.79888889, "lon": -47.66111111}, {"name": "Praia da Costa", "state": "ES", "type": "UTE", "phase": "Opera\u00e7\u00e3o", "ceg": "UTEGNES028216201", "start": "2002-10-01T00:00:00", "capacity": 3646.0, "lat": -20.32972217, "lon": -40.29250071}, {"name": "Mumbuca", "state": "SP", "type": "UTE", "phase": "Opera\u00e7\u00e3o", "ceg": "UTEAISP028217001", "start": "2002-01-01T00:00:00", "capacity": 1520.0, "lat": -22.66365, "lon": -50.21668}, {"name": "Delta", "state": "MG", "type": "UTE", "phase": "Opera\u00e7\u00e3o", "ceg": "UTEAIMG028219701", "start": "2001-12-01T00:00:00", "capacity": 101875.0, "lat": -19.94484195, "lon": -47.81275575}, {"name": "Costa Pinto", "state": "SP", "type": "UTE", "phase": "Opera\u00e7\u00e3o", "ceg": "UTEAISP028221901", "start": "1977-05-01T00:00:00", "capacity": 75000.0, "lat": -22.63570967, "lon": -47.67492455}, {"name": "PCT Barueri Biog\u00e1s", "state": "SP", "type": "UTE", "phase": "Opera\u00e7\u00e3o", "ceg": "UTERUSP028223501", "start": "2002-01-31T00:00:00", "capacity": 2601.0, "lat": -23.52250093, "lon": -46.83555583}, {"name": "Grendene Fortaleza", "state": "CE", "type": "UTE", "phase": "Opera\u00e7\u00e3o", "ceg": "UTEPECE028224301", "start": "2001-09-01T00:00:00", "capacity": 1500.0, "lat": -3.70776888, "lon": -38.58011483}, {"name": "Kaiser -  Feira de Santana", "state": "BA", "type": "UTE", "phase": "Opera\u00e7\u00e3o", "ceg": "UTEPEBA028278201", "start": "1900-01-03T00:00:00", "capacity": 1600.0, "lat": -12.29792347, "lon": -38.96633375}, {"name": "Vale do A\u00e7\u00fa (Antiga Jesus Soares Pereira)", "state": "RN", "type": "UTE", "phase": "Opera\u00e7\u00e3o", "ceg": "UTEGNRN028225101", "start": "2008-09-10T00:00:00", "capacity": 110000.0, "lat": -5.3825, "lon": -36.81861111}, {"name": "Pizzatto", "state": "PR", "type": "UTE", "phase": "Opera\u00e7\u00e3o", "ceg": "UTEFLPR028227801", "start": "2001-06-28T00:00:00", "capacity": 2000.0, "lat": -26.42400967, "lon": -51.30653455}, {"name": "CINAL/TRIKEM", "state": "AL", "type": "UTE", "phase": "Opera\u00e7\u00e3o", "ceg": "UTEGNAL028230801", "start": "2001-07-16T00:00:00", "capacity": 3187.5, "lat": -9.70600966, "lon": -35.88553455}, {"name": "Santa Elisa - Unidade I", "state": "SP", "type": "UTE", "phase": "Opera\u00e7\u00e3o", "ceg": "UTEAISP028232401", "start": "2002-08-28T00:00:00", "capacity": 58000.0, "lat": -21.10566967, "lon": -48.06798455}, {"name": "Grendene Sobral", "state": "CE", "type": "UTE", "phase": "Opera\u00e7\u00e3o", "ceg": "UTEPECE028235901", "start": "2001-09-01T00:00:00", "capacity": 4500.0, "lat": -3.67150804, "lon": -40.34515899}, {"name": "Moreno", "state": "SP", "type": "UTE", "phase": "Opera\u00e7\u00e3o", "ceg": "UTEAISP028236701", "start": "1994-01-01T00:00:00", "capacity": 10000.0, "lat": -21.48338225, "lon": -47.76943429}, {"name": "Citrosuco", "state": "SP", "type": "UTE", "phase": "Opera\u00e7\u00e3o", "ceg": "UTEAISP028237501", "start": "1985-01-01T00:00:00", "capacity": 7000.0, "lat": -21.59470567, "lon": -48.36364455}, {"name": "Tivit Barra (Antiga Optiglobe Rio)", "state": "RJ", "type": "UTE", "phase": "Opera\u00e7\u00e3o", "ceg": "UTEPERJ028238301", "start": "1900-01-03T00:00:00", "capacity": 11450.0, "lat": -22.98397222, "lon": -43.43036111}, {"name": "Carioca Shopping", "state": "RJ", "type": "UTE", "phase": "Opera\u00e7\u00e3o", "ceg": "UTEGNRJ028241301", "start": "2001-07-25T00:00:00", "capacity": 3200.0, "lat": -22.89900967, "lon": -43.19853455}, {"name": "Ecoluz", "state": "PR", "type": "UTE", "phase": "Opera\u00e7\u00e3o", "ceg": "UTEFLPR028246401", "start": "2008-11-07T00:00:00", "capacity": 12330.0, "lat": -25.35785919, "lon": -51.48125803}, {"name": "Clealco Clementina", "state": "SP", "type": "UTE", "phase": "Opera\u00e7\u00e3o", "ceg": "UTEAISP028247201", "start": "1983-07-01T00:00:00", "capacity": 11200.0, "lat": -21.57972222, "lon": -50.43166667}, {"name": "Kaiser - Araraquara", "state": "SP", "type": "UTE", "phase": "Opera\u00e7\u00e3o", "ceg": "UTEPESP028276601", "start": "2001-09-21T00:00:00", "capacity": 1600.0, "lat": -21.79036, "lon": -48.17444}, {"name": "Quat\u00e1", "state": "SP", "type": "UTE", "phase": "Opera\u00e7\u00e3o", "ceg": "UTEAISP028288001", "start": "1999-01-01T00:00:00", "capacity": 56078.0, "lat": -22.24911111, "lon": -50.6525}, {"name": "Zanin", "state": "SP", "type": "UTE", "phase": "Opera\u00e7\u00e3o", "ceg": "UTEAISP028325801", "start": "1983-01-01T00:00:00", "capacity": 16000.0, "lat": -21.79036, "lon": -48.17444}, {"name": "Termocabo", "state": "PE", "type": "UTE", "phase": "Opera\u00e7\u00e3o", "ceg": "UTEGNPE028326601", "start": "2002-09-19T00:00:00", "capacity": 49725.0, "lat": -8.26891511, "lon": -35.02454525}, {"name": "Coinbra - Frutesp", "state": "SP", "type": "UTE", "phase": "Opera\u00e7\u00e3o", "ceg": "UTEAISP028328201", "start": "2001-11-26T00:00:00", "capacity": 5000.0, "lat": -20.92946223, "lon": -48.5072133}, {"name": "Hiperideal", "state": "MT", "type": "UTE", "phase": "Opera\u00e7\u00e3o", "ceg": "UTEPEMT028333901", "start": "2001-04-02T00:00:00", "capacity": 1080.0, "lat": -15.59200966, "lon": -56.08753455}, {"name": "Adria", "state": "SP", "type": "UTE", "phase": "Opera\u00e7\u00e3o", "ceg": "UTEPESP028963901", "start": "2003-10-13T00:00:00", "capacity": 2040.0, "lat": -21.25100967, "lon": -48.31253455}, {"name": "R\u00e1dio e Televis\u00e3o Record", "state": "SP", "type": "UTE", "phase": "Opera\u00e7\u00e3o", "ceg": "UTEPESP028334701", "start": "1997-03-01T00:00:00", "capacity": 4760.0, "lat": -23.54400967, "lon": -46.62653455}, {"name": "Nobrecel", "state": "SP", "type": "UTE", "phase": "Opera\u00e7\u00e3o", "ceg": "UTEFLSP028336301", "start": "2001-09-26T00:00:00", "capacity": 3200.0, "lat": -22.92666889, "lon": -45.46204889}, {"name": "Santa Maria de Len\u00e7\u00f3is", "state": "SP", "type": "UTE", "phase": "Opera\u00e7\u00e3o", "ceg": "UTEAISP028337101", "start": "2008-04-01T00:00:00", "capacity": 3040.0, "lat": -22.58944444, "lon": -48.77638889}, {"name": "Hudtelfa I", "state": "SP", "type": "UTE", "phase": "Opera\u00e7\u00e3o", "ceg": "UTEPESP028338001", "start": "2001-09-26T00:00:00", "capacity": 2000.0, "lat": -22.77400967, "lon": -47.28653455}, {"name": "IGW/Service Energy", "state": "SP", "type": "UTE", "phase": "Opera\u00e7\u00e3o", "ceg": "UTEGNSP028339801", "start": "2002-07-16T00:00:00", "capacity": 2825.0, "lat": -23.54400967, "lon": -46.62653455}, {"name": "Salinas Perynas", "state": "RJ", "type": "UTE", "phase": "Opera\u00e7\u00e3o", "ceg": "UTEGNRJ028340101", "start": "1900-01-03T00:00:00", "capacity": 3000.0, "lat": -22.87562536, "lon": -42.07289903}, {"name": "Santo Ant\u00f4nio", "state": "SP", "type": "UTE", "phase": "Opera\u00e7\u00e3o", "ceg": "UTEAISP028344401", "start": "1990-01-01T00:00:00", "capacity": 23000.0, "lat": -21.11628967, "lon": -47.95136455}, {"name": "Jo\u00e3o Neiva", "state": "ES", "type": "UTE", "phase": "Opera\u00e7\u00e3o", "ceg": "UTEFLES028347901", "start": "2002-01-01T00:00:00", "capacity": 3500.0, "lat": -19.75400967, "lon": -40.37653455}, {"name": "Itacoatiara", "state": "AM", "type": "UTE", "phase": "Opera\u00e7\u00e3o", "ceg": "UTEFLAM028348701", "start": "2002-10-30T00:00:00", "capacity": 9000.0, "lat": -3.05328438, "lon": -58.72939659}, {"name": "Stepie Ulb", "state": "RS", "type": "UTE", "phase": "Opera\u00e7\u00e3o", "ceg": "UTEGNRS028350901", "start": "2001-10-17T00:00:00", "capacity": 3300.0, "lat": -29.91869695, "lon": -51.18103}, {"name": "Termocear\u00e1", "state": "CE", "type": "UTE", "phase": "Opera\u00e7\u00e3o", "ceg": "UTEGNCE028358401", "start": "2002-07-06T00:00:00", "capacity": 220000.0, "lat": -3.6925, "lon": -38.87166694}, {"name": "Rio de Janeiro Refrescos Coca Cola", "state": "RJ", "type": "UTE", "phase": "Opera\u00e7\u00e3o", "ceg": "UTEGNRJ028365701", "start": "2002-01-17T00:00:00", "capacity": 4800.0, "lat": -22.93659057, "lon": -43.3793158}, {"name": "UFA", "state": "SP", "type": "UTE", "phase": "Opera\u00e7\u00e3o", "ceg": "UTEAISP028366501", "start": "1900-01-03T00:00:00", "capacity": 28700.0, "lat": -21.86566667, "lon": -51.26058333}, {"name": "UJU", "state": "PR", "type": "UTE", "phase": "Opera\u00e7\u00e3o", "ceg": "UTEAIPR028367301", "start": "1995-06-01T00:00:00", "capacity": 30000.0, "lat": -22.93118874, "lon": -51.9513959}, {"name": "Jaguari\u00fana", "state": "SP", "type": "UTE", "phase": "Opera\u00e7\u00e3o", "ceg": "UTEGNSP028368101", "start": "2010-10-01T00:00:00", "capacity": 7902.0, "lat": -22.7122887, "lon": -47.005239}, {"name": "Jacare\u00ed", "state": "SP", "type": "UTE", "phase": "Opera\u00e7\u00e3o", "ceg": "UTEGNSP028374601", "start": "2011-03-31T00:00:00", "capacity": 10500.0, "lat": -23.30100967, "lon": -45.95653455}, {"name": "Vulcabr\u00e1s", "state": "CE", "type": "UTE", "phase": "Opera\u00e7\u00e3o", "ceg": "UTEGNCE028377001", "start": "1900-01-03T00:00:00", "capacity": 4980.0, "lat": -4.09500966, "lon": -38.48653455}, {"name": "BCP", "state": "SP", "type": "UTE", "phase": "Opera\u00e7\u00e3o", "ceg": "UTEPESP029135801", "start": "1997-02-01T00:00:00", "capacity": 1311.2, "lat": -23.60663208, "lon": -46.69634612}, {"name": "Casa de Geradores de Energia El\u00e9trica F-242", "state": "SP", "type": "UTE", "phase": "Opera\u00e7\u00e3o", "ceg": "UTEGNSP028378901", "start": "2003-01-03T00:00:00", "capacity": 9000.0, "lat": -23.09514572, "lon": -45.82199254}, {"name": "Oesp", "state": "SP", "type": "UTE", "phase": "Opera\u00e7\u00e3o", "ceg": "UTEPESP028383501", "start": "1999-11-01T00:00:00", "capacity": 4000.0, "lat": -23.54400967, "lon": -46.62653455}, {"name": "JB", "state": "PE", "type": "UTE", "phase": "Opera\u00e7\u00e3o", "ceg": "UTEAIPE028392401", "start": "2006-05-09T00:00:00", "capacity": 30000.0, "lat": -8.22388893, "lon": -35.27177774}, {"name": "Santa Isabel", "state": "SP", "type": "UTE", "phase": "Opera\u00e7\u00e3o", "ceg": "UTEAISP028401701", "start": "1980-08-01T00:00:00", "capacity": 44000.0, "lat": -21.50855556, "lon": -49.21244444}, {"name": "Bebidas Ipiranga", "state": "SP", "type": "UTE", "phase": "Opera\u00e7\u00e3o", "ceg": "UTEPESP028402501", "start": "2001-12-13T00:00:00", "capacity": 3750.0, "lat": -21.14624595, "lon": -47.82860155}, {"name": "Latasa Santa Cruz", "state": "RJ", "type": "UTE", "phase": "Opera\u00e7\u00e3o", "ceg": "UTEPERJ028425401", "start": "2005-02-01T00:00:00", "capacity": 4480.0, "lat": -22.87665194, "lon": -43.227875}, {"name": "CEG", "state": "RJ", "type": "UTE", "phase": "Opera\u00e7\u00e3o", "ceg": "UTEGNRJ028450501", "start": "1900-01-03T00:00:00", "capacity": 4984.0, "lat": -22.89972222, "lon": -43.21415704}, {"name": "Santa Herm\u00ednia", "state": "SP", "type": "UTE", "phase": "Opera\u00e7\u00e3o", "ceg": "UTEAISP028452101", "start": "2001-12-29T00:00:00", "capacity": 1200.0, "lat": -22.81454306, "lon": -50.079125}, {"name": "S\u00edncrotron", "state": "SP", "type": "UTE", "phase": "Opera\u00e7\u00e3o", "ceg": "UTEPESP028457201", "start": "2001-10-09T00:00:00", "capacity": 2000.0, "lat": -22.92787, "lon": -47.12746}, {"name": "Cevasa", "state": "SP", "type": "UTE", "phase": "Opera\u00e7\u00e3o", "ceg": "UTEAISP028458001", "start": "2006-03-01T00:00:00", "capacity": 54000.0, "lat": -20.74780967, "lon": -47.42183455}, {"name": "Cooperfrigo", "state": "SP", "type": "UTE", "phase": "Opera\u00e7\u00e3o", "ceg": "UTEAISP028459901", "start": "2001-08-01T00:00:00", "capacity": 4000.0, "lat": -21.56051433, "lon": -49.8698453}, {"name": "Destivale", "state": "SP", "type": "UTE", "phase": "Opera\u00e7\u00e3o", "ceg": "UTEAISP028460201", "start": "2012-12-21T00:00:00", "capacity": 5000.0, "lat": -21.05867212, "lon": -50.46474346}, {"name": "Grizzo", "state": "SP", "type": "UTE", "phase": "Opera\u00e7\u00e3o", "ceg": "UTEAISP028461001", "start": "2002-01-04T00:00:00", "capacity": 1968.0, "lat": -22.23870689, "lon": -48.47626309}, {"name": "Vista Alegre", "state": "SP", "type": "UTE", "phase": "Opera\u00e7\u00e3o", "ceg": "UTEAISP028462901", "start": "2010-03-25T00:00:00", "capacity": 60000.0, "lat": -23.48905967, "lon": -48.12474455}, {"name": "Campo Florido", "state": "MG", "type": "UTE", "phase": "Opera\u00e7\u00e3o", "ceg": "UTEAIMG028478501", "start": "2002-05-15T00:00:00", "capacity": 30000.0, "lat": -19.80914552, "lon": -48.72552628}, {"name": "Coruripe Iturama", "state": "MG", "type": "UTE", "phase": "Opera\u00e7\u00e3o", "ceg": "UTEAIMG028479301", "start": "2002-10-31T00:00:00", "capacity": 24000.0, "lat": -19.70461967, "lon": -50.32885455}, {"name": "Metal Nobre Siderurgia Eireli", "state": "MG", "type": "UTE", "phase": "Opera\u00e7\u00e3o", "ceg": "UTECMMG028486601", "start": "2017-09-04T00:00:00", "capacity": 1275.0, "lat": -20.10500226, "lon": -44.97695126}, {"name": "Aralco", "state": "SP", "type": "UTE", "phase": "Opera\u00e7\u00e3o", "ceg": "UTEAISP028488201", "start": "2002-02-15T00:00:00", "capacity": 4800.0, "lat": -20.90855285, "lon": -50.41105429}, {"name": "Mosaic Arax\u00e1 (Antiga Vale Fertilizantes Arax\u00e1)", "state": "MG", "type": "UTE", "phase": "Opera\u00e7\u00e3o", "ceg": "UTEPEMG028501301", "start": "2002-04-30T00:00:00", "capacity": 23000.0, "lat": -19.6275, "lon": -46.98611111}, {"name": "Japungu", "state": "PB", "type": "UTE", "phase": "Opera\u00e7\u00e3o", "ceg": "UTEAIPB028515301", "start": "1998-01-01T00:00:00", "capacity": 28800.0, "lat": -6.98690966, "lon": -35.01433455}, {"name": "Brasil Verde", "state": "MG", "type": "UTE", "phase": "Opera\u00e7\u00e3o", "ceg": "UTECMMG028516101", "start": "2003-05-01T00:00:00", "capacity": 1200.0, "lat": -19.75311424, "lon": -44.8970524}, {"name": "Itaenga", "state": "PE", "type": "UTE", "phase": "Opera\u00e7\u00e3o", "ceg": "UTEAIPE028539001", "start": "2007-01-31T00:00:00", "capacity": 47000.0, "lat": -7.90577967, "lon": -35.28467455}, {"name": "Volta Grande", "state": "MG", "type": "UTE", "phase": "Opera\u00e7\u00e3o", "ceg": "UTEAIMG028540401", "start": "1900-01-03T00:00:00", "capacity": 54938.0, "lat": -19.9799, "lon": -48.2645}, {"name": "Marituba", "state": "AL", "type": "UTE", "phase": "Opera\u00e7\u00e3o", "ceg": "UTEAIAL028542001", "start": "2001-10-01T00:00:00", "capacity": 20500.0, "lat": -10.15063889, "lon": -36.542}, {"name": "Serra Grande", "state": "AL", "type": "UTE", "phase": "Opera\u00e7\u00e3o", "ceg": "UTEAIAL028543901", "start": "2001-09-01T00:00:00", "capacity": 17200.0, "lat": -9.01106611, "lon": -36.05738806}, {"name": "Cuca\u00fa", "state": "PE", "type": "UTE", "phase": "Opera\u00e7\u00e3o", "ceg": "UTEAIPE028558701", "start": "1900-01-03T00:00:00", "capacity": 12600.0, "lat": -8.63692966, "lon": -35.26173455}, {"name": "Suma\u00fama", "state": "AL", "type": "UTE", "phase": "Opera\u00e7\u00e3o", "ceg": "UTEAIAL028577301", "start": "2002-04-16T00:00:00", "capacity": 4000.0, "lat": -9.73915611, "lon": -35.89306889}, {"name": "Pa\u00edsa", "state": "AL", "type": "UTE", "phase": "Opera\u00e7\u00e3o", "ceg": "UTEAIAL028578101", "start": "1980-01-01T00:00:00", "capacity": 4400.0, "lat": -10.292, "lon": -36.49977778}, {"name": "Capricho", "state": "AL", "type": "UTE", "phase": "Opera\u00e7\u00e3o", "ceg": "UTEAIAL028579001", "start": "2002-04-16T00:00:00", "capacity": 2400.0, "lat": -9.33352966, "lon": -36.15008455}, {"name": "Alvorada", "state": "MG", "type": "UTE", "phase": "Opera\u00e7\u00e3o", "ceg": "UTEAIMG028580301", "start": "2002-12-31T00:00:00", "capacity": 8000.0, "lat": -21.2940547, "lon": -46.81347719}, {"name": "Laginha-Matrix", "state": "AL", "type": "UTE", "phase": "Opera\u00e7\u00e3o", "ceg": "UTEAIAL028581101", "start": "2002-04-17T00:00:00", "capacity": 4950.0, "lat": -9.12085, "lon": -36.01421}, {"name": "Petrolina", "state": "PE", "type": "UTE", "phase": "Opera\u00e7\u00e3o", "ceg": "UTEPEPE028584601", "start": "2002-10-03T00:00:00", "capacity": 136200.0, "lat": -9.39737611, "lon": -40.49999889}, {"name": "Atalaia", "state": "SE", "type": "UTE", "phase": "Opera\u00e7\u00e3o", "ceg": "UTEGNSE028586201", "start": "2002-04-25T00:00:00", "capacity": 4600.0, "lat": -10.99405228, "lon": -37.09491709}, {"name": "RVR", "state": "MG", "type": "UTE", "phase": "Opera\u00e7\u00e3o", "ceg": "UTEPEMG028587001", "start": "2002-06-30T00:00:00", "capacity": 1200.0, "lat": -19.46738079, "lon": -44.15820236}, {"name": "Millennium", "state": "BA", "type": "UTE", "phase": "Opera\u00e7\u00e3o", "ceg": "UTEGNBA028588901", "start": "1900-01-03T00:00:00", "capacity": 4781.0, "lat": -12.69881695, "lon": -38.32574}, {"name": "Gabriel Passos", "state": "MG", "type": "UTE", "phase": "Opera\u00e7\u00e3o", "ceg": "UTEPEMG028596001", "start": "2003-11-01T00:00:00", "capacity": 57220.0, "lat": -19.96626178, "lon": -44.09553798}, {"name": "CAAL", "state": "RS", "type": "UTE", "phase": "Opera\u00e7\u00e3o", "ceg": "UTEAIRS028600101", "start": "2012-12-04T00:00:00", "capacity": 3825.0, "lat": -29.78250967, "lon": -55.76953455}, {"name": "Gameleira", "state": "MT", "type": "UTE", "phase": "Opera\u00e7\u00e3o", "ceg": "UTEAIMT028601001", "start": "1900-01-03T00:00:00", "capacity": 4032.0, "lat": -10.65453607, "lon": -51.41867782}, {"name": "Usiminas", "state": "MG", "type": "UTE", "phase": "Opera\u00e7\u00e3o", "ceg": "UTEFLMG028604401", "start": "2003-05-15T00:00:00", "capacity": 18810.0, "lat": -19.46400967, "lon": -42.52753455}, {"name": "Ba\u00eda Formosa", "state": "RN", "type": "UTE", "phase": "Opera\u00e7\u00e3o", "ceg": "UTEAIRN028605201", "start": "2011-09-02T00:00:00", "capacity": 40000.0, "lat": -6.41613439, "lon": -35.0557286}, {"name": "Combustol", "state": "SP", "type": "UTE", "phase": "Opera\u00e7\u00e3o", "ceg": "UTEPESP028608701", "start": "2002-05-22T00:00:00", "capacity": 2175.0, "lat": -23.48640133, "lon": -46.74389289}, {"name": "Budai", "state": "SP", "type": "UTE", "phase": "Opera\u00e7\u00e3o", "ceg": "UTEPESP028609501", "start": "2001-01-09T00:00:00", "capacity": 1070.4, "lat": -23.51666589, "lon": -46.91567289}, {"name": "Daia", "state": "GO", "type": "UTE", "phase": "Opera\u00e7\u00e3o", "ceg": "UTEPEGO028612501", "start": "2002-12-06T00:00:00", "capacity": 44440.0, "lat": -16.39639274, "lon": -48.93035943}, {"name": "Lwarcel (Antiga Len\u00e7\u00f3is Paulista)", "state": "SP", "type": "UTE", "phase": "Opera\u00e7\u00e3o", "ceg": "UTEFLSP028620601", "start": "1987-01-01T00:00:00", "capacity": 36420.0, "lat": -22.54420136, "lon": -48.80893024}, {"name": "S\u00e3o Jo\u00e3o Biog\u00e1s", "state": "SP", "type": "UTE", "phase": "Opera\u00e7\u00e3o", "ceg": "UTERUSP028648601", "start": "2008-03-27T00:00:00", "capacity": 24640.0, "lat": -23.63489867, "lon": -46.41525655}, {"name": "Trapiche", "state": "PE", "type": "UTE", "phase": "Opera\u00e7\u00e3o", "ceg": "UTEAIPE028651601", "start": "1900-01-03T00:00:00", "capacity": 26000.0, "lat": -8.59336889, "lon": -35.116405}, {"name": "Xavantes Aruan\u00e3", "state": "GO", "type": "UTE", "phase": "Opera\u00e7\u00e3o", "ceg": "UTEPEGO028654001", "start": "2002-07-17T00:00:00", "capacity": 53576.0, "lat": -16.58166695, "lon": -49.25749997}, {"name": "Potiguar", "state": "RN", "type": "UTE", "phase": "Opera\u00e7\u00e3o", "ceg": "UTEPERN028655901", "start": "2009-03-03T00:00:00", "capacity": 53120.0, "lat": -5.87062078, "lon": -35.29331233}, {"name": "Pitangui", "state": "MG", "type": "UTE", "phase": "Opera\u00e7\u00e3o", "ceg": "UTECMMG028658301", "start": "1900-01-03T00:00:00", "capacity": 4000.0, "lat": -19.69166739, "lon": -44.92582865}, {"name": "Fazenda Santa Marta", "state": "MG", "type": "UTE", "phase": "Opera\u00e7\u00e3o", "ceg": "UTEFLMG028659101", "start": "1900-01-03T00:00:00", "capacity": 3600.0, "lat": -16.61702728, "lon": -43.31903732}, {"name": "Estivas", "state": "RN", "type": "UTE", "phase": "Opera\u00e7\u00e3o", "ceg": "UTEAIRN028660501", "start": "1976-01-01T00:00:00", "capacity": 21000.0, "lat": -6.22663966, "lon": -35.19802455}, {"name": "Brumado", "state": "BA", "type": "UTE", "phase": "Opera\u00e7\u00e3o", "ceg": "UTEPEBA028663001", "start": "1977-09-01T00:00:00", "capacity": 12895.0, "lat": -14.23926827, "lon": -41.72330298}, {"name": "Contagem", "state": "MG", "type": "UTE", "phase": "Opera\u00e7\u00e3o", "ceg": "UTEGNMG028666401", "start": "2006-02-01T00:00:00", "capacity": 19299.0, "lat": -19.94323167, "lon": -44.00609055}, {"name": "Siderpa", "state": "MG", "type": "UTE", "phase": "Opera\u00e7\u00e3o", "ceg": "UTEFLMG028668001", "start": "2004-10-15T00:00:00", "capacity": 2400.0, "lat": -19.45828694, "lon": -44.239595}, {"name": "Araguassu", "state": "MT", "type": "UTE", "phase": "Opera\u00e7\u00e3o", "ceg": "UTEFLMT028683401", "start": "2002-08-21T00:00:00", "capacity": 1200.0, "lat": -10.87797147, "lon": -51.63299291}, {"name": "Sargel", "state": "SP", "type": "UTE", "phase": "Opera\u00e7\u00e3o", "ceg": "UTEPESP028684201", "start": "2002-03-01T00:00:00", "capacity": 1296.0, "lat": -21.46899111, "lon": -47.00717111}, {"name": "Conc\u00f3rdia", "state": "SC", "type": "UTE", "phase": "Opera\u00e7\u00e3o", "ceg": "UTECMSC028718001", "start": "1900-01-03T00:00:00", "capacity": 5000.0, "lat": -27.23360025, "lon": -52.0317881}, {"name": "Engevix-Blu 1", "state": "SC", "type": "UTE", "phase": "Opera\u00e7\u00e3o", "ceg": "UTEGNSC028794601", "start": "1900-01-03T00:00:00", "capacity": 3000.0, "lat": -26.92084646, "lon": -49.0700546}, {"name": "Byk", "state": "SP", "type": "UTE", "phase": "Opera\u00e7\u00e3o", "ceg": "UTEPESP028691501", "start": "2002-05-01T00:00:00", "capacity": 2000.0, "lat": -22.70944337, "lon": -47.01242972}, {"name": "Central Olho D \u00c1gua", "state": "PE", "type": "UTE", "phase": "Opera\u00e7\u00e3o", "ceg": "UTEAIPE028692301", "start": "2015-04-08T00:00:00", "capacity": 30000.0, "lat": -7.41761966, "lon": -35.24413455}, {"name": "Uni\u00e3o", "state": "PE", "type": "UTE", "phase": "Opera\u00e7\u00e3o", "ceg": "UTEAIPE028694001", "start": "2010-10-18T00:00:00", "capacity": 10000.0, "lat": -8.34958333, "lon": -35.34802778}, {"name": "Agrovale", "state": "BA", "type": "UTE", "phase": "Opera\u00e7\u00e3o", "ceg": "UTEAIBA028696601", "start": "1979-05-01T00:00:00", "capacity": 16000.0, "lat": -9.49784523, "lon": -40.36593336}, {"name": "Ipojuca", "state": "PE", "type": "UTE", "phase": "Opera\u00e7\u00e3o", "ceg": "UTEAIPE028707501", "start": "1984-08-01T00:00:00", "capacity": 11200.0, "lat": -8.39367685, "lon": -35.08970124}, {"name": "Jitituba Santo Ant\u00f4nio", "state": "AL", "type": "UTE", "phase": "Opera\u00e7\u00e3o", "ceg": "UTEAIAL028708301", "start": "1900-01-03T00:00:00", "capacity": 27400.0, "lat": -9.29070859, "lon": -35.55658455}, {"name": "Una A\u00e7\u00facar e Energia", "state": "PE", "type": "UTE", "phase": "Opera\u00e7\u00e3o", "ceg": "UTEAIPE028726101", "start": "2002-10-02T00:00:00", "capacity": 3000.0, "lat": -8.76422222, "lon": -35.31622222}, {"name": "CNT", "state": "GO", "type": "UTE", "phase": "Opera\u00e7\u00e3o", "ceg": "UTEPEGO028739301", "start": "1997-10-01T00:00:00", "capacity": 36000.0, "lat": -14.34323166, "lon": -48.43081255}, {"name": "Chapec\u00f3", "state": "SC", "type": "UTE", "phase": "Opera\u00e7\u00e3o", "ceg": "UTEFLSC028741501", "start": "1900-01-03T00:00:00", "capacity": 4000.0, "lat": -27.09740864, "lon": -52.65164558}, {"name": "Lages", "state": "SC", "type": "UTE", "phase": "Opera\u00e7\u00e3o", "ceg": "UTEFLSC028745801", "start": "2003-12-23T00:00:00", "capacity": 28000.0, "lat": -27.81599991, "lon": -50.32600018}, {"name": "Sinimbu", "state": "AL", "type": "UTE", "phase": "Opera\u00e7\u00e3o", "ceg": "UTEAIAL028750401", "start": "1900-01-03T00:00:00", "capacity": 18000.0, "lat": -9.88113966, "lon": -36.15073455}, {"name": "CENPES - Petrobr\u00e1s", "state": "RJ", "type": "UTE", "phase": "Opera\u00e7\u00e3o", "ceg": "UTEGNRJ028773301", "start": "2011-09-21T00:00:00", "capacity": 16065.0, "lat": -22.89900967, "lon": -43.19853455}, {"name": "Dois Vizinhos", "state": "PR", "type": "UTE", "phase": "Opera\u00e7\u00e3o", "ceg": "UTEFLPR028774101", "start": "2003-06-30T00:00:00", "capacity": 3000.0, "lat": -24.74875088, "lon": -53.72958088}, {"name": "Motorola SP", "state": "SP", "type": "UTE", "phase": "Opera\u00e7\u00e3o", "ceg": "UTEPESP028779201", "start": "2002-11-22T00:00:00", "capacity": 1342.0, "lat": -22.70678194, "lon": -46.98234305}, {"name": "Calsete", "state": "MG", "type": "UTE", "phase": "Opera\u00e7\u00e3o", "ceg": "UTEFLMG029266402", "start": "2005-06-22T00:00:00", "capacity": 2000.05, "lat": -19.525, "lon": -44.26388888}, {"name": "Artivinco (Antiga Rio Pardo)", "state": "SP", "type": "UTE", "phase": "Opera\u00e7\u00e3o", "ceg": "UTEAISP028815201", "start": "2002-12-23T00:00:00", "capacity": 4500.0, "lat": -21.43658795, "lon": -47.34203135}, {"name": "Souza Cruz Cachoeirinha", "state": "RS", "type": "UTE", "phase": "Opera\u00e7\u00e3o", "ceg": "UTEGNRS028872101", "start": "2003-02-01T00:00:00", "capacity": 2952.0, "lat": -29.951, "lon": -51.094}, {"name": "Pitangueiras", "state": "SP", "type": "UTE", "phase": "Opera\u00e7\u00e3o", "ceg": "UTEAISP028859401", "start": "2002-05-02T00:00:00", "capacity": 70000.0, "lat": -21.05223466, "lon": -48.26262373}, {"name": "Paraibuna", "state": "MG", "type": "UTE", "phase": "Opera\u00e7\u00e3o", "ceg": "UTEGNMG028866701", "start": "2003-02-03T00:00:00", "capacity": 2000.0, "lat": -21.76092389, "lon": -43.34881695}, {"name": "Rohden", "state": "SC", "type": "UTE", "phase": "Opera\u00e7\u00e3o", "ceg": "UTEFLSC028868301", "start": "2003-02-04T00:00:00", "capacity": 3500.0, "lat": -26.97600967, "lon": -49.99053455}, {"name": "Novagerar", "state": "RJ", "type": "UTE", "phase": "Opera\u00e7\u00e3o", "ceg": "UTERURJ028870501", "start": "2003-07-01T00:00:00", "capacity": 4000.0, "lat": -22.67124767, "lon": -43.47502001}, {"name": "Cory", "state": "MG", "type": "UTE", "phase": "Opera\u00e7\u00e3o", "ceg": "UTEPEMG028883701", "start": "2002-08-01T00:00:00", "capacity": 1440.0, "lat": -21.36000967, "lon": -46.93053455}, {"name": "Termocana", "state": "PR", "type": "UTE", "phase": "Opera\u00e7\u00e3o", "ceg": "UTEAIPR028884501", "start": "1994-05-31T00:00:00", "capacity": 9500.0, "lat": -23.34217, "lon": -52.48046}, {"name": "Diamante", "state": "SP", "type": "UTE", "phase": "Opera\u00e7\u00e3o", "ceg": "UTEAISP028893401", "start": "1989-01-01T00:00:00", "capacity": 7000.0, "lat": -22.3695325, "lon": -48.68796553}, {"name": "Termomec\u00e2nica S\u00e3o Paulo", "state": "SP", "type": "UTE", "phase": "Opera\u00e7\u00e3o", "ceg": "UTEPESP028897701", "start": "2006-07-01T00:00:00", "capacity": 4924.0, "lat": -23.69000967, "lon": -46.55553455}, {"name": "Itaguassu Agro Industrial", "state": "SE", "type": "UTE", "phase": "Opera\u00e7\u00e3o", "ceg": "UTEPESE028909401", "start": "2003-02-04T00:00:00", "capacity": 4450.4, "lat": -10.84875389, "lon": -37.12849611}, {"name": "Alunorte", "state": "PA", "type": "UTE", "phase": "Opera\u00e7\u00e3o", "ceg": "UTECMPA028916701", "start": "2007-09-26T00:00:00", "capacity": 103854.0, "lat": -1.54139616, "lon": -48.7325286}, {"name": "Viena", "state": "MA", "type": "UTE", "phase": "Opera\u00e7\u00e3o", "ceg": "UTEFLMA028917501", "start": "2008-01-11T00:00:00", "capacity": 12200.0, "lat": -4.88860676, "lon": -47.39192739}, {"name": "3M Sumar\u00e9", "state": "SP", "type": "UTE", "phase": "Opera\u00e7\u00e3o", "ceg": "UTEPESP028919101", "start": "2001-10-01T00:00:00", "capacity": 6400.0, "lat": -22.82104145, "lon": -47.19009321}, {"name": "Norte", "state": "SP", "type": "UTE", "phase": "Opera\u00e7\u00e3o", "ceg": "UTEPESP028924801", "start": "2003-07-03T00:00:00", "capacity": 3898.0, "lat": -22.75992195, "lon": -47.15438611}, {"name": "Santa Teresa", "state": "PE", "type": "UTE", "phase": "Opera\u00e7\u00e3o", "ceg": "UTEAIPE028933701", "start": "1997-05-03T00:00:00", "capacity": 20200.0, "lat": -7.55923194, "lon": -34.99837611}, {"name": "Ribeir\u00e3o Shopping", "state": "SP", "type": "UTE", "phase": "Opera\u00e7\u00e3o", "ceg": "UTEPESP028936101", "start": "1900-01-03T00:00:00", "capacity": 1360.0, "lat": -21.21171815, "lon": -47.81516992}, {"name": "Moore", "state": "SP", "type": "UTE", "phase": "Opera\u00e7\u00e3o", "ceg": "UTEPESP028938801", "start": "2002-09-20T00:00:00", "capacity": 1296.0, "lat": -23.52900967, "lon": -46.78253455}, {"name": "Cisam", "state": "MG", "type": "UTE", "phase": "Opera\u00e7\u00e3o", "ceg": "UTEFLMG028939601", "start": "1900-01-03T00:00:00", "capacity": 2000.0, "lat": -19.84400645, "lon": -44.6127613}, {"name": "Battistella", "state": "SC", "type": "UTE", "phase": "Opera\u00e7\u00e3o", "ceg": "UTEFLSC028945001", "start": "1992-04-01T00:00:00", "capacity": 3150.0, "lat": -26.2380277, "lon": -49.48341092}, {"name": "Menu", "state": "SP", "type": "UTE", "phase": "Opera\u00e7\u00e3o", "ceg": "UTEPESP028947701", "start": "2003-09-30T00:00:00", "capacity": 3000.0, "lat": -21.25344611, "lon": -50.64263889}, {"name": "Giasa II", "state": "PB", "type": "UTE", "phase": "Opera\u00e7\u00e3o", "ceg": "UTEAIPB028957401", "start": "2003-08-05T00:00:00", "capacity": 30000.0, "lat": -7.35327785, "lon": -35.02966974}, {"name": "Copa DOr", "state": "RJ", "type": "UTE", "phase": "Opera\u00e7\u00e3o", "ceg": "UTEPERJ028960401", "start": "2003-10-09T00:00:00", "capacity": 1600.0, "lat": -22.89900967, "lon": -43.19853455}, {"name": "Terranova I", "state": "SC", "type": "UTE", "phase": "Opera\u00e7\u00e3o", "ceg": "UTEFLSC028961201", "start": "2000-02-09T00:00:00", "capacity": 3840.0, "lat": -26.25000967, "lon": -49.50853455}, {"name": "S\u00e3o Jos\u00e9 Colina", "state": "SP", "type": "UTE", "phase": "Opera\u00e7\u00e3o", "ceg": "UTEAISP028975201", "start": "2008-09-23T00:00:00", "capacity": 83000.0, "lat": -20.66194444, "lon": -48.53388889}, {"name": "Unipac", "state": "SP", "type": "UTE", "phase": "Opera\u00e7\u00e3o", "ceg": "UTEPESP028978701", "start": "2003-10-29T00:00:00", "capacity": 3500.0, "lat": -22.10614611, "lon": -50.17602806}, {"name": "Polifrigor", "state": "SP", "type": "UTE", "phase": "Opera\u00e7\u00e3o", "ceg": "UTEPESP028979501", "start": "2003-10-29T00:00:00", "capacity": 1056.0, "lat": -22.23212805, "lon": -48.71887389}, {"name": "Tilibra", "state": "SP", "type": "UTE", "phase": "Opera\u00e7\u00e3o", "ceg": "UTEPESP028980901", "start": "2003-11-10T00:00:00", "capacity": 1450.0, "lat": -22.315, "lon": -49.061}, {"name": "Hy-Line", "state": "SP", "type": "UTE", "phase": "Opera\u00e7\u00e3o", "ceg": "UTEPESP028981701", "start": "2003-11-10T00:00:00", "capacity": 1172.0, "lat": -20.53000967, "lon": -49.30453455}, {"name": "Operadora S\u00e3o Paulo Renaissance", "state": "SP", "type": "UTE", "phase": "Opera\u00e7\u00e3o", "ceg": "UTEGNSP028990601", "start": "2001-06-01T00:00:00", "capacity": 1600.0, "lat": -23.54400967, "lon": -46.62653455}, {"name": "Abatedouro S\u00e3o Salvador", "state": "GO", "type": "UTE", "phase": "Opera\u00e7\u00e3o", "ceg": "UTEPEGO028991401", "start": "2002-01-26T00:00:00", "capacity": 3688.0, "lat": -16.00442078, "lon": -49.78671233}, {"name": "Merck", "state": "SP", "type": "UTE", "phase": "Opera\u00e7\u00e3o", "ceg": "UTEPESP029132301", "start": "1999-12-01T00:00:00", "capacity": 3750.0, "lat": -22.90734194, "lon": -47.06015611}, {"name": "Veracel", "state": "BA", "type": "UTE", "phase": "Opera\u00e7\u00e3o", "ceg": "UTEFLBA029014901", "start": "2006-01-02T00:00:00", "capacity": 126600.0, "lat": -16.37400967, "lon": -39.57053455}, {"name": "Blue Tree Park Angra dos Reis", "state": "RJ", "type": "UTE", "phase": "Opera\u00e7\u00e3o", "ceg": "UTEPERJ029023801", "start": "2001-02-01T00:00:00", "capacity": 2000.0, "lat": -23.00834127, "lon": -44.35506151}, {"name": "Coniexpress", "state": "GO", "type": "UTE", "phase": "Opera\u00e7\u00e3o", "ceg": "UTEPEGO029024601", "start": "2001-03-31T00:00:00", "capacity": 3688.0, "lat": -16.40676859, "lon": -49.20953455}, {"name": "Morumbi Shopping", "state": "SP", "type": "UTE", "phase": "Opera\u00e7\u00e3o", "ceg": "UTEPESP029046701", "start": "2001-12-11T00:00:00", "capacity": 1450.0, "lat": -23.61648056, "lon": -46.62653455}, {"name": "Agudos Ambev", "state": "SP", "type": "UTE", "phase": "Opera\u00e7\u00e3o", "ceg": "UTEPESP029076901", "start": "2004-03-16T00:00:00", "capacity": 4800.0, "lat": -22.46900716, "lon": -48.98803336}, {"name": "Caterpillar", "state": "SP", "type": "UTE", "phase": "Opera\u00e7\u00e3o", "ceg": "UTEPESP029106401", "start": "2002-03-15T00:00:00", "capacity": 11480.0, "lat": -22.70327398, "lon": -47.62459851}, {"name": "Lasa", "state": "ES", "type": "UTE", "phase": "Opera\u00e7\u00e3o", "ceg": "UTEAIES029107201", "start": "1982-06-01T00:00:00", "capacity": 33000.0, "lat": -19.34060365, "lon": -40.01046146}, {"name": "S\u00e3o Jos\u00e9", "state": "PE", "type": "UTE", "phase": "Opera\u00e7\u00e3o", "ceg": "UTEAIPE029113701", "start": "1976-08-01T00:00:00", "capacity": 36205.0, "lat": -7.81754966, "lon": -35.00133455}, {"name": "Santo \u00c2ngelo", "state": "MG", "type": "UTE", "phase": "Opera\u00e7\u00e3o", "ceg": "UTEAIMG029116101", "start": "2014-09-02T00:00:00", "capacity": 86000.0, "lat": -19.95935386, "lon": -48.69663805}, {"name": "WD", "state": "MG", "type": "UTE", "phase": "Opera\u00e7\u00e3o", "ceg": "UTEAIMG029122601", "start": "1988-05-01T00:00:00", "capacity": 46000.0, "lat": -18.21528, "lon": -45.9907}, {"name": "Organon", "state": "SP", "type": "UTE", "phase": "Opera\u00e7\u00e3o", "ceg": "UTEPESP029129301", "start": "1900-01-03T00:00:00", "capacity": 1150.0, "lat": -23.6588269, "lon": -46.70334205}, {"name": "J. L. G.", "state": "SP", "type": "UTE", "phase": "Opera\u00e7\u00e3o", "ceg": "UTEAISP029131501", "start": "2007-08-07T00:00:00", "capacity": 1600.0, "lat": -21.51480389, "lon": -48.40024306}, {"name": "Component", "state": "SP", "type": "UTE", "phase": "Opera\u00e7\u00e3o", "ceg": "UTEPESP029136601", "start": "2003-12-15T00:00:00", "capacity": 1620.0, "lat": -23.68200967, "lon": -46.61353455}, {"name": "Cana\u00e3", "state": "SP", "type": "UTE", "phase": "Opera\u00e7\u00e3o", "ceg": "UTEAISP029138201", "start": "2006-08-08T00:00:00", "capacity": 30000.0, "lat": -22.94271999, "lon": -47.60201}, {"name": "Seresta", "state": "AL", "type": "UTE", "phase": "Opera\u00e7\u00e3o", "ceg": "UTEAIAL029142001", "start": "2004-05-01T00:00:00", "capacity": 9500.0, "lat": -9.90749805, "lon": -36.35556306}, {"name": "Usaciga", "state": "PR", "type": "UTE", "phase": "Opera\u00e7\u00e3o", "ceg": "UTEAIPR029144701", "start": "2007-10-02T00:00:00", "capacity": 40000.0, "lat": -23.3726, "lon": -52.905}, {"name": "Dasa", "state": "MG", "type": "UTE", "phase": "Opera\u00e7\u00e3o", "ceg": "UTEAIMG029147101", "start": "1986-03-01T00:00:00", "capacity": 4200.0, "lat": -17.83747012, "lon": -40.18804968}, {"name": "SVA", "state": "RS", "type": "UTE", "phase": "Opera\u00e7\u00e3o", "ceg": "UTEAIRS029148001", "start": "2008-12-01T00:00:00", "capacity": 4900.0, "lat": -29.80335495, "lon": -55.81619412}, {"name": "Alcon", "state": "ES", "type": "UTE", "phase": "Opera\u00e7\u00e3o", "ceg": "UTEAIES029150101", "start": "2001-08-01T00:00:00", "capacity": 33000.0, "lat": -18.45735773, "lon": -39.9453552}, {"name": "Iolando Leite", "state": "SE", "type": "UTE", "phase": "Opera\u00e7\u00e3o", "ceg": "UTEAISE029152801", "start": "2008-01-17T00:00:00", "capacity": 8000.0, "lat": -10.5061, "lon": -37.05483306}, {"name": "Cooper-Rubi", "state": "GO", "type": "UTE", "phase": "Opera\u00e7\u00e3o", "ceg": "UTEAIGO029153601", "start": "1987-04-01T00:00:00", "capacity": 40000.0, "lat": -15.17540966, "lon": -49.74883455}, {"name": "Nova Gera\u00e7\u00e3o", "state": "GO", "type": "UTE", "phase": "Opera\u00e7\u00e3o", "ceg": "UTEAIGO029156001", "start": "1982-04-01T00:00:00", "capacity": 6200.0, "lat": -17.27425967, "lon": -50.13953455}, {"name": "Coruripe", "state": "AL", "type": "UTE", "phase": "Opera\u00e7\u00e3o", "ceg": "UTEAIAL029161701", "start": "2006-02-04T00:00:00", "capacity": 32000.0, "lat": -10.12338685, "lon": -36.27422068}, {"name": "CRV", "state": "GO", "type": "UTE", "phase": "Opera\u00e7\u00e3o", "ceg": "UTEAIGO029162501", "start": "2001-05-01T00:00:00", "capacity": 10000.0, "lat": -15.34290966, "lon": -49.72003455}, {"name": "Coinbra - Frutesp", "state": "SP", "type": "UTE", "phase": "Opera\u00e7\u00e3o", "ceg": "UTEAISP029168401", "start": "2004-12-13T00:00:00", "capacity": 8000.0, "lat": -21.63349347, "lon": -48.34211234}, {"name": "Lago Azul", "state": "GO", "type": "UTE", "phase": "Opera\u00e7\u00e3o", "ceg": "UTEAIGO029173001", "start": "1982-06-01T00:00:00", "capacity": 21700.0, "lat": -17.25757778, "lon": -47.68992222}, {"name": "Eldorado", "state": "MS", "type": "UTE", "phase": "Opera\u00e7\u00e3o", "ceg": "UTEAIMS029193501", "start": "2011-06-04T00:00:00", "capacity": 140000.0, "lat": -21.86474991, "lon": -54.0222483}, {"name": "Rio Preto da Eva", "state": "AM", "type": "UTE", "phase": "Opera\u00e7\u00e3o", "ceg": "UTEPEAM029185401", "start": "2004-06-01T00:00:00", "capacity": 3200.0, "lat": -2.69500966, "lon": -59.69053455}, {"name": "Sesc Senac-Cass", "state": "RJ", "type": "UTE", "phase": "Opera\u00e7\u00e3o", "ceg": "UTEGNRJ029187001", "start": "2004-07-20T00:00:00", "capacity": 1600.0, "lat": -22.87665194, "lon": -43.227875}, {"name": "Ita\u00fasa", "state": "SP", "type": "UTE", "phase": "Opera\u00e7\u00e3o", "ceg": "UTEPESP029188901", "start": "2002-07-15T00:00:00", "capacity": 5475.0, "lat": -23.54400967, "lon": -46.62653455}, {"name": "M\u00fcller Destilaria", "state": "SP", "type": "UTE", "phase": "Opera\u00e7\u00e3o", "ceg": "UTEAISP029196001", "start": "2004-06-17T00:00:00", "capacity": 2180.0, "lat": -21.91805555, "lon": -47.50694444}, {"name": "Fronteira", "state": "MG", "type": "UTE", "phase": "Opera\u00e7\u00e3o", "ceg": "UTEAIMG029199401", "start": "2007-07-09T00:00:00", "capacity": 2600.0, "lat": -20.3036956, "lon": -49.20602265}, {"name": "Cocamar Maring\u00e1", "state": "PR", "type": "UTE", "phase": "Opera\u00e7\u00e3o", "ceg": "UTEAIPR029201001", "start": "2010-01-26T00:00:00", "capacity": 13000.0, "lat": -23.43027212, "lon": -51.97737024}, {"name": "S\u00e3o Tom\u00e9", "state": "PR", "type": "UTE", "phase": "Opera\u00e7\u00e3o", "ceg": "UTEAIPR029202801", "start": "2004-05-01T00:00:00", "capacity": 5775.0, "lat": -23.54472222, "lon": -52.64555556}, {"name": "Fartura", "state": "SP", "type": "UTE", "phase": "Opera\u00e7\u00e3o", "ceg": "UTEAISP029203601", "start": "2006-09-23T00:00:00", "capacity": 62000.0, "lat": -21.1528, "lon": -49.61139999}, {"name": "Sonda - S\u00e3o Bernardo", "state": "SP", "type": "UTE", "phase": "Opera\u00e7\u00e3o", "ceg": "UTEPESP029205201", "start": "1997-07-01T00:00:00", "capacity": 2230.0, "lat": -23.69000967, "lon": -46.55553455}, {"name": "Cabo de Santo Agostinho", "state": "PE", "type": "UTE", "phase": "Opera\u00e7\u00e3o", "ceg": "UTEPEPE029215001", "start": "2001-12-01T00:00:00", "capacity": 2000.0, "lat": -8.28300966, "lon": -35.02553455}, {"name": "Petribu", "state": "PE", "type": "UTE", "phase": "Opera\u00e7\u00e3o", "ceg": "UTEAIPE029218401", "start": "1970-09-01T00:00:00", "capacity": 22000.0, "lat": -7.88777191, "lon": -35.24401822}, {"name": "Bonsucesso", "state": "SP", "type": "UTE", "phase": "Opera\u00e7\u00e3o", "ceg": "UTEPESP029233801", "start": "1900-01-03T00:00:00", "capacity": 1267.0, "lat": -23.43620688, "lon": -46.39120175}, {"name": "Irani", "state": "SC", "type": "UTE", "phase": "Opera\u00e7\u00e3o", "ceg": "UTEFLSC029228101", "start": "2004-10-22T00:00:00", "capacity": 10000.0, "lat": -26.92934267, "lon": -51.79053455}, {"name": "Limeira do Oeste", "state": "MG", "type": "UTE", "phase": "Opera\u00e7\u00e3o", "ceg": "UTEAIMG029232001", "start": "2004-11-01T00:00:00", "capacity": 12000.0, "lat": -19.52268333, "lon": -50.66037222}, {"name": "Videplast", "state": "SC", "type": "UTE", "phase": "Opera\u00e7\u00e3o", "ceg": "UTEPESC029237001", "start": "2005-03-16T00:00:00", "capacity": 2000.0, "lat": -27.00400967, "lon": -51.14253455}, {"name": "Imcopa", "state": "PR", "type": "UTE", "phase": "Opera\u00e7\u00e3o", "ceg": "UTEGNPR029242701", "start": "2008-06-03T00:00:00", "capacity": 7000.0, "lat": -25.591645, "lon": -49.40194}, {"name": "Itapicuru", "state": "MA", "type": "UTE", "phase": "Opera\u00e7\u00e3o", "ceg": "UTEPEMA029244301", "start": "2004-12-01T00:00:00", "capacity": 1440.0, "lat": -4.45133806, "lon": -43.88608}, {"name": "Jaraqui", "state": "AM", "type": "UTE", "phase": "Opera\u00e7\u00e3o", "ceg": "UTEGNAM029272901", "start": "2006-04-05T00:00:00", "capacity": 75477.0, "lat": -2.98156522, "lon": -60.01775678}, {"name": "Centro Alternativo Campinas", "state": "SP", "type": "UTE", "phase": "Opera\u00e7\u00e3o", "ceg": "UTEPESP029249401", "start": "2004-11-15T00:00:00", "capacity": 3600.0, "lat": -22.90676859, "lon": -47.05153455}, {"name": "Divigusa", "state": "MG", "type": "UTE", "phase": "Opera\u00e7\u00e3o", "ceg": "UTECMMG029250801", "start": "1900-01-03T00:00:00", "capacity": 2500.0, "lat": -20.11438135, "lon": -44.88195018}, {"name": "Hospital de Base", "state": "SP", "type": "UTE", "phase": "Opera\u00e7\u00e3o", "ceg": "UTEPESP029259101", "start": "1978-03-01T00:00:00", "capacity": 1666.0, "lat": -20.79323966, "lon": -49.34864455}, {"name": "Copebr\u00e1s Catal\u00e3o", "state": "GO", "type": "UTE", "phase": "Opera\u00e7\u00e3o", "ceg": "UTEPEGO029262101", "start": "2003-06-01T00:00:00", "capacity": 14800.0, "lat": -18.16600967, "lon": -47.93253455}, {"name": "Mat-Prima II", "state": "MG", "type": "UTE", "phase": "Opera\u00e7\u00e3o", "ceg": "UTECMMG029263001", "start": "1900-01-03T00:00:00", "capacity": 1200.0, "lat": -20.10562545, "lon": -44.90850691}, {"name": "Quirin\u00f3polis", "state": "GO", "type": "UTE", "phase": "Opera\u00e7\u00e3o", "ceg": "UTEAIGO029268001", "start": "2007-11-22T00:00:00", "capacity": 80000.0, "lat": -18.42520967, "lon": -50.44173455}, {"name": "Vertente", "state": "SP", "type": "UTE", "phase": "Opera\u00e7\u00e3o", "ceg": "UTEAISP029270201", "start": "2005-06-01T00:00:00", "capacity": 53000.0, "lat": -20.40150967, "lon": -48.99113455}, {"name": "Sol", "state": "ES", "type": "UTE", "phase": "Opera\u00e7\u00e3o", "ceg": "UTEOFES029273701", "start": "2007-06-19T00:00:00", "capacity": 147300.0, "lat": -20.12456966, "lon": -40.29167455}, {"name": "Caima", "state": "PA", "type": "UTE", "phase": "Opera\u00e7\u00e3o", "ceg": "UTEPEPA029274501", "start": "2005-05-30T00:00:00", "capacity": 4920.0, "lat": -4.27200966, "lon": -55.97453455}, {"name": "Bragagnolo", "state": "SC", "type": "UTE", "phase": "Opera\u00e7\u00e3o", "ceg": "UTEFLSC029275301", "start": "2001-01-02T00:00:00", "capacity": 1200.0, "lat": -26.77090049, "lon": -52.19133536}, {"name": "Tambaqui", "state": "AM", "type": "UTE", "phase": "Opera\u00e7\u00e3o", "ceg": "UTEPEAM029276101", "start": "2006-01-12T00:00:00", "capacity": 93036.8, "lat": -3.10916667, "lon": -59.93944444}, {"name": "Pira\u00ed", "state": "PR", "type": "UTE", "phase": "Opera\u00e7\u00e3o", "ceg": "UTEFLPR029282601", "start": "2006-04-01T00:00:00", "capacity": 9000.0, "lat": -24.532358, "lon": -49.941331}, {"name": "Frutal", "state": "MG", "type": "UTE", "phase": "Opera\u00e7\u00e3o", "ceg": "UTEAIMG029290701", "start": "1900-01-03T00:00:00", "capacity": 16092.0, "lat": -20.08255005, "lon": -48.82074995}, {"name": "Ouroeste", "state": "SP", "type": "UTE", "phase": "Opera\u00e7\u00e3o", "ceg": "UTEAISP029292301", "start": "2008-05-06T00:00:00", "capacity": 12000.0, "lat": -19.92249, "lon": -50.40199}, {"name": "Alcoolvale", "state": "MS", "type": "UTE", "phase": "Opera\u00e7\u00e3o", "ceg": "UTEAIMS029299001", "start": "2002-04-01T00:00:00", "capacity": 4200.0, "lat": -20.08729111, "lon": -51.29901023}, {"name": "Aeroporto Internacional Pinto Martins - Terminal de Passageiros (TPS-1)", "state": "CE", "type": "UTE", "phase": "Opera\u00e7\u00e3o", "ceg": "UTEPECE029304001", "start": "1998-04-01T00:00:00", "capacity": 1080.0, "lat": -3.77370966, "lon": -38.53213455}, {"name": "Aeroporto Internacional Eduardo Gomes", "state": "AM", "type": "UTE", "phase": "Opera\u00e7\u00e3o", "ceg": "UTEPEAM029310501", "start": "1976-03-01T00:00:00", "capacity": 1008.0, "lat": -3.03238871, "lon": -60.04556857}, {"name": "Aeroporto Internacional de Rio Branco", "state": "AC", "type": "UTE", "phase": "Opera\u00e7\u00e3o", "ceg": "UTEPEAC029317201", "start": "2001-11-01T00:00:00", "capacity": 1032.0, "lat": -9.86653106, "lon": -67.89714946}, {"name": "Caesar Park Hotel Guarulhos", "state": "SP", "type": "UTE", "phase": "Opera\u00e7\u00e3o", "ceg": "UTEPESP029327001", "start": "2001-03-01T00:00:00", "capacity": 1115.0, "lat": -23.45045278, "lon": -46.48895833}, {"name": "Proceda", "state": "SP", "type": "UTE", "phase": "Opera\u00e7\u00e3o", "ceg": "UTEPESP029330001", "start": "1994-01-01T00:00:00", "capacity": 2494.0, "lat": -23.65086319, "lon": -46.72130838}, {"name": "Sonda - Santo Amaro", "state": "SP", "type": "UTE", "phase": "Opera\u00e7\u00e3o", "ceg": "UTEPESP029331801", "start": "2004-09-01T00:00:00", "capacity": 1800.0, "lat": -23.54400967, "lon": -46.62653455}, {"name": "Shopping Center Grande Rio", "state": "RJ", "type": "UTE", "phase": "Opera\u00e7\u00e3o", "ceg": "UTEPERJ029346601", "start": "2005-01-20T00:00:00", "capacity": 1250.0, "lat": -22.79765, "lon": -43.35168056}, {"name": "Aeroporto Internacional de Congonhas - S\u00e3o Paulo", "state": "SP", "type": "UTE", "phase": "Opera\u00e7\u00e3o", "ceg": "UTEPESP029351201", "start": "1983-03-01T00:00:00", "capacity": 2273.0, "lat": -23.62740607, "lon": -46.65579564}, {"name": "Cenu", "state": "SP", "type": "UTE", "phase": "Opera\u00e7\u00e3o", "ceg": "UTEGNSP029358001", "start": "2004-07-01T00:00:00", "capacity": 4000.0, "lat": -23.61155833, "lon": -46.69783889}, {"name": "Ponta Negra", "state": "AM", "type": "UTE", "phase": "Opera\u00e7\u00e3o", "ceg": "UTEGNAM029361002", "start": "2006-12-15T00:00:00", "capacity": 73400.0, "lat": -3.09105556, "lon": -60.07297222}, {"name": "PQU", "state": "SP", "type": "UTE", "phase": "Opera\u00e7\u00e3o", "ceg": "UTEGNSP029362801", "start": "2005-09-01T00:00:00", "capacity": 8760.0, "lat": -23.65751, "lon": -46.53087389},